timestamp,A_x,A_y,A_z,P,Q,R,Phi,Theta,Psi,poseX,poseY,poseZ,state_X,state_Y,state_Z,state_VzB,state_Bx,state_By,state_Bz,p1_x,p1_y,p2_x,p2_y,p3_x,p3_y,p4_x,p4_y,roll,pitch,yaw,alt,targetHeading,highLevelState,lowLevelState,gateNumber,filtered_x,filtered_y,x_OT,y_OT,vx_OT,vy_OT,filtered_vx,filtered_vygateArearansac_corr_x,ransac_corr_y,ransac_corr_vx,ransac_corr_vy,detectionTimeStamppTermX,dTermX,pTermY,dTermY,vxcmd,vycmd
8280,0,0,0,0,0,0,0,0,0,0,0,0,0,0,0,0,0,0,0,0,0,0,0,0,0,0,0,0.436332,-0.0872664,0,-1.5,-nan,0,0,0,0,0,0,0,0,0,0,0,1.9603e-19,0,0,0,0,0,0,0,0,0,0.2,1
9262,-3.11487e-12,3.04675e-38,-1.51733e-06,-3.18057e-12,3.04651e-38,0,-1.06589e-13,0,0,0,0,0,0,0,0,0,0,0,0,0,0,0,0,0,0,0,0,0.436332,-0.0872664,0,-1.5,-nan,0,0,0,0,0,0,0,0,0,0,0,1.9603e-19,0,0,0,0,0,0,0,0,0,0.2,1
9304,-3.11487e-12,3.04675e-38,-1.51733e-06,-3.18057e-12,3.04651e-38,0,-1.0659e-13,0,0,0,0,0,0,0,0,0,0,0,0,0,0,0,0,0,0,0,0,0.436332,-0.0872664,0,-1.5,-nan,0,0,0,0,0,0,0,0,0,0,0,1.9603e-19,0,0,0,0,0,0,0,0,0,0.2,1
9540,-3.11487e-12,3.04675e-38,-1.51733e-06,-3.18057e-12,3.04651e-38,0,-1.0659e-13,0,0,0,0,0,0,0,0,0,0,0,0,0,0,0,0,0,0,0,0,0.436332,-0.0872664,0,-1.5,-nan,0,0,0,0,0,0,0,0,0,0,0,1.9603e-19,0,0,0,0,0,0,0,0,0,0.2,1
9603,-3.11487e-12,3.04675e-38,-1.51733e-06,-3.18057e-12,3.04651e-38,0,-1.0659e-13,0,0,0,0,0,0,0,0,0,0,0,0,0,0,0,0,0,0,0,0,0.436332,-0.0872664,0,-1.5,-nan,0,0,0,0,0,0,0,0,0,0,0,1.9603e-19,0,0,0,0,0,0,0,0,0,0.2,1
9754,-3.11487e-12,3.04675e-38,-1.51733e-06,-3.18057e-12,3.04651e-38,0,-1.0659e-13,0,0,0,0,0,0,0,0,0,0,0,0,0,0,0,0,0,0,0,0,0.436332,-0.0872664,0,-1.5,-nan,0,0,0,0,0,0,0,0,0,0,0,1.9603e-19,0,0,0,0,0,0,0,0,0,0.2,1
9833,-3.11487e-12,3.04675e-38,-1.51733e-06,-3.18057e-12,3.04651e-38,0,-1.06591e-13,0,0,0,0,0,0,0,0,0,0,0,0,0,0,0,0,0,0,0,0,0.436332,-0.0872664,0,-1.5,-nan,0,0,0,0,0,0,0,0,0,0,0,1.9603e-19,0,0,0,0,0,0,0,0,0,0.2,1
9940,-3.11487e-12,3.04675e-38,-1.51733e-06,-3.18057e-12,3.04651e-38,0,-1.06591e-13,0,0,0,0,0,0,0,0,0,0,0,0,0,0,0,0,0,0,0,0,0.436332,-0.0872664,0,-1.5,-nan,0,0,0,0,0,0,0,0,0,0,0,1.9603e-19,0,0,0,0,0,0,0,0,0,0.2,1
10000,-3.11487e-12,3.04675e-38,-1.51733e-06,-3.18057e-12,3.04651e-38,0,-1.06591e-13,0,0,0,0,0,0,0,0,0,0,0,0,0,0,0,0,0,0,0,0,0.436332,-0.0872664,0,-1.5,-nan,0,0,0,0,0,0,0,0,0,0,0,1.9603e-19,0,0,0,0,0,0,0,0,0,0.2,1
10073,-3.11487e-12,3.04675e-38,-1.51733e-06,-3.18057e-12,3.04651e-38,0,-1.06591e-13,0,0,0,0,0,0,0,0,0,0,0,0,0,0,0,0,0,0,0,0,0.436332,-0.0872664,0,-1.5,-nan,0,0,0,0,0,0,0,0,0,0,0,1.9603e-19,0,0,0,0,0,0,0,0,0,0.2,1
10090,-3.11487e-12,3.04675e-38,-1.51733e-06,-3.18057e-12,3.04651e-38,0,-1.06592e-13,0,0,0,0,0,0,0,0,0,0,0,0,0,0,0,0,0,0,0,0,0.436332,-0.0872664,0,-1.5,-nan,0,0,0,0,0,0,0,0,0,0,0,1.9603e-19,0,0,0,0,0,0,0,0,0,0.2,1
10200,-3.11487e-12,3.04675e-38,-1.51733e-06,-3.18057e-12,3.04651e-38,0,-1.06592e-13,0,0,0,0,0,0,0,0,0,0,0,0,0,0,0,0,0,0,0,0,0.436332,-0.0872664,0,-1.5,-nan,0,0,0,0,0,0,0,0,0,0,0,1.9603e-19,0,0,0,0,0,0,0,0,0,0.2,1
10292,-3.11487e-12,3.04675e-38,-1.51733e-06,-3.18057e-12,3.04651e-38,0,-1.06592e-13,0,0,0,0,0,0,0,0,0,0,0,0,0,0,0,0,0,0,0,0,0.436332,-0.0872664,0,-1.5,-nan,0,0,0,0,0,0,0,0,0,0,0,1.9603e-19,0,0,0,0,0,0,0,0,0,0.2,1
10329,-3.11487e-12,3.04675e-38,-1.51733e-06,-3.18057e-12,3.04651e-38,0,-1.06593e-13,0,0,0,0,0,0,0,0,0,0,4.4,0,-1368112832,1019174565,-1368112832,1019174565,-1223532906,-1368112832,-1367607632,-1367607632,0.436332,-0.0872664,0,-1.5,-nan,0,0,0,0,0,0,0,0,0,0,0,0,0,0,0,0,10321,0,0,0,0,0.2,1
10347,-3.11487e-12,3.04675e-38,-1.51733e-06,-3.18057e-12,3.04651e-38,0,-1.06593e-13,0,0,0,0,0,0,0,0,0,0,4.4,0,-1368112832,1019174565,-1368112832,1019174565,-1223532906,-1368112832,-1367607632,-1367607632,0.436332,-0.0872664,0,-1.5,-nan,0,0,0,0,0,0,0,0,0,0,0,0,0,0,0,0,10321,0,0,0,0,0.2,1
10367,-3.11487e-12,3.04675e-38,-1.51733e-06,-3.18057e-12,3.04651e-38,0,-1.06593e-13,0,0,0,0,0,0,0,0,0,0,4.4,0,-1368112832,1019174565,-1368112832,1019174565,-1223532906,-1368112832,-1367607632,-1367607632,0.436332,-0.0872664,0,-1.5,-nan,0,0,0,0,0,0,0,0,0,0,0,0,0,0,0,0,10321,0,0,0,0,0.2,1
10470,-3.11487e-12,3.04675e-38,-1.51733e-06,-3.18057e-12,3.04651e-38,0,-1.06593e-13,0,0,0,0,0,0,0,0,0,0,4.4,0,-1368112832,1019174565,-1368112832,1019174565,-1223532906,-1368112832,-1367607632,-1367607632,0.436332,-0.0872664,0,-1.5,-nan,0,0,0,0,0,0,0,0,0,0,0,0,0,0,0,0,10321,0,0,0,0,0.2,1
10516,-3.11487e-12,3.04675e-38,-1.51733e-06,-3.18057e-12,3.04651e-38,0,-1.06594e-13,0,0,0,0,0,0,0,0,0,0,4.4,0,-1368112832,1019174565,-1368112832,1019174565,-1223532906,-1368112832,-1367607632,-1367607632,0.436332,-0.0872664,0,-1.5,-nan,0,0,0,0,0,0,0,0,0,0,0,0,0,0,0,0,10321,0,0,0,0,0.2,1
10530,-3.11487e-12,3.04675e-38,-1.51733e-06,-3.18057e-12,3.04651e-38,0,-1.06594e-13,0,0,-3.5794,-0.112277,0.60773,0,0,0,0,0,-0.503784,-0.112277,271,-92,271,-92,398,-73,270,45,0.436332,-0.0872664,0,-1.5,-nan,0,0,0,0,0,0,0,0,0,0,0,17536,0,0,0,0,10521,0,0,0,0,0.2,1
10640,-3.11487e-12,3.04675e-38,-1.51733e-06,-3.18057e-12,3.04651e-38,0,-1.06594e-13,0,0,-3.53355,-0.0270037,0.616937,0,0,0,0,0,-0.440969,-0.0270037,264,-85,264,-85,390,-94,259,41,0.436332,-0.0872664,0,-1.5,-nan,0,0,0,0,0,0,0,0,0,0,0,18209,0,0,0,0,10632,0,0,0,0,0.2,1
10759,-3.11487e-12,3.04675e-38,-1.51733e-06,-3.18057e-12,3.04651e-38,0,-1.06594e-13,0,0,-3.61901,0.259081,0.255903,0,0,0,0,0,-0.558043,0.259081,227,-37,227,-37,354,-41,231,88,-0.436332,-0.0872664,0,-1.5,-nan,0,0,0,-0.610113,0.615465,0,0,0,0,-0.437568,2.99481,16383,-0.558043,0.259081,-0.437568,2.99481,10744,0,0,0,0,0.2,1
10780,-3.11487e-12,3.04675e-38,-1.51733e-06,-3.18057e-12,3.04651e-38,0,-1.06595e-13,0,0,-3.61901,0.259081,0.255903,0,0,0,0,0,-0.558043,0.259081,227,-37,227,-37,354,-41,231,88,-0.436332,-0.0872664,0,-1.5,-nan,0,0,0,-0.619302,0.678357,0,0,0,0,-0.437568,2.99481,16383,-0.558043,0.259081,-0.437568,2.99481,10744,0,0,0,0,0.2,1
10800,-3.11487e-12,3.04675e-38,-1.51733e-06,-3.18057e-12,3.04651e-38,0,-1.06595e-13,0,0,-3.77234,-0.100958,0.359844,0,0,0,0,0,-0.768112,-0.100958,272,-30,272,-30,395,-46,271,81,0.436332,-0.0872664,0,-1.5,-nan,0,0,0,-0.794283,-0.106874,0,0,0,0,-1.30857,-0.295814,15748,-0.768112,-0.100958,-1.30857,-0.295814,10788,0,0,0,0,0.2,1
10910,-3.11487e-12,3.04675e-38,-1.51733e-06,-3.18057e-12,3.04651e-38,0,-1.06595e-13,0,0,-3.77234,-0.100958,0.359844,0,0,0,0,0,-0.768112,-0.100958,272,-30,272,-30,395,-46,271,81,0.436332,-0.0872664,0,-1.5,-nan,0,0,0,-0.938226,-0.139413,0,0,0,0,-1.30857,-0.295814,15748,-0.768112,-0.100958,-1.30857,-0.295814,10788,0,0,0,0,0.2,1
10954,-3.11487e-12,3.04675e-38,-1.51733e-06,-3.18057e-12,3.04651e-38,0,-1.06596e-13,0,0,-3.66836,-0.261976,0.561744,0,0,0,0,0,-0.625659,-0.261976,297,-68,297,-68,412,-71,281,53,0.436332,-0.0872664,0,-1.5,-nan,0,0,0,-0.627638,-0.26592,0,0,0,0,-0.282771,-0.563479,16768,-0.625659,-0.261976,-0.282771,-0.563479,10949,0,0,0,0,0.2,1
10996,-3.11487e-12,3.04675e-38,-1.51733e-06,-3.18057e-12,3.04651e-38,0,-1.06596e-13,0,0,-3.48182,-0.285779,0.550275,0,0,0,0,0,-0.370099,-0.285779,290,-82,290,-82,421,-89,290,46,0.436332,-0.0859531,0,-1.5,-nan,0,0,0,-0.496965,-0.289586,0,0,0,0,0.0142062,-0.563479,17947,-0.497093,-0.284515,0.0142062,-0.563479,10989,0,0,0,0,0.2,1
11013,-3.11487e-12,3.04675e-38,-1.51733e-06,-3.18057e-12,3.04651e-38,0,-1.06596e-13,0,0,-3.48182,-0.285779,0.550275,0,0,0,0,0,-0.370099,-0.285779,290,-82,290,-82,421,-89,290,46,0.436332,-0.0859531,0,-1.5,-nan,0,0,0,-0.496723,-0.299166,0,0,0,0,0.0142062,-0.563479,17947,-0.497093,-0.284515,0.0142062,-0.563479,10989,0,0,0,0,0.2,1
11034,-3.11487e-12,3.04675e-38,-1.51733e-06,-3.18057e-12,3.04651e-38,0,-1.06596e-13,0,0,-3.48182,-0.285779,0.550275,0,0,0,0,0,-0.370099,-0.285779,290,-82,290,-82,421,-89,290,46,0.436332,-0.0859531,0,-1.5,-nan,0,0,0,-0.496425,-0.310999,0,0,0,0,0.0142062,-0.563479,17947,-0.497093,-0.284515,0.0142062,-0.563479,10989,0,0,0,0,0.2,1
11054,-3.11487e-12,3.04675e-38,-1.51733e-06,-3.18057e-12,3.04651e-38,0,-1.06599e-13,0,0,-3.45364,-0.2708,0.584953,0,0,0,0,0,-0.331494,-0.2708,291,-87,291,-87,423,-97,285,38,0.436332,-0.0714404,0,-1.5,-nan,0,0,0,-0.487865,-0.275735,0,0,0,0,0.0504877,-0.473578,19458,-0.488117,-0.273367,0.0504877,-0.473578,11051,0,0,0,0,0.2,1
11164,-3.11487e-12,3.04675e-38,-1.51733e-06,-3.18057e-12,3.04651e-38,0,-1.06599e-13,0,0,-3.52477,-0.212083,0.645042,0,0,0,0,0,-0.428936,-0.212083,284,-91,284,-91,421,-95,282,37,0.436332,-0.0507015,0,-1.5,-nan,0,0,0,-0.432729,-0.327829,0,0,0,0,0.102335,-0.473578,18765,-0.443985,-0.275735,0.102335,-0.473578,11152,0,0,0,0,0.2,1
11209,-3.11487e-12,3.04675e-38,-1.51733e-06,-3.18057e-12,3.04651e-38,0,-1.06597e-13,0,0,-3.42562,-0.225178,0.57367,0,0,0,0,0,-0.293098,-0.225178,282,-89,282,-89,418,-96,281,37,0.436332,-0.0350682,0,-1.5,-nan,0,0,0,-0.406517,-0.33296,0,0,0,0,0.141418,-0.440929,19043,-0.41288,-0.313118,0.141418,-0.440929,11197,0,0,0,0,0.2,1
11226,-3.11487e-12,3.04675e-38,-1.51733e-06,-3.18057e-12,3.04651e-38,0,-1.06597e-13,0,0,-3.51137,-0.225773,0.574568,0,0,0,0,0,-0.410581,-0.225773,282,-88,282,-88,414,-78,281,38,0.436332,-0.0346596,0,-1.5,-nan,0,0,0,-0.404113,-0.273956,0,0,0,0,0.14244,-0.346315,18221,-0.40511,-0.271532,0.14244,-0.346315,11221,0,0,0,0,0.2,1
11244,-3.11487e-12,3.04675e-38,-1.51733e-06,-3.18057e-12,3.04651e-38,0,-1.06597e-13,0,0,-3.51137,-0.225773,0.574568,0,0,0,0,0,-0.410581,-0.225773,282,-88,282,-88,414,-78,281,38,0.436332,-0.0346596,0,-1.5,-nan,0,0,0,-0.401549,-0.28019,0,0,0,0,0.14244,-0.346315,18221,-0.40511,-0.271532,0.14244,-0.346315,11221,0,0,0,0,0.2,1
11354,-3.11487e-12,3.04675e-38,-1.51733e-06,-3.18057e-12,3.04651e-38,0,-1.06598e-13,0,0,-3.57653,-0.217907,0.543726,0,0,0,0,0,-0.499852,-0.217907,282,-77,282,-77,412,-71,281,47,0.436332,-0.0365131,0,-1.5,-nan,0,0,0,-0.38897,-0.262765,0,0,0,0,0.137806,-0.195444,17292,-0.404128,-0.241266,0.137806,-0.195444,11342,0,0,0,0,0.2,1
11391,-3.11487e-12,3.04675e-38,-1.51733e-06,-3.18057e-12,3.04651e-38,0,-1.06598e-13,0,0,-3.57653,-0.217907,0.543726,0,0,0,0,0,-0.499852,-0.217907,282,-77,282,-77,412,-71,281,47,0.436332,-0.0365131,0,-1.5,-nan,0,0,0,-0.383871,-0.269996,0,0,0,0,0.137806,-0.195444,17292,-0.404128,-0.241266,0.137806,-0.195444,11342,0,0,0,0,0.2,1
11413,-3.11487e-12,3.04675e-38,-1.51733e-06,-3.18057e-12,3.04651e-38,0,-1.06598e-13,0,0,-3.57653,-0.217907,0.543726,0,0,0,0,0,-0.499852,-0.217907,282,-77,282,-77,412,-71,281,47,0.436332,-0.0365131,0,-1.5,-nan,0,0,0,-0.380839,-0.274296,0,0,0,0,0.137806,-0.195444,17292,-0.404128,-0.241266,0.137806,-0.195444,11342,0,0,0,0,0.2,1
11449,-3.11487e-12,3.04675e-38,-1.51733e-06,-3.18057e-12,3.04651e-38,0,-1.06598e-13,0,0,-3.57653,-0.217907,0.543726,0,0,0,0,0,-0.499852,-0.217907,282,-77,282,-77,412,-71,281,47,0.436332,-0.0365131,0,-1.5,-nan,0,0,0,-0.375878,-0.281332,0,0,0,0,0.137806,-0.195444,17292,-0.404128,-0.241266,0.137806,-0.195444,11342,0,0,0,0,0.2,1
11564,-3.11487e-12,3.04675e-38,-1.51733e-06,-3.18057e-12,3.04651e-38,0,-1.066e-13,0,0,-3.61779,-0.268231,0.562182,0,0,0,0,0,-0.556373,-0.268231,290,-75,290,-75,417,-71,286,49,0.436332,-0.0756793,0,-1.5,-nan,0,0,0,-0.460109,-0.292597,0,0,0,0,0.0398905,-0.177964,16899,-0.464696,-0.272131,0.0398905,-0.177964,11552,0,0,0,0,0.2,1
11602,-3.11487e-12,3.04675e-38,-1.51733e-06,-3.18057e-12,3.04651e-38,0,-1.06599e-13,0,0,-3.61779,-0.268231,0.562182,0,0,0,0,0,-0.556373,-0.268231,290,-75,290,-75,417,-71,286,49,0.436332,-0.0756793,0,-1.5,-nan,0,0,0,-0.458593,-0.29936,0,0,0,0,0.0398905,-0.177964,16899,-0.464696,-0.272131,0.0398905,-0.177964,11552,0,0,0,0,0.2,1
11648,-3.11487e-12,3.04675e-38,-1.51733e-06,-3.18057e-12,3.04651e-38,0,-1.066e-13,0,0,-3.61779,-0.268231,0.562182,0,0,0,0,0,-0.556373,-0.268231,290,-75,290,-75,417,-71,286,49,0.436332,-0.0756793,0,-1.5,-nan,0,0,0,-0.456758,-0.307546,0,0,0,0,0.0398905,-0.177964,16899,-0.464696,-0.272131,0.0398905,-0.177964,11552,0,0,0,0,0.2,1
11665,-3.11487e-12,3.04675e-38,-1.51733e-06,-3.18057e-12,3.04651e-38,0,-1.066e-13,0,0,-3.61779,-0.268231,0.562182,0,0,0,0,0,-0.556373,-0.268231,290,-75,290,-75,417,-71,286,49,0.436332,-0.0756793,0,-1.5,-nan,0,0,0,-0.45608,-0.310572,0,0,0,0,0.0398905,-0.177964,16899,-0.464696,-0.272131,0.0398905,-0.177964,11552,0,0,0,0,0.2,1
11757,-3.11487e-12,3.04675e-38,-1.51733e-06,-3.18057e-12,3.04651e-38,0,-1.06601e-13,0,0,-3.61779,-0.268231,0.562182,0,0,0,0,0,-0.556373,-0.268231,290,-75,290,-75,417,-71,286,49,0.436332,-0.0756793,0,-1.5,-nan,0,0,0,-0.45245,-0.326767,0,0,0,0,0.0398905,-0.177964,16899,-0.464696,-0.272131,0.0398905,-0.177964,11552,0,0,0,0,0.2,1
11864,-3.11487e-12,3.04675e-38,-1.51733e-06,-3.18057e-12,3.04651e-38,0,-1.06601e-13,0,0,-3.50998,-0.238276,0.438572,0,0,0,0,0,-0.408676,-0.238276,291,-84,291,-84,412,-57,281,59,0.436332,-0.0662247,0,-1.5,-nan,0,0,0,-0.417799,-0.333304,0,0,0,0,0.063527,-0.162044,19519,-0.418434,-0.331683,0.063527,-0.162044,11856,0,0,0,0,0.2,1
11897,-3.11487e-12,3.04675e-38,-1.51733e-06,-3.18057e-12,3.04651e-38,0,-1.06601e-13,0,0,-3.50998,-0.238276,0.438572,0,0,0,0,0,-0.408676,-0.238276,291,-84,291,-84,412,-57,281,59,0.436332,-0.0662247,0,-1.5,-nan,0,0,0,-0.415702,-0.338651,0,0,0,0,0.063527,-0.162044,19519,-0.418434,-0.331683,0.063527,-0.162044,11856,0,0,0,0,0.2,1
12104,-3.11487e-12,3.04675e-38,-1.51733e-06,-3.18057e-12,3.04651e-38,0,-1.06604e-13,0,0,-3.54215,-0.255579,0.388844,0,0,0,0,0,-0.452749,-0.255579,289,-56,289,-56,412,-64,284,69,0.436332,-0.0724133,0,-1.5,-nan,0,0,0,-0.4292,-0.339934,0,0,0,0,0.0480556,-0.131645,17290,-0.439148,-0.312683,0.0480556,-0.131645,12092,0,0,0,0,0.2,1
12664,-3.11487e-12,3.04675e-38,-1.51733e-06,-3.18057e-12,3.04651e-38,0,-1.06604e-13,0,0,-3.51852,-0.200788,0.428363,-0.389454,-0.317348,0.0541308,-0.0676401,0,-0.420366,-0.200788,277,-58,277,-58,411,-74,282,63,0.436332,-0.0699832,0,-1.5,-nan,0,0,0,-0.389454,-0.317348,0,0,0,0,0.0541308,-0.0676401,18358,0,0,0,0,12652,0,0,0,0,0.2,1
12715,-3.11487e-12,3.04675e-38,-1.51733e-06,-3.18057e-12,3.04651e-38,0,-1.06602e-13,0,0,-3.54115,-0.195674,0.441659,-0.386805,-0.320657,0.0527824,-0.0659551,0,-0.451374,-0.195674,277,-58,277,-58,408,-74,282,63,0.436332,-0.0705226,0,-1.5,-nan,0,0,0,-0.386805,-0.320657,0,0,0,0,0.0527824,-0.0659551,17947,0,0,0,0,12706,0,0,0,0,0.2,1
12732,-3.11487e-12,3.04675e-38,-1.51733e-06,-3.18057e-12,3.04651e-38,0,-1.06602e-13,0,0,-3.5399,-0.208593,0.441166,-0.385861,-0.321838,0.0523088,-0.0653634,0,-0.449666,-0.208593,280,-58,280,-58,408,-74,282,63,0.436332,-0.070712,0,-1.5,-nan,0,0,0,-0.385861,-0.321838,0,0,0,0,0.0523088,-0.0653634,17536,0,0,0,0,12723,0,0,0,0,0.2,1
12840,-3.11487e-12,3.04675e-38,-1.51733e-06,-3.18057e-12,3.04651e-38,0,-1.06602e-13,0,0,-3.51568,-0.200654,0.427034,-0.380495,-0.328543,0.0494949,-0.0618472,0,-0.416482,-0.200654,277,-58,277,-58,408,-74,282,63,0.436332,-0.0718376,0,-1.5,-nan,0,0,0,-0.380495,-0.328543,0,0,0,0,0.0494949,-0.0618472,17947,0,0,0,0,12832,0,0,0,0,0.2,1
12942,-3.11487e-12,3.04675e-38,-1.51733e-06,-3.18057e-12,3.04651e-38,0,-1.06602e-13,0,0,-3.51568,-0.200654,0.427034,-0.375685,-0.334553,0.0469803,-0.058705,0,-0.416482,-0.200654,277,-58,277,-58,408,-74,282,63,0.431424,0.0124709,0,-1.5,-nan,0,0,0,-0.389917,-0.193855,0,0,0,0,0.260266,0.0668843,17947,-0.0359868,0.127888,0.213286,0.125589,12931,0,0,0,0,0.2,1
12962,-3.11487e-12,3.04675e-38,-1.51733e-06,-3.18057e-12,3.04651e-38,0,-1.06603e-13,0,0,-3.53276,-0.197352,0.436843,-0.374752,-0.335719,0.0465119,-0.0581197,0,-0.439883,-0.197352,277,-58,277,-58,408,-74,282,63,0.436332,-0.0872664,0,-1.5,-nan,0,0,0,-0.442148,-0.196692,0,0,0,0,-0.113382,0.0331801,17947,-0.0641983,0.137201,-0.159894,0.0912997,12951,0,0,0,0,0.2,1
12979,-3.11487e-12,3.04675e-38,-1.51733e-06,-3.18057e-12,3.04651e-38,0,-1.06603e-13,0,0,-3.53276,-0.197352,0.436843,-0.373966,-0.336702,0.0461176,-0.057627,0,-0.439883,-0.197352,277,-58,277,-58,408,-74,282,63,0.436332,-0.0872664,0,-1.5,-nan,0,0,0,-0.44408,-0.196123,0,0,0,0,-0.113776,0.0336727,17947,-0.0641983,0.137201,-0.159894,0.0912997,12951,0,0,0,0,0.2,1
13003,-3.11487e-12,3.04675e-38,-1.51733e-06,-3.18057e-12,3.04651e-38,0,-1.06603e-13,0,0,-3.53276,-0.197352,0.436843,-0.372868,-0.338073,0.0455661,-0.0569379,0,-0.439883,-0.197352,277,-58,277,-58,408,-74,282,63,0.436332,-0.0872664,0,-1.5,-nan,0,0,0,-0.442215,-0.196745,0,0,0,0,-0.0973368,0.0255153,17947,-0.0659176,0.139349,-0.142903,0.0824532,12991,0,0,0,0,0.2,1
13046,-3.11487e-12,3.04675e-38,-1.51733e-06,-3.18057e-12,3.04651e-38,0,-1.06603e-13,0,0,-3.51404,-0.195977,0.419092,-0.370943,-0.340478,0.0445903,-0.0557185,0,-0.414231,-0.195977,277,-58,277,-58,408,-74,282,66,0.436332,-0.0872664,0,-1.5,-nan,0,0,0,-0.446435,-0.194634,0,0,0,0,-0.0983127,0.031448,18340,-0.0693471,0.142096,-0.142903,0.0871665,13034,0,0,0,0,0.2,1
13157,-3.11487e-12,3.04675e-38,-1.51733e-06,-3.18057e-12,3.04651e-38,0,-1.06604e-13,0,0,-3.52223,-0.1943,0.423781,-0.366283,-0.346302,0.0421504,-0.0526697,0,-0.425458,-0.1943,277,-58,277,-58,408,-74,282,66,0.436332,-0.080787,0,-1.5,-nan,0,0,0,-0.425889,-0.194075,0,0,0,0,0.0271212,0.02048,18340,-0.0594705,0.151569,-0.0150292,0.0731497,13149,0,0,0,0,0.2,1
13201,-3.11487e-12,3.04675e-38,-1.51733e-06,-3.18057e-12,3.04651e-38,0,-1.06607e-13,0,0,-3.5655,-0.203617,0.455865,-0.364422,-0.348627,0.0412054,-0.0514888,0,-0.484734,-0.203617,280,-58,280,-58,408,-74,282,63,0.436332,-0.0872664,0,-1.5,-nan,0,0,0,-0.45559,-0.193108,0,0,0,0,-0.0864847,0.0216609,17536,-0.0854217,0.152227,-0.12769,0.0731497,13189,0,0,0,0,0.2,1
13248,-3.11487e-12,3.04675e-38,-1.51733e-06,-3.18057e-12,3.04651e-38,0,-1.06605e-13,0,0,-3.54115,-0.195674,0.441659,-0.362524,-0.350999,0.0402405,-0.0502832,0,-0.451374,-0.195674,277,-58,277,-58,408,-74,282,63,0.436332,-0.0872664,0,-1.5,-nan,0,0,0,-0.456623,-0.193679,0,0,0,0,-0.0796506,0.0203594,17947,-0.0884642,0.154,-0.119891,0.0706426,13236,0,0,0,0,0.2,1
13271,-3.11487e-12,3.04675e-38,-1.51733e-06,-3.18057e-12,3.04651e-38,0,-1.06605e-13,0,0,-3.53096,-0.195449,0.439841,-0.361606,-0.352146,0.0397792,-0.0497067,0,-0.437418,-0.195449,277,-60,277,-60,408,-74,282,63,0.436332,-0.0872664,0,-1.5,-nan,0,0,0,-0.446087,-0.193799,0,0,0,0,-0.0276794,0.019127,17947,-0.0829298,0.156764,-0.0674586,0.0688337,13259,0,0,0,0,0.2,1
13388,-3.11487e-12,3.04675e-38,-1.51733e-06,-3.18057e-12,3.04651e-38,0,-1.06606e-13,0,0,-3.54115,-0.195674,0.441659,-0.357198,-0.357654,0.0374651,-0.0468151,0,-0.451374,-0.195674,277,-58,277,-58,408,-74,282,63,0.436332,-0.0872664,0,-1.5,-nan,0,0,0,-0.448929,-0.192534,0,0,0,0,-0.0314594,0.0190085,17947,-0.0913178,0.164725,-0.0689245,0.0658236,13384,0,0,0,0,0.2,1
13447,-3.11487e-12,3.04675e-38,-1.51733e-06,-3.18057e-12,3.04651e-38,0,-1.06606e-13,0,0,-3.51404,-0.195977,0.419092,-0.355045,-0.360344,0.0363639,-0.0454391,0,-0.414231,-0.195977,277,-58,277,-58,408,-74,282,66,0.436332,-0.0872664,0,-1.5,-nan,0,0,0,-0.43734,-0.191531,0,0,0,0,0.0016406,0.0209981,18340,-0.0802468,0.164894,-0.0347233,0.0664372,13435,0,0,0,0,0.2,1
13468,-3.11487e-12,3.04675e-38,-1.51733e-06,-3.18057e-12,3.04651e-38,0,-1.06609e-13,0,0,-3.54115,-0.195674,0.441659,-0.354287,-0.361292,0.0359833,-0.0449636,0,-0.451374,-0.195674,277,-58,277,-58,408,-74,282,63,0.436332,-0.0872664,0,-1.5,-nan,0,0,0,-0.449565,-0.194434,0,0,0,0,-0.0270394,0.0140877,17947,-0.0939546,0.165617,-0.0630227,0.0590513,13455,0,0,0,0,0.2,1
13507,-3.11487e-12,3.04675e-38,-1.51733e-06,-3.18057e-12,3.04651e-38,0,-1.06609e-13,0,0,-3.54115,-0.195674,0.441659,-0.352906,-0.363017,0.0352841,-0.0440898,0,-0.451374,-0.195674,277,-58,277,-58,408,-74,282,63,0.436332,-0.0872664,0,-1.5,-nan,0,0,0,-0.453773,-0.194203,0,0,0,0,-0.0395901,0.0132717,17947,-0.0979469,0.166577,-0.0748742,0.0573616,13495,0,0,0,0,0.2,1
13533,-3.11487e-12,3.04675e-38,-1.51733e-06,-3.18057e-12,3.04651e-38,0,-1.06609e-13,0,0,-3.54115,-0.195674,0.441659,-0.351997,-0.364152,0.0348269,-0.0435185,0,-0.451374,-0.195674,277,-58,277,-58,408,-74,282,63,0.436332,-0.0872664,0,-1.5,-nan,0,0,0,-0.453535,-0.194826,0,0,0,0,-0.0359606,0.0105901,17947,-0.0996967,0.16792,-0.0707875,0.0541086,13521,0,0,0,0,0.2,1
13645,-3.11487e-12,3.04675e-38,-1.51733e-06,-3.18057e-12,3.04651e-38,0,-1.06607e-13,0,0,-3.51568,-0.200654,0.427034,-0.348331,-0.368733,0.0329014,-0.0411124,0,-0.416482,-0.200654,277,-58,277,-58,408,-74,282,63,0.436332,-0.0872664,0,-1.5,-nan,0,0,0,-0.455712,-0.192776,0,0,0,0,-0.0334522,0.0143098,17947,-0.100016,0.169806,-0.0663536,0.0554223,13632,0,0,0,0,0.2,1
13698,-3.11487e-12,3.04675e-38,-1.51733e-06,-3.18057e-12,3.04651e-38,0,-1.06608e-13,0,0,-3.51404,-0.195977,0.419092,-0.346596,-0.370902,0.0320163,-0.0400064,0,-0.414231,-0.195977,277,-58,277,-58,408,-74,282,66,0.436332,-0.0872664,0,-1.5,-nan,0,0,0,-0.445671,-0.192723,0,0,0,0,-0.0145722,0.0141311,18340,-0.0965591,0.175255,-0.0465884,0.0541376,13686,0,0,0,0,0.2,1
13715,-3.11487e-12,3.04675e-38,-1.51733e-06,-3.18057e-12,3.04651e-38,0,-1.06605e-13,0,0,-3.51404,-0.195977,0.419092,-0.346055,-0.371578,0.0317449,-0.0396673,0,-0.414231,-0.195977,277,-58,277,-58,408,-74,282,66,0.436332,-0.0872664,0,-1.5,-nan,0,0,0,-0.445922,-0.192479,0,0,0,0,-0.0148435,0.0144702,18340,-0.0965591,0.175255,-0.0465884,0.0541376,13686,0,0,0,0,0.2,1
13741,-3.11487e-12,3.04675e-38,-1.51733e-06,-3.18057e-12,3.04651e-38,0,-1.06608e-13,0,0,-3.63479,-0.19838,0.471554,-0.345238,-0.372599,0.0313335,-0.0391533,0,-0.579659,-0.19838,277,-58,277,-58,406,-62,282,63,0.436332,-0.0872664,0,-1.5,-nan,0,0,0,-0.460646,-0.192141,0,0,0,0,-0.0403767,0.0147841,16125,-0.113544,0.179056,-0.0717102,0.0539375,13728,0,0,0,0,0.2,1
13893,-3.11487e-12,3.04675e-38,-1.51733e-06,-3.18057e-12,3.04651e-38,0,-1.06607e-13,0,0,-3.62555,-0.200068,0.466302,-0.340836,-0.378099,0.0289813,-0.036214,0,-0.567009,-0.200068,277,-58,277,-58,406,-62,282,63,0.436332,-0.0872664,0,-1.5,-nan,0,0,0,-0.480367,-0.190865,0,0,0,0,-0.0630086,0.0158601,16125,-0.138795,0.186817,-0.0919899,0.0520742,13886,0,0,0,0,0.2,1
13909,-3.11487e-12,3.04675e-38,-1.51733e-06,-3.18057e-12,3.04651e-38,0,-1.06606e-13,0,0,-3.62555,-0.200068,0.466302,-0.340347,-0.378711,0.0287356,-0.0359071,0,-0.567009,-0.200068,277,-58,277,-58,406,-62,282,63,0.436332,-0.0872664,0,-1.5,-nan,0,0,0,-0.481441,-0.190592,0,0,0,0,-0.0632542,0.0161671,16125,-0.138795,0.186817,-0.0919899,0.0520742,13886,0,0,0,0,0.2,1
13936,-3.11487e-12,3.04675e-38,-1.51733e-06,-3.18057e-12,3.04651e-38,0,-1.06609e-13,0,0,-3.63479,-0.19838,0.471554,-0.339578,-0.379671,0.0283491,-0.035424,0,-0.579659,-0.19838,277,-58,277,-58,406,-62,282,63,0.436332,-0.0872664,0,-1.5,-nan,0,0,0,-0.484602,-0.192152,0,0,0,0,-0.0671305,0.0149203,16125,-0.142446,0.186159,-0.0954796,0.0503443,13923,0,0,0,0,0.2,1
13994,-3.11487e-12,3.04675e-38,-1.51733e-06,-3.18057e-12,3.04651e-38,0,-1.0661e-13,0,0,-3.63479,-0.19838,0.471554,-0.337973,-0.381677,0.0275315,-0.0344024,0,-0.579659,-0.19838,277,-58,277,-58,406,-62,282,63,0.436332,-0.0872664,0,-1.5,-nan,0,0,0,-0.577845,-0.195692,0,0,0,0,-0.154716,0.0110431,16125,-0.237868,0.185486,-0.182247,0.0454456,13985,0,0,0,0,0.2,1
14105,-3.11487e-12,3.04675e-38,-1.51733e-06,-3.18057e-12,3.04651e-38,0,-1.0661e-13,0,0,-3.62855,-0.197926,0.465613,-0.335073,-0.3853,0.02601,-0.0325012,0,-0.571111,-0.197926,277,-58,277,-58,406,-62,282,64,0.436332,-0.0872664,0,-1.5,-nan,0,0,0,-0.587485,-0.195162,0,0,0,0,-0.148693,0.0119192,16254,-0.23302,0.185207,-0.174703,0.0444204,14092,0,0,0,0,0.2,1
14141,-3.11487e-12,3.04675e-38,-1.51733e-06,-3.18057e-12,3.04651e-38,0,-1.0661e-13,0,0,-3.62555,-0.200068,0.466302,-0.33415,-0.386454,0.0255436,-0.0319184,0,-0.567009,-0.200068,277,-58,277,-58,406,-62,282,63,0.436332,-0.0872664,0,-1.5,-nan,0,0,0,-0.579993,-0.195808,0,0,0,0,-0.137505,0.0110807,16125,-0.239973,0.189098,-0.163048,0.0429992,14127,0,0,0,0,0.2,1
14163,-3.11487e-12,3.04675e-38,-1.51733e-06,-3.18057e-12,3.04651e-38,0,-1.06611e-13,0,0,-3.63479,-0.19838,0.471554,-0.333592,-0.387151,0.0252638,-0.0315687,0,-0.579659,-0.19838,277,-58,277,-58,406,-62,282,63,0.436332,-0.0872664,0,-1.5,-nan,0,0,0,-0.581439,-0.195637,0,0,0,0,-0.134874,0.011489,16125,-0.245605,0.190911,-0.160138,0.0430577,14151,0,0,0,0,0.2,1
14180,-3.11487e-12,3.04675e-38,-1.51733e-06,-3.18057e-12,3.04651e-38,0,-1.06608e-13,0,0,-3.63479,-0.19838,0.471554,-0.33319,-0.387653,0.0250622,-0.0313169,0,-0.579659,-0.19838,277,-58,277,-58,406,-62,282,63,0.436332,-0.0872664,0,-1.5,-nan,0,0,0,-0.583599,-0.195451,0,0,0,0,-0.135075,0.0117408,16125,-0.245605,0.190911,-0.160138,0.0430577,14151,0,0,0,0,0.2,1
14202,-3.11487e-12,3.04675e-38,-1.51733e-06,-3.18057e-12,3.04651e-38,0,-1.06608e-13,0,0,-3.60769,-0.199268,0.462246,-0.332618,-0.388368,0.024775,-0.030958,0,-0.542542,-0.199268,277,-60,277,-60,406,-63,282,63,0.436332,-0.0872664,0,-1.5,-nan,0,0,0,-0.586995,-0.195659,0,0,0,0,-0.136731,0.0113295,16254,-0.250662,0.191737,-0.161506,0.0422875,14188,0,0,0,0,0.2,1
14261,-3.11487e-12,3.04675e-38,-1.51733e-06,-3.18057e-12,3.04651e-38,0,-1.06611e-13,0,0,-3.63479,-0.19838,0.471554,-0.331194,-0.390147,0.0240468,-0.030048,0,-0.579659,-0.19838,277,-58,277,-58,406,-62,282,63,0.436332,-0.0872664,0,-1.5,-nan,0,0,0,-0.587749,-0.194924,0,0,0,0,-0.131021,0.0127377,16125,-0.247406,0.192699,-0.155067,0.0427858,14247,0,0,0,0,0.2,1
14279,-3.11487e-12,3.04675e-38,-1.51733e-06,-3.18057e-12,3.04651e-38,0,-1.06611e-13,0,0,-3.63479,-0.19838,0.471554,-0.330764,-0.390685,0.023831,-0.0297784,0,-0.579659,-0.19838,277,-58,277,-58,406,-62,282,63,0.436332,-0.0872664,0,-1.5,-nan,0,0,0,-0.59011,-0.194692,0,0,0,0,-0.131236,0.0130073,16125,-0.247406,0.192699,-0.155067,0.0427858,14247,0,0,0,0,0.2,1
14299,-3.11487e-12,3.04675e-38,-1.51733e-06,-3.18057e-12,3.04651e-38,0,-1.06611e-13,0,0,-3.58684,-0.185074,0.470911,-0.330314,-0.391247,0.0236053,-0.0294964,0,-0.513973,-0.185074,277,-58,277,-58,401,-74,282,63,0.436332,-0.0872664,0,-1.5,-nan,0,0,0,-0.593512,-0.194637,0,0,0,0,-0.136583,0.0126026,17673,-0.260154,0.19581,-0.160188,0.042099,14285,0,0,0,0,0.2,1
14317,-3.11487e-12,3.04675e-38,-1.51733e-06,-3.18057e-12,3.04651e-38,0,-1.06612e-13,0,0,-3.58684,-0.185074,0.470911,-0.329868,-0.391804,0.0233817,-0.029217,0,-0.513973,-0.185074,277,-58,277,-58,401,-74,282,63,0.436332,-0.0872664,0,-1.5,-nan,0,0,0,-0.59611,-0.194394,0,0,0,0,-0.136807,0.012882,17673,-0.260154,0.19581,-0.160188,0.042099,14285,0,0,0,0,0.2,1
14339,-3.11487e-12,3.04675e-38,-1.51733e-06,-3.18057e-12,3.04651e-38,0,-1.06612e-13,0,0,-3.64231,-0.196287,0.480345,-0.329358,-0.392442,0.0231253,-0.0288966,0,-0.589959,-0.196287,277,-58,277,-58,405,-63,282,63,0.436332,-0.0872664,0,-1.5,-nan,0,0,0,-0.599218,-0.195486,0,0,0,0,-0.138891,0.00992208,16128,-0.266295,0.196102,-0.162017,0.0388187,14325,0,0,0,0,0.2,1
14380,-3.11487e-12,3.04675e-38,-1.51733e-06,-3.18057e-12,3.04651e-38,0,-1.06612e-13,0,0,-3.52904,-0.194821,0.437634,-0.328426,-0.393606,0.0226529,-0.0283063,0,-0.434778,-0.194821,277,-58,277,-58,401,-74,282,63,0.436332,-0.0872664,0,-1.5,-nan,0,0,0,-0.607009,-0.194946,0,0,0,0,-0.149212,0.0105565,18495,-0.271536,0.197067,-0.171865,0.0388629,14366,0,0,0,0,0.2,1
14402,-3.11487e-12,3.04675e-38,-1.51733e-06,-3.18057e-12,3.04651e-38,0,-1.06612e-13,0,0,-3.52904,-0.194821,0.437634,-0.327932,-0.394224,0.0224045,-0.0279959,0,-0.434778,-0.194821,277,-58,277,-58,401,-74,282,63,0.436332,-0.0872664,0,-1.5,-nan,0,0,0,-0.610295,-0.194709,0,0,0,0,-0.149461,0.0108669,18495,-0.271536,0.197067,-0.171865,0.0388629,14366,0,0,0,0,0.2,1
14425,-3.11487e-12,3.04675e-38,-1.51733e-06,-3.18057e-12,3.04651e-38,0,-1.06613e-13,0,0,-3.66873,-0.204251,0.489141,-0.32742,-0.394863,0.0221479,-0.0276753,0,-0.626158,-0.204251,277,-56,277,-56,406,-62,284,63,0.436332,-0.0872664,0,-1.5,-nan,0,0,0,-0.614579,-0.194938,0,0,0,0,-0.150822,0.010473,16125,-0.285429,0.199543,-0.17297,0.0381483,14418,0,0,0,0,0.2,1
14467,-3.11487e-12,3.04675e-38,-1.51733e-06,-3.18057e-12,3.04651e-38,0,-1.06613e-13,0,0,-3.66873,-0.204251,0.489141,-0.326506,-0.396006,0.0216846,-0.0270964,0,-0.626158,-0.204251,277,-56,277,-56,406,-62,284,63,0.436332,-0.0872664,0,-1.5,-nan,0,0,0,-0.621952,-0.195115,0,0,0,0,-0.157419,0.0100466,16125,-0.287924,0.19933,-0.179103,0.037143,14453,0,0,0,0,0.2,1
14489,-3.11487e-12,3.04675e-38,-1.51733e-06,-3.18057e-12,3.04651e-38,0,-1.06613e-13,0,0,-3.66873,-0.204251,0.489141,-0.326032,-0.396598,0.021447,-0.0267995,0,-0.626158,-0.204251,277,-56,277,-56,406,-62,284,63,0.436332,-0.0872664,0,-1.5,-nan,0,0,0,-0.627656,-0.19481,0,0,0,0,-0.16103,0.0103602,16125,-0.300347,0.201528,-0.182477,0.0371597,14484,0,0,0,0,0.2,1
14511,-3.11487e-12,3.04675e-38,-1.51733e-06,-3.18057e-12,3.04651e-38,0,-1.06614e-13,0,0,-3.66873,-0.204251,0.489141,-0.325564,-0.397183,0.0212119,-0.0265057,0,-0.626158,-0.204251,277,-56,277,-56,406,-62,284,63,0.436332,-0.0872664,0,-1.5,-nan,0,0,0,-0.631202,-0.194577,0,0,0,0,-0.161265,0.010654,16125,-0.300347,0.201528,-0.182477,0.0371597,14484,0,0,0,0,0.2,1
14604,-3.11487e-12,3.04675e-38,-1.51733e-06,-3.18057e-12,3.04651e-38,0,-1.06614e-13,0,0,-3.66873,-0.204251,0.489141,-0.323695,-0.399518,0.0202398,-0.025291,0,-0.626158,-0.204251,277,-56,277,-56,406,-62,284,63,0.436332,-0.0872664,0,-1.5,-nan,0,0,0,-0.645267,-0.195503,0,0,0,0,-0.16166,0.00952079,16125,-0.304838,0.200812,-0.1819,0.0348118,14589,0,0,0,0,0.2,1
14749,-3.11487e-12,3.04675e-38,-1.51733e-06,-3.18057e-12,3.04651e-38,0,-1.06614e-13,0,0,-3.66316,-0.199752,0.481916,-0.320932,-0.40297,0.0187732,-0.0234584,0,-0.618534,-0.199752,277,-56,277,-56,405,-60,282,63,0.436332,-0.0872664,0,-1.5,-nan,0,0,0,-0.669754,-0.19419,0,0,0,0,-0.16543,0.0110294,15867,-0.324507,0.204228,-0.184203,0.0344878,14619,0,0,0,0,0.2,1
14773,-3.11487e-12,3.04675e-38,-1.51733e-06,-3.18057e-12,3.04651e-38,0,-1.06614e-13,0,0,-3.66025,-0.197068,0.484373,-0.320485,-0.403529,0.0185489,-0.0231781,0,-0.614549,-0.197068,277,-56,277,-56,405,-62,282,63,0.436332,-0.0872664,0,-1.5,-nan,0,0,0,-0.671216,-0.195655,0,0,0,0,-0.166204,0.00954111,16000,-0.348883,0.207546,-0.184753,0.0327192,14765,0,0,0,0,0.2,1
14791,-3.11487e-12,3.04675e-38,-1.51733e-06,-3.18057e-12,3.04651e-38,0,-1.06615e-13,0,0,-3.66025,-0.197068,0.484373,-0.320153,-0.403943,0.0183824,-0.0229701,0,-0.614549,-0.197068,277,-56,277,-56,405,-62,282,63,0.436332,-0.0872664,0,-1.5,-nan,0,0,0,-0.67421,-0.195481,0,0,0,0,-0.166371,0.00974911,16000,-0.348883,0.207546,-0.184753,0.0327192,14765,0,0,0,0,0.2,1
14808,-3.11487e-12,3.04675e-38,-1.51733e-06,-3.18057e-12,3.04651e-38,0,-1.06615e-13,0,0,-3.66025,-0.197068,0.484373,-0.319843,-0.404332,0.0182266,-0.0227754,0,-0.614549,-0.197068,277,-56,277,-56,405,-62,282,63,0.436332,-0.0872664,0,-1.5,-nan,0,0,0,-0.67704,-0.195313,0,0,0,0,-0.166526,0.00994377,16000,-0.348883,0.207546,-0.184753,0.0327192,14765,0,0,0,0,0.2,1
14824,-3.11487e-12,3.04675e-38,-1.51733e-06,-3.18057e-12,3.04651e-38,0,-1.06615e-13,0,0,-3.66025,-0.197068,0.484373,-0.319553,-0.404694,0.0180812,-0.0225937,0,-0.614549,-0.197068,277,-56,277,-56,405,-62,282,63,0.436332,-0.0872664,0,-1.5,-nan,0,0,0,-0.679706,-0.195152,0,0,0,0,-0.166672,0.0101255,16000,-0.348883,0.207546,-0.184753,0.0327192,14765,0,0,0,0,0.2,1
14845,-3.11487e-12,3.04675e-38,-1.51733e-06,-3.18057e-12,3.04651e-38,0,-1.06615e-13,0,0,-3.66025,-0.197068,0.484373,-0.319176,-0.405165,0.017892,-0.0223573,0,-0.614549,-0.197068,277,-56,277,-56,405,-62,282,63,0.436332,-0.0872664,0,-1.5,-nan,0,0,0,-0.683208,-0.194936,0,0,0,0,-0.166861,0.0103619,16000,-0.348883,0.207546,-0.184753,0.0327192,14765,0,0,0,0,0.2,1
14862,-3.11487e-12,3.04675e-38,-1.51733e-06,-3.18057e-12,3.04651e-38,0,-1.06616e-13,0,0,-3.66025,-0.197068,0.484373,-0.318873,-0.405543,0.0177404,-0.0221678,0,-0.614549,-0.197068,277,-56,277,-56,405,-62,282,63,0.436332,-0.0872664,0,-1.5,-nan,0,0,0,-0.686046,-0.194758,0,0,0,0,-0.167013,0.0105514,16000,-0.348883,0.207546,-0.184753,0.0327192,14765,0,0,0,0,0.2,1
14897,-3.11487e-12,3.04675e-38,-1.51733e-06,-3.18057e-12,3.04651e-38,0,-1.06616e-13,0,0,-3.66025,-0.197068,0.484373,-0.318261,-0.406308,0.0174311,-0.0217813,0,-0.614549,-0.197068,277,-56,277,-56,405,-62,282,63,0.436332,-0.0872664,0,-1.5,-nan,0,0,0,-0.6919,-0.194378,0,0,0,0,-0.167322,0.0109379,16000,-0.348883,0.207546,-0.184753,0.0327192,14765,0,0,0,0,0.2,1
14918,-3.11487e-12,3.04675e-38,-1.51733e-06,-3.18057e-12,3.04651e-38,0,-1.06616e-13,0,0,-3.66025,-0.197068,0.484373,-0.317897,-0.406762,0.0172486,-0.0215533,0,-0.614549,-0.197068,277,-56,277,-56,405,-62,282,63,0.436332,-0.0872664,0,-1.5,-nan,0,0,0,-0.695417,-0.194145,0,0,0,0,-0.167504,0.0111659,16000,-0.348883,0.207546,-0.184753,0.0327192,14765,0,0,0,0,0.2,1
14966,-3.11487e-12,3.04675e-38,-1.51733e-06,-3.18057e-12,3.04651e-38,0,-1.06617e-13,0,0,-3.66025,-0.197068,0.484373,-0.317086,-0.407776,0.0168363,-0.021038,0,-0.614549,-0.197068,277,-56,277,-56,405,-62,282,63,0.436332,-0.0872664,0,-1.5,-nan,0,0,0,-0.703473,-0.193588,0,0,0,0,-0.167917,0.0116811,16000,-0.348883,0.207546,-0.184753,0.0327192,14765,0,0,0,0,0.2,1
14983,-3.11487e-12,3.04675e-38,-1.51733e-06,-3.18057e-12,3.04651e-38,0,-1.06617e-13,0,0,-3.66025,-0.197068,0.484373,-0.316801,-0.408132,0.0166936,-0.0208597,0,-0.614549,-0.197068,277,-56,277,-56,405,-62,282,63,0.436332,-0.0872664,0,-1.5,-nan,0,0,0,-0.706329,-0.193388,0,0,0,0,-0.16806,0.0118595,16000,-0.348883,0.207546,-0.184753,0.0327192,14765,0,0,0,0,0.2,1
15010,-3.11487e-12,3.04675e-38,-1.51733e-06,-3.18057e-12,3.04651e-38,0,-1.06617e-13,0,0,-3.39333,-0.186434,0.399892,-0.316355,-0.408689,0.0164689,-0.020579,0,-0.248864,-0.186434,277,-81,277,-81,405,-76,282,66,0.436332,-0.0872664,0,-1.5,-nan,0,0,0,-0.70317,-0.192677,0,0,0,0,-0.163231,0.0124095,18963,-0.381963,0.215121,-0.1797,0.0329885,14996,0,0,0,0,0.2,1
15028,-3.11487e-12,3.04675e-38,-1.51733e-06,-3.18057e-12,3.04651e-38,0,-1.06617e-13,0,0,-3.39333,-0.186434,0.399892,-0.316061,-0.409057,0.0163211,-0.0203944,0,-0.248864,-0.186434,277,-81,277,-81,405,-76,282,66,0.436332,-0.0872664,0,-1.5,-nan,0,0,0,-0.70611,-0.192452,0,0,0,0,-0.163379,0.0125942,18963,-0.381963,0.215121,-0.1797,0.0329885,14996,0,0,0,0,0.2,1
15048,-3.11487e-12,3.04675e-38,-1.51733e-06,-3.18057e-12,3.04651e-38,0,-1.06618e-13,0,0,-3.39333,-0.186434,0.399892,-0.315753,-0.409442,0.0161665,-0.0202012,0,-0.248864,-0.186434,277,-81,277,-81,405,-76,282,66,0.436332,-0.0872664,0,-1.5,-nan,0,0,0,-0.709216,-0.19221,0,0,0,0,-0.163533,0.0127874,18963,-0.381963,0.215121,-0.1797,0.0329885,14996,0,0,0,0,0.2,1
15064,-3.11487e-12,3.04675e-38,-1.51733e-06,-3.18057e-12,3.04651e-38,0,-1.06618e-13,0,0,-3.39333,-0.186434,0.399892,-0.315479,-0.409784,0.0160295,-0.02003,0,-0.248864,-0.186434,277,-81,277,-81,405,-76,282,66,0.436332,-0.0872664,0,-1.5,-nan,0,0,0,-0.711998,-0.191991,0,0,0,0,-0.16367,0.0129586,18963,-0.381963,0.215121,-0.1797,0.0329885,14996,0,0,0,0,0.2,1
15085,-3.11487e-12,3.04675e-38,-1.51733e-06,-3.18057e-12,3.04651e-38,0,-1.06618e-13,0,0,-3.39333,-0.186434,0.399892,-0.315145,-0.410201,0.0158617,-0.0198203,0,-0.248864,-0.186434,277,-81,277,-81,405,-76,282,66,0.436332,-0.0872664,0,-1.5,-nan,0,0,0,-0.715437,-0.191715,0,0,0,0,-0.163838,0.0131682,18963,-0.381963,0.215121,-0.1797,0.0329885,14996,0,0,0,0,0.2,1
15102,-3.11487e-12,3.04675e-38,-1.51733e-06,-3.18057e-12,3.04651e-38,0,-1.06618e-13,0,0,-3.39333,-0.186434,0.399892,-0.314877,-0.410536,0.0157273,-0.0196523,0,-0.248864,-0.186434,277,-81,277,-81,405,-76,282,66,0.436332,-0.0872664,0,-1.5,-nan,0,0,0,-0.718224,-0.19149,0,0,0,0,-0.163973,0.0133362,18963,-0.381963,0.215121,-0.1797,0.0329885,14996,0,0,0,0,0.2,1
15119,-3.11487e-12,3.04675e-38,-1.51733e-06,-3.18057e-12,3.04651e-38,0,-1.06619e-13,0,0,-3.39333,-0.186434,0.399892,-0.314611,-0.410869,0.015594,-0.0194858,0,-0.248864,-0.186434,277,-81,277,-81,405,-76,282,66,0.436332,-0.0872664,0,-1.5,-nan,0,0,0,-0.721012,-0.191261,0,0,0,0,-0.164106,0.0135027,18963,-0.381963,0.215121,-0.1797,0.0329885,14996,0,0,0,0,0.2,1
15140,-3.11487e-12,3.04675e-38,-1.51733e-06,-3.18057e-12,3.04651e-38,0,-1.06619e-13,0,0,-3.39333,-0.186434,0.399892,-0.314286,-0.411275,0.0154308,-0.0192819,0,-0.248864,-0.186434,277,-81,277,-81,405,-76,282,66,0.436332,-0.0872664,0,-1.5,-nan,0,0,0,-0.724461,-0.190975,0,0,0,0,-0.164269,0.0137067,18963,-0.381963,0.215121,-0.1797,0.0329885,14996,0,0,0,0,0.2,1
15157,-3.11487e-12,3.04675e-38,-1.51733e-06,-3.18057e-12,3.04651e-38,0,-1.06619e-13,0,0,-3.39333,-0.186434,0.399892,-0.314025,-0.411601,0.0153001,-0.0191185,0,-0.248864,-0.186434,277,-81,277,-81,405,-76,282,66,0.436332,-0.0872664,0,-1.5,-nan,0,0,0,-0.727255,-0.19074,0,0,0,0,-0.1644,0.0138701,18963,-0.381963,0.215121,-0.1797,0.0329885,14996,0,0,0,0,0.2,1
15173,-3.11487e-12,3.04675e-38,-1.51733e-06,-3.18057e-12,3.04651e-38,0,-1.0662e-13,0,0,-3.39333,-0.186434,0.399892,-0.313782,-0.411905,0.015178,-0.0189659,0,-0.248864,-0.186434,277,-81,277,-81,405,-76,282,66,0.436332,-0.0872664,0,-1.5,-nan,0,0,0,-0.729886,-0.190516,0,0,0,0,-0.164522,0.0140226,18963,-0.381963,0.215121,-0.1797,0.0329885,14996,0,0,0,0,0.2,1
15195,-3.11487e-12,3.04675e-38,-1.51733e-06,-3.18057e-12,3.04651e-38,0,-1.0662e-13,0,0,-3.39333,-0.186434,0.399892,-0.31345,-0.412319,0.0150116,-0.018758,0,-0.248864,-0.186434,277,-81,277,-81,405,-76,282,66,0.436332,-0.0872664,0,-1.5,-nan,0,0,0,-0.733508,-0.190205,0,0,0,0,-0.164688,0.0142305,18963,-0.381963,0.215121,-0.1797,0.0329885,14996,0,0,0,0,0.2,1
15211,-3.11487e-12,3.04675e-38,-1.51733e-06,-3.18057e-12,3.04651e-38,0,-1.0662e-13,0,0,-3.39333,-0.186434,0.399892,-0.313211,-0.412618,0.0148918,-0.0186084,0,-0.248864,-0.186434,277,-81,277,-81,405,-76,282,66,0.436332,-0.0872664,0,-1.5,-nan,0,0,0,-0.736144,-0.189976,0,0,0,0,-0.164808,0.0143802,18963,-0.381963,0.215121,-0.1797,0.0329885,14996,0,0,0,0,0.2,1
15229,-3.11487e-12,3.04675e-38,-1.51733e-06,-3.18057e-12,3.04651e-38,0,-1.0662e-13,0,0,-3.39333,-0.186434,0.399892,-0.312945,-0.412951,0.0147582,-0.0184414,0,-0.248864,-0.186434,277,-81,277,-81,405,-76,282,66,0.436332,-0.0872664,0,-1.5,-nan,0,0,0,-0.739112,-0.189715,0,0,0,0,-0.164942,0.0145471,18963,-0.381963,0.215121,-0.1797,0.0329885,14996,0,0,0,0,0.2,1
15242,-3.11487e-12,3.04675e-38,-1.51733e-06,-3.18057e-12,3.04651e-38,0,-1.06621e-13,0,0,-3.39333,-0.186434,0.399892,-0.312754,-0.413189,0.0146625,-0.0183218,0,-0.248864,-0.186434,277,-81,277,-81,405,-76,282,66,0.436332,-0.0872664,0,-1.5,-nan,0,0,0,-0.741257,-0.189525,0,0,0,0,-0.165037,0.0146667,18963,-0.381963,0.215121,-0.1797,0.0329885,14996,0,0,0,0,0.2,1
15261,-3.11487e-12,3.04675e-38,-1.51733e-06,-3.18057e-12,3.04651e-38,0,-1.06621e-13,0,0,-3.39333,-0.186434,0.399892,-0.312477,-0.413535,0.0145237,-0.0181483,0,-0.248864,-0.186434,277,-81,277,-81,405,-76,282,66,0.436332,-0.0872664,0,-1.5,-nan,0,0,0,-0.744395,-0.189244,0,0,0,0,-0.165176,0.0148403,18963,-0.381963,0.215121,-0.1797,0.0329885,14996,0,0,0,0,0.2,1
15278,-3.11487e-12,3.04675e-38,-1.51733e-06,-3.18057e-12,3.04651e-38,0,-1.06621e-13,0,0,-3.39333,-0.186434,0.399892,-0.312231,-0.413842,0.0144006,-0.0179945,0,-0.248864,-0.186434,277,-81,277,-81,405,-76,282,66,0.436332,-0.0872664,0,-1.5,-nan,0,0,0,-0.747204,-0.18899,0,0,0,0,-0.165299,0.0149941,18963,-0.381963,0.215121,-0.1797,0.0329885,14996,0,0,0,0,0.2,1
15313,-3.11487e-12,3.04675e-38,-1.51733e-06,-3.18057e-12,3.04651e-38,0,-1.06621e-13,0,0,-3.39333,-0.186434,0.399892,-0.311734,-0.414463,0.0141494,-0.0176807,0,-0.248864,-0.186434,277,-81,277,-81,405,-76,282,66,0.436332,-0.0872664,0,-1.5,-nan,0,0,0,-0.752996,-0.188456,0,0,0,0,-0.165551,0.0153079,18963,-0.381963,0.215121,-0.1797,0.0329885,14996,0,0,0,0,0.2,1
15335,-3.11487e-12,3.04675e-38,-1.51733e-06,-3.18057e-12,3.04651e-38,0,-1.06622e-13,0,0,-3.39333,-0.186434,0.399892,-0.311426,-0.414849,0.0139943,-0.0174868,0,-0.248864,-0.186434,277,-81,277,-81,405,-76,282,66,0.436332,-0.0872664,0,-1.5,-nan,0,0,0,-0.756641,-0.188116,0,0,0,0,-0.165706,0.0155018,18963,-0.381963,0.215121,-0.1797,0.0329885,14996,0,0,0,0,0.2,1
15352,-3.11487e-12,3.04675e-38,-1.51733e-06,-3.18057e-12,3.04651e-38,0,-1.06622e-13,0,0,-3.39333,-0.186434,0.399892,-0.311189,-0.415145,0.0138756,-0.0173385,0,-0.248864,-0.186434,277,-81,277,-81,405,-76,282,66,0.436332,-0.0872664,0,-1.5,-nan,0,0,0,-0.759459,-0.187851,0,0,0,0,-0.165824,0.01565,18963,-0.381963,0.215121,-0.1797,0.0329885,14996,0,0,0,0,0.2,1
15369,-3.11487e-12,3.04675e-38,-1.51733e-06,-3.18057e-12,3.04651e-38,0,-1.06622e-13,0,0,-3.39333,-0.186434,0.399892,-0.310955,-0.415438,0.013758,-0.0171916,0,-0.248864,-0.186434,277,-81,277,-81,405,-76,282,66,0.436332,-0.0872664,0,-1.5,-nan,0,0,0,-0.762279,-0.187584,0,0,0,0,-0.165942,0.015797,18963,-0.381963,0.215121,-0.1797,0.0329885,14996,0,0,0,0,0.2,1
15396,-3.11487e-12,3.04675e-38,-1.51733e-06,-3.18057e-12,3.04651e-38,0,-1.06623e-13,0,0,-3.42649,-0.180877,0.394142,-0.310586,-0.415898,0.0135732,-0.0169606,0,-0.294288,-0.180877,277,-58,277,-58,399,-86,281,66,0.436332,-0.0872664,0,-1.5,-nan,0,0,0,-0.731518,-0.185888,0,0,0,0,-0.135237,0.0165866,20520,-0.418849,0.22954,-0.14881,0.0335472,15385,0,0,0,0,0.2,1
15412,-3.11487e-12,3.04675e-38,-1.51733e-06,-3.18057e-12,3.04651e-38,0,-1.06623e-13,0,0,-3.42649,-0.180877,0.394142,-0.31037,-0.416168,0.0134649,-0.0168252,0,-0.294288,-0.180877,277,-58,277,-58,399,-86,281,66,0.436332,-0.0872664,0,-1.5,-nan,0,0,0,-0.733683,-0.185621,0,0,0,0,-0.135345,0.0167219,20520,-0.418849,0.22954,-0.14881,0.0335472,15385,0,0,0,0,0.2,1
15435,-3.11487e-12,3.04675e-38,-1.51733e-06,-3.18057e-12,3.04651e-38,0,-1.06623e-13,0,0,-3.51586,-0.185656,0.425349,-0.310077,-0.416535,0.0133172,-0.0166407,0,-0.416733,-0.185656,277,-60,277,-60,398,-73,281,66,0.436332,-0.0872664,0,-1.5,-nan,0,0,0,-0.663925,-0.185209,0,0,0,0,-0.0710921,0.0167934,18765,-0.351992,0.23059,-0.0844093,0.0334342,15421,0,0,0,0,0.2,1
15456,-3.11487e-12,3.04675e-38,-1.51733e-06,-3.18057e-12,3.04651e-38,0,-1.06623e-13,0,0,-3.60827,-0.168873,0.475325,-0.309786,-0.416899,0.0131713,-0.0164584,0,-0.543325,-0.168873,277,-60,277,-60,385,-71,284,66,0.436332,-0.0872664,0,-1.5,-nan,0,0,0,-0.558339,-0.184066,0,0,0,0,0.00402177,0.0176211,18495,-0.248499,0.232628,-0.00914953,0.0340795,15452,0,0,0,0,0.2,1
15494,-3.11487e-12,3.04675e-38,-1.51733e-06,-3.18057e-12,3.04651e-38,0,-1.06624e-13,0,0,-3.60827,-0.168873,0.475325,-0.309293,-0.417514,0.0129219,-0.0161468,0,-0.543325,-0.168873,277,-60,277,-60,385,-71,284,66,0.436332,-0.0872664,0,-1.5,-nan,0,0,0,-0.558194,-0.183386,0,0,0,0,0.00377238,0.0179327,18495,-0.248499,0.232628,-0.00914953,0.0340795,15452,0,0,0,0,0.2,1
15508,-3.11487e-12,3.04675e-38,-1.51733e-06,-3.18057e-12,3.04651e-38,0,-1.06624e-13,0,0,-3.60827,-0.168873,0.475325,-0.309113,-0.417739,0.0128317,-0.0160341,0,-0.543325,-0.168873,277,-60,277,-60,385,-71,284,66,0.436332,-0.0872664,0,-1.5,-nan,0,0,0,-0.558142,-0.183134,0,0,0,0,0.00368217,0.0180455,18495,-0.248499,0.232628,-0.00914953,0.0340795,15452,0,0,0,0,0.2,1
15575,-3.11487e-12,3.04675e-38,-1.51733e-06,-3.18057e-12,3.04651e-38,0,-1.06624e-13,0,0,-3.49285,-0.190669,0.413828,-0.308279,-0.418782,0.0124034,-0.0154989,0,-0.385208,-0.190669,277,-60,277,-60,401,-74,281,66,0.436332,-0.0779066,0,-1.5,-nan,0,0,0,-0.50339,-0.18298,0,0,0,0,0.0343222,0.0178928,18900,-0.19658,0.233564,0.0219188,0.0333917,15562,0,0,0,0,0.2,1
15597,-3.11487e-12,3.04675e-38,-1.51733e-06,-3.18057e-12,3.04651e-38,0,-1.06624e-13,0,0,-3.49285,-0.190669,0.413828,-0.308008,-0.41912,0.0122674,-0.015329,0,-0.385208,-0.190669,277,-60,277,-60,401,-74,281,66,0.436332,-0.077961,0,-1.5,-nan,0,0,0,-0.502637,-0.182584,0,0,0,0,0.0341863,0.0180627,18900,-0.19658,0.233564,0.0219188,0.0333917,15562,0,0,0,0,0.2,1
15614,-3.11487e-12,3.04675e-38,-1.51733e-06,-3.18057e-12,3.04651e-38,0,-1.06625e-13,0,0,-3.49285,-0.190669,0.413828,-0.3078,-0.419379,0.0121635,-0.0151991,0,-0.385208,-0.190669,277,-60,277,-60,401,-74,281,66,0.436332,-0.0780026,0,-1.5,-nan,0,0,0,-0.502057,-0.182276,0,0,0,0,0.0340823,0.0181926,18900,-0.19658,0.233564,0.0219188,0.0333917,15562,0,0,0,0,0.2,1
15631,-3.11487e-12,3.04675e-38,-1.51733e-06,-3.18057e-12,3.04651e-38,0,-1.06625e-13,0,0,-3.49285,-0.190669,0.413828,-0.307595,-0.419636,0.0120604,-0.0150703,0,-0.385208,-0.190669,277,-60,277,-60,401,-74,281,66,0.436332,-0.0780438,0,-1.5,-nan,0,0,0,-0.501479,-0.181965,0,0,0,0,0.0339792,0.0183214,18900,-0.19658,0.233564,0.0219188,0.0333917,15562,0,0,0,0,0.2,1
15652,-3.11487e-12,3.04675e-38,-1.51733e-06,-3.18057e-12,3.04651e-38,0,-1.06625e-13,0,0,-3.49285,-0.190669,0.413828,-0.307343,-0.41995,0.0119341,-0.0149125,0,-0.385208,-0.190669,277,-60,277,-60,401,-74,281,66,0.436332,-0.0780943,0,-1.5,-nan,0,0,0,-0.500767,-0.181578,0,0,0,0,0.0338529,0.0184792,18900,-0.19658,0.233564,0.0219188,0.0333917,15562,0,0,0,0,0.2,1
15669,-3.11487e-12,3.04675e-38,-1.51733e-06,-3.18057e-12,3.04651e-38,0,-1.06625e-13,0,0,-3.49285,-0.190669,0.413828,-0.307142,-0.420202,0.011833,-0.0147861,0,-0.385208,-0.190669,277,-60,277,-60,401,-74,281,66,0.436332,-0.0781348,0,-1.5,-nan,0,0,0,-0.500193,-0.181262,0,0,0,0,0.0337518,0.0186056,18900,-0.19658,0.233564,0.0219188,0.0333917,15562,0,0,0,0,0.2,1
15710,-3.11487e-12,3.04675e-38,-1.51733e-06,-3.18057e-12,3.04651e-38,0,-1.06626e-13,0,0,-3.55916,-0.181128,0.447865,-0.306665,-0.420798,0.0115913,-0.014484,0,-0.476048,-0.181128,277,-58,277,-58,401,-74,281,66,0.436332,-0.0711422,0,-1.5,-nan,0,0,0,-0.476162,-0.180888,0,0,0,0,0.0512334,0.0188848,18060,-0.171123,0.238542,0.0396421,0.0333689,15697,0,0,0,0,0.2,1
15727,-3.11487e-12,3.04675e-38,-1.51733e-06,-3.18057e-12,3.04651e-38,0,-1.06626e-13,0,0,-3.55916,-0.181128,0.447865,-0.306469,-0.421043,0.011493,-0.0143613,0,-0.476048,-0.181128,277,-58,277,-58,401,-74,281,66,0.436332,-0.0711815,0,-1.5,-nan,0,0,0,-0.475292,-0.180566,0,0,0,0,0.0511351,0.0190076,18060,-0.171123,0.238542,0.0396421,0.0333689,15697,0,0,0,0,0.2,1
15748,-3.11489e-12,3.0423e-38,3.04691e-38,-3.18057e-12,3.04651e-38,0,-1.06626e-13,0,0,-3.55916,-0.181128,0.447865,-0.306229,-0.421342,0.0113727,-0.0142109,0,-0.476048,-0.181128,277,-58,277,-58,401,-74,281,66,0.436332,-0.0712296,0,-1.5,-nan,0,0,0,-0.47422,-0.180165,0,0,0,0,0.0510148,0.0191579,18060,-0.171123,0.238542,0.0396421,0.0333689,15697,0,0,0,0,0.2,1
15765,-3.11487e-12,3.04675e-38,-1.51733e-06,-3.18057e-12,3.04651e-38,0,-1.06627e-13,0,0,-3.55916,-0.181128,0.447865,-0.306037,-0.421583,0.0112763,-0.0140905,0,-0.476048,-0.181128,277,-58,277,-58,401,-74,281,66,0.436332,-0.0712681,0,-1.5,-nan,0,0,0,-0.473354,-0.179838,0,0,0,0,0.0509184,0.0192784,18060,-0.171123,0.238542,0.0396421,0.0333689,15697,0,0,0,0,0.2,1
15779,-3.11487e-12,3.04675e-38,-1.51733e-06,-3.18057e-12,3.04651e-38,0,-1.06627e-13,0,0,-3.55916,-0.181128,0.447865,-0.30588,-0.421779,0.0111976,-0.0139921,0,-0.476048,-0.181128,277,-58,277,-58,401,-74,281,66,0.436332,-0.0712996,0,-1.5,-nan,0,0,0,-0.472642,-0.179567,0,0,0,0,0.0508397,0.0193768,18060,-0.171123,0.238542,0.0396421,0.0333689,15697,0,0,0,0,0.2,1
15802,-3.11487e-12,3.04675e-38,-1.51733e-06,-3.18057e-12,3.04651e-38,0,-1.06627e-13,0,0,-3.66025,-0.197068,0.484373,-0.305636,-0.422084,0.0110748,-0.0138387,0,-0.614549,-0.197068,277,-56,277,-56,405,-62,282,63,0.436332,-0.0721238,0,-1.5,-nan,0,0,0,-0.476271,-0.178858,0,0,0,0,0.0487792,0.0193199,16000,-0.171465,0.242497,0.0377044,0.0331585,15789,0,0,0,0,0.2,1
15824,-3.11487e-12,3.04675e-38,-1.51733e-06,-3.18057e-12,3.04651e-38,0,-1.06627e-13,0,0,-3.66025,-0.197068,0.484373,-0.305394,-0.422387,0.0109534,-0.0136871,0,-0.614549,-0.197068,277,-56,277,-56,405,-62,282,63,0.436332,-0.0840173,0,-1.5,-nan,0,0,0,-0.528729,-0.182928,0,0,0,0,0.0190455,0.0169724,16000,-0.223384,0.239275,0.00809204,0.0306595,15819,0,0,0,0,0.2,1
15840,-3.11487e-12,3.04675e-38,-1.51733e-06,-3.18057e-12,3.04651e-38,0,-1.06628e-13,0,0,-3.66025,-0.197068,0.484373,-0.305208,-0.422618,0.0108606,-0.013571,0,-0.614549,-0.197068,277,-56,277,-56,405,-62,282,63,0.436332,-0.0840545,0,-1.5,-nan,0,0,0,-0.528407,-0.182638,0,0,0,0,0.0189526,0.0170884,16000,-0.223384,0.239275,0.00809204,0.0306595,15819,0,0,0,0,0.2,1
15867,-3.11487e-12,3.04675e-38,-1.51733e-06,-3.18057e-12,3.04651e-38,0,-1.06628e-13,0,0,-3.67833,-0.202561,0.494794,-0.304918,-0.422981,0.0107145,-0.0133885,0,-0.639307,-0.202561,279,-56,279,-56,405,-62,282,63,0.436332,-0.0872664,0,-1.5,-nan,0,0,0,-0.581694,-0.18532,0,0,0,0,-0.00820697,0.0156406,15750,-0.276265,0.236877,-0.0189215,0.0290291,15854,0,0,0,0,0.2,1
15888,-3.11487e-12,3.04675e-38,-1.51733e-06,-3.18057e-12,3.04651e-38,0,-1.06628e-13,0,0,-3.6949,-0.21252,0.504426,-0.304695,-0.42326,0.0106024,-0.0132484,0,-0.662014,-0.21252,282,-56,282,-56,405,-62,282,63,0.436332,-0.0872664,0,-1.5,-nan,0,0,0,-0.602379,-0.185439,0,0,0,0,-0.0177004,0.0154066,15500,-0.297458,0.237591,-0.0283028,0.028655,15882,0,0,0,0,0.2,1
15905,-3.11487e-12,3.04675e-38,-1.51733e-06,-3.18057e-12,3.04651e-38,0,-1.06628e-13,0,0,-3.6949,-0.21252,0.504426,-0.304515,-0.423484,0.0105126,-0.0131362,0,-0.662014,-0.21252,282,-56,282,-56,405,-62,282,63,0.436332,-0.0872664,0,-1.5,-nan,0,0,0,-0.602681,-0.185176,0,0,0,0,-0.0177902,0.0155189,15500,-0.297458,0.237591,-0.0283028,0.028655,15882,0,0,0,0,0.2,1
15927,-3.11487e-12,3.04675e-38,-1.51733e-06,-3.18057e-12,3.04651e-38,0,-1.06629e-13,0,0,-3.6949,-0.21252,0.504426,-0.304286,-0.423771,0.0103974,-0.0129922,0,-0.662014,-0.21252,282,-56,282,-56,405,-62,282,63,0.436332,-0.0872664,0,-1.5,-nan,0,0,0,-0.629045,-0.194672,0,0,0,0,-0.0341658,0.01011,15500,-0.324269,0.228845,-0.0445631,0.0231022,15918,0,0,0,0,0.2,1
15970,-3.11487e-12,3.04675e-38,-1.51733e-06,-3.18057e-12,3.04651e-38,0,-1.06629e-13,0,0,-3.6964,-0.212619,0.505189,-0.303847,-0.42432,0.0101747,-0.012714,0,-0.664074,-0.212619,282,-56,282,-56,406,-62,282,63,0.436332,-0.0872664,0,-1.5,-nan,0,0,0,-0.620011,-0.195832,0,0,0,0,-0.0295458,0.00940983,15500,-0.314457,0.227536,-0.0397205,0.0221238,15957,0,0,0,0,0.2,1
15992,-3.11487e-12,3.04675e-38,-1.51733e-06,-3.18057e-12,3.04651e-38,0,-1.06629e-13,0,0,-3.67833,-0.202561,0.494794,-0.303624,-0.424598,0.0100632,-0.0125747,0,-0.639307,-0.202561,279,-56,279,-56,405,-62,282,63,0.436332,-0.0872664,0,-1.5,-nan,0,0,0,-0.638013,-0.195986,0,0,0,0,-0.0394998,0.00918775,15750,-0.333844,0.228372,-0.049563,0.0217624,15983,0,0,0,0,0.2,1
16009,-3.11487e-12,3.04675e-38,-1.51733e-06,-3.18057e-12,3.04651e-38,0,-1.0663e-13,0,0,-3.67833,-0.202561,0.494794,-0.303454,-0.42481,0.00997794,-0.0124681,0,-0.639307,-0.202561,279,-56,279,-56,405,-62,282,63,0.436332,-0.0872664,0,-1.5,-nan,0,0,0,-0.638685,-0.195829,0,0,0,0,-0.039585,0.00929431,15750,-0.333844,0.228372,-0.049563,0.0217624,15983,0,0,0,0,0.2,1
16035,-3.11487e-12,3.04675e-38,-1.51733e-06,-3.18057e-12,3.04651e-38,0,-1.0663e-13,0,0,-3.65072,-0.198758,0.478952,-0.303197,-0.425131,0.00984864,-0.0123065,0,-0.601486,-0.198758,277,-56,277,-56,405,-62,282,63,0.436332,-0.0872664,0,-1.5,-nan,0,0,0,-0.626484,-0.195807,0,0,0,0,-0.0320052,0.00881225,16125,-0.322198,0.228775,-0.0418539,0.0211188,16022,0,0,0,0,0.2,1
16067,-3.11487e-12,3.04675e-38,-1.51733e-06,-3.18057e-12,3.04651e-38,0,-1.0663e-13,0,0,-3.66077,-0.206032,0.484722,-0.302896,-0.425508,0.0096965,-0.0121164,0,-0.615261,-0.206032,279,-56,279,-56,406,-62,282,63,0.436332,-0.0872664,0,-1.5,-nan,0,0,0,-0.625553,-0.198417,0,0,0,0,-0.0309047,0.00807152,15875,-0.321398,0.226466,-0.0406012,0.0201879,16053,0,0,0,0,0.2,1
16088,-3.11487e-12,3.04675e-38,-1.51733e-06,-3.18057e-12,3.04651e-38,0,-1.0663e-13,0,0,-3.65215,-0.198852,0.479674,-0.302684,-0.425773,0.00959026,-0.0119837,0,-0.603448,-0.198852,277,-56,277,-56,406,-62,282,63,0.436332,-0.0872664,0,-1.5,-nan,0,0,0,-0.628831,-0.198193,0,0,0,0,-0.0279291,0.00699378,16125,-0.32581,0.227409,-0.0375194,0.0189774,16081,0,0,0,0,0.2,1
16105,-3.11487e-12,3.04675e-38,-1.51733e-06,-3.18057e-12,3.04651e-38,0,-1.06631e-13,0,0,-3.65215,-0.198852,0.479674,-0.302522,-0.425975,0.00950897,-0.0118821,0,-0.603448,-0.198852,277,-56,277,-56,406,-62,282,63,0.436332,-0.0872664,0,-1.5,-nan,0,0,0,-0.629307,-0.198073,0,0,0,0,-0.0280104,0.00709536,16125,-0.32581,0.227409,-0.0375194,0.0189774,16081,0,0,0,0,0.2,1
16160,-3.11487e-12,3.04675e-38,-1.51733e-06,-3.18057e-12,3.04651e-38,0,-1.06631e-13,0,0,-3.49502,-0.18241,0.43639,-0.302011,-0.426613,0.00924842,-0.0115565,0,-0.38818,-0.18241,277,-56,277,-56,404,-86,282,63,0.436332,-0.0872664,0,-1.5,-nan,0,0,0,-0.62351,-0.197721,0,0,0,0,-0.0263599,0.00716895,19072,-0.31954,0.227863,-0.0356083,0.0187255,16147,0,0,0,0,0.2,1
16177,-3.11487e-12,3.04675e-38,-1.51733e-06,-3.18057e-12,3.04651e-38,0,-1.06631e-13,0,0,-3.49502,-0.18241,0.43639,-0.301855,-0.426809,0.00917003,-0.0114586,0,-0.38818,-0.18241,277,-56,277,-56,404,-86,282,63,0.436332,-0.0872664,0,-1.5,-nan,0,0,0,-0.623959,-0.197598,0,0,0,0,-0.0264383,0.0072669,19072,-0.31954,0.227863,-0.0356083,0.0187255,16147,0,0,0,0,0.2,1
16199,-3.11487e-12,3.04675e-38,-1.51733e-06,-3.18057e-12,3.04651e-38,0,-1.06631e-13,0,0,-3.35617,-0.180562,0.382563,-0.301655,-0.427059,0.0090695,-0.0113329,0,-0.197954,-0.180562,278,-79,278,-79,404,-84,282,69,0.436332,-0.0872664,0,-1.5,-nan,0,0,0,-0.619508,-0.197276,0,0,0,0,-0.0227491,0.00692069,19431,-0.317153,0.229381,-0.0318186,0.0182536,16185,0,0,0,0,0.2,1
16240,-3.11487e-12,3.04675e-38,-1.51733e-06,-3.18057e-12,3.04651e-38,0,-1.06632e-13,0,0,-3.60413,-0.200906,0.463804,-0.301289,-0.427516,0.00888423,-0.0111014,0,-0.537652,-0.200906,279,-53,279,-53,407,-72,282,63,0.436332,-0.0865308,0,-1.5,-nan,0,0,0,-0.590777,-0.197866,0,0,0,0,0.0127619,0.00647704,17280,-0.289647,0.228928,0.00387768,0.0175785,16227,0,0,0,0,0.2,1
16262,-3.11487e-12,3.04675e-38,-1.51733e-06,-3.18057e-12,3.04651e-38,0,-1.06632e-13,0,0,-3.69109,-0.203579,0.497914,-0.301095,-0.427758,0.0087868,-0.0109797,0,-0.656797,-0.203579,279,-56,279,-56,405,-60,282,63,0.436332,-0.0872664,0,-1.5,-nan,0,0,0,-0.614798,-0.197725,0,0,0,0,-0.00434465,0.00687447,15498,-0.313414,0.22964,-0.0131314,0.0178542,16249,0,0,0,0,0.2,1
16279,-3.11487e-12,3.04675e-38,-1.51733e-06,-3.18057e-12,3.04651e-38,0,-1.06632e-13,0,0,-3.69109,-0.203579,0.497914,-0.300947,-0.427944,0.00871233,-0.0108866,0,-0.656797,-0.203579,279,-56,279,-56,405,-60,282,63,0.436332,-0.0872664,0,-1.5,-nan,0,0,0,-0.614872,-0.197608,0,0,0,0,-0.00441911,0.00696751,15498,-0.313414,0.22964,-0.0131314,0.0178542,16249,0,0,0,0,0.2,1
16300,-3.11487e-12,3.04675e-38,-1.51733e-06,-3.18057e-12,3.04651e-38,0,-1.06633e-13,0,0,-3.69109,-0.203579,0.497914,-0.300765,-0.428171,0.00862113,-0.0107727,0,-0.656797,-0.203579,279,-56,279,-56,405,-60,282,63,0.436332,-0.0872664,0,-1.5,-nan,0,0,0,-0.614967,-0.19746,0,0,0,0,-0.00451031,0.00708147,15498,-0.313414,0.22964,-0.0131314,0.0178542,16249,0,0,0,0,0.2,1
16317,-3.11487e-12,3.04675e-38,-1.51733e-06,-3.18057e-12,3.04651e-38,0,-1.06633e-13,0,0,-3.69109,-0.203579,0.497914,-0.300619,-0.428353,0.00854806,-0.0106814,0,-0.656797,-0.203579,279,-56,279,-56,405,-60,282,63,0.436332,-0.0872664,0,-1.5,-nan,0,0,0,-0.615044,-0.197338,0,0,0,0,-0.00458339,0.00717278,15498,-0.313414,0.22964,-0.0131314,0.0178542,16249,0,0,0,0,0.2,1
16331,-3.11487e-12,3.04675e-38,-1.51733e-06,-3.18057e-12,3.04651e-38,0,-1.06633e-13,0,0,-3.69109,-0.203579,0.497914,-0.3005,-0.428502,0.00848838,-0.0106068,0,-0.656797,-0.203579,279,-56,279,-56,405,-60,282,63,0.436332,-0.0872664,0,-1.5,-nan,0,0,0,-0.615109,-0.197237,0,0,0,0,-0.00464306,0.00724735,15498,-0.313414,0.22964,-0.0131314,0.0178542,16249,0,0,0,0,0.2,1
16348,-3.11487e-12,3.04675e-38,-1.51733e-06,-3.18057e-12,3.04651e-38,0,-1.06633e-13,0,0,-3.69109,-0.203579,0.497914,-0.300357,-0.428681,0.00841645,-0.0105169,0,-0.656797,-0.203579,279,-56,279,-56,405,-60,282,63,0.436332,-0.0872664,0,-1.5,-nan,0,0,0,-0.615188,-0.197113,0,0,0,0,-0.004715,0.00733724,15498,-0.313414,0.22964,-0.0131314,0.0178542,16249,0,0,0,0,0.2,1
16374,-3.11487e-12,3.04675e-38,-1.51733e-06,-3.18057e-12,3.04651e-38,0,-1.06634e-13,0,0,-3.68054,-0.15048,0.560563,-0.30014,-0.428952,0.00830742,-0.0103807,0,-0.642339,-0.15048,277,-67,277,-67,399,-68,274,54,0.436332,-0.0872664,0,-1.5,-nan,0,0,0,-0.610022,-0.196531,0,0,0,0,0.00131657,0.00852488,15500,-0.3097,0.231929,-0.00699085,0.0189055,16361,0,0,0,0,0.2,1
16391,-3.11487e-12,3.04675e-38,-1.51733e-06,-3.18057e-12,3.04651e-38,0,-1.06634e-13,0,0,-3.68054,-0.15048,0.560563,-0.299999,-0.429127,0.00823701,-0.0102927,0,-0.642339,-0.15048,277,-67,277,-67,399,-68,274,54,0.436332,-0.0872664,0,-1.5,-nan,0,0,0,-0.61,-0.196385,0,0,0,0,0.00124615,0.00861286,15500,-0.3097,0.231929,-0.00699085,0.0189055,16361,0,0,0,0,0.2,1
16408,-3.11487e-12,3.04675e-38,-1.51733e-06,-3.18057e-12,3.04651e-38,0,-1.06634e-13,0,0,-3.68054,-0.15048,0.560563,-0.29986,-0.429301,0.00816719,-0.0102054,0,-0.642339,-0.15048,277,-67,277,-67,399,-68,274,54,0.436332,-0.0872664,0,-1.5,-nan,0,0,0,-0.60998,-0.196238,0,0,0,0,0.00117634,0.00870011,15500,-0.3097,0.231929,-0.00699085,0.0189055,16361,0,0,0,0,0.2,1
16445,-3.11487e-12,3.04675e-38,-1.51733e-06,-3.18057e-12,3.04651e-38,0,-1.06634e-13,0,0,-3.68054,-0.15048,0.560563,-0.299562,-0.429673,0.00801667,-0.0100174,0,-0.642339,-0.15048,277,-67,277,-67,399,-68,274,54,0.436332,-0.0872664,0,-1.5,-nan,0,0,0,-0.609941,-0.195911,0,0,0,0,0.00102582,0.00888819,15500,-0.3097,0.231929,-0.00699085,0.0189055,16361,0,0,0,0,0.2,1
16462,-3.11487e-12,3.04675e-38,-1.51733e-06,-3.18057e-12,3.04651e-38,0,-1.06635e-13,0,0,-3.68054,-0.15048,0.560563,-0.299427,-0.429843,0.00794872,-0.00993245,0,-0.642339,-0.15048,277,-67,277,-67,399,-68,274,54,0.436332,-0.0872664,0,-1.5,-nan,0,0,0,-0.609924,-0.195759,0,0,0,0,0.00095787,0.0089731,15500,-0.3097,0.231929,-0.00699085,0.0189055,16361,0,0,0,0,0.2,1
16479,-3.11487e-12,3.04675e-38,-1.51733e-06,-3.18057e-12,3.04651e-38,0,-1.06635e-13,0,0,-3.68054,-0.15048,0.560563,-0.299293,-0.430011,0.00788136,-0.00984828,0,-0.642339,-0.15048,277,-67,277,-67,399,-68,274,54,0.436332,-0.0872664,0,-1.5,-nan,0,0,0,-0.609909,-0.195605,0,0,0,0,0.000890507,0.00905727,15500,-0.3097,0.231929,-0.00699085,0.0189055,16361,0,0,0,0,0.2,1
16508,-3.11487e-12,3.04675e-38,-1.51733e-06,-3.18057e-12,3.04651e-38,0,-1.06635e-13,0,0,-3.68054,-0.15048,0.560563,-0.299067,-0.430293,0.00776749,-0.00970599,0,-0.642339,-0.15048,277,-67,277,-67,399,-68,274,54,0.436332,-0.0872664,0,-1.5,-nan,0,0,0,-0.609886,-0.195339,0,0,0,0,0.000776641,0.00919955,15500,-0.3097,0.231929,-0.00699085,0.0189055,16361,0,0,0,0,0.2,1
16530,-3.11487e-12,3.04675e-38,-1.51733e-06,-3.18057e-12,3.04651e-38,0,-1.06636e-13,0,0,-3.68054,-0.15048,0.560563,-0.298905,-0.430495,0.00768618,-0.00960439,0,-0.642339,-0.15048,277,-67,277,-67,399,-68,274,54,0.436332,-0.0872664,0,-1.5,-nan,0,0,0,-0.60987,-0.195145,0,0,0,0,0.00069533,0.00930115,15500,-0.3097,0.231929,-0.00699085,0.0189055,16361,0,0,0,0,0.2,1
16548,-3.11487e-12,3.04675e-38,-1.51733e-06,-3.18057e-12,3.04651e-38,0,-1.06636e-13,0,0,-3.68054,-0.15048,0.560563,-0.298767,-0.430667,0.00761721,-0.0095182,0,-0.642339,-0.15048,277,-67,277,-67,399,-68,274,54,0.436332,-0.0872664,0,-1.5,-nan,0,0,0,-0.609859,-0.194976,0,0,0,0,0.000626354,0.00938735,15500,-0.3097,0.231929,-0.00699085,0.0189055,16361,0,0,0,0,0.2,1
16562,-3.11487e-12,3.04675e-38,-1.51733e-06,-3.18057e-12,3.04651e-38,0,-1.06636e-13,0,0,-3.68054,-0.15048,0.560563,-0.298653,-0.430809,0.00756024,-0.00944701,0,-0.642339,-0.15048,277,-67,277,-67,399,-68,274,54,0.436332,-0.0872664,0,-1.5,-nan,0,0,0,-0.60985,-0.194835,0,0,0,0,0.000569385,0.00945853,15500,-0.3097,0.231929,-0.00699085,0.0189055,16361,0,0,0,0,0.2,1
16580,-3.11487e-12,3.04675e-38,-1.51733e-06,-3.18057e-12,3.04651e-38,0,-1.06636e-13,0,0,-3.68054,-0.15048,0.560563,-0.298526,-0.430969,0.00749616,-0.00936694,0,-0.642339,-0.15048,277,-67,277,-67,399,-68,274,54,0.436332,-0.0872664,0,-1.5,-nan,0,0,0,-0.609841,-0.194673,0,0,0,0,0.000505304,0.0095386,15500,-0.3097,0.231929,-0.00699085,0.0189055,16361,0,0,0,0,0.2,1
16596,-3.11487e-12,3.04675e-38,-1.51733e-06,-3.18057e-12,3.04651e-38,0,-1.06637e-13,0,0,-3.68054,-0.15048,0.560563,-0.298399,-0.431127,0.00743262,-0.00928755,0,-0.642339,-0.15048,277,-67,277,-67,399,-68,274,54,0.436332,-0.0872664,0,-1.5,-nan,0,0,0,-0.609833,-0.19451,0,0,0,0,0.000441768,0.009618,15500,-0.3097,0.231929,-0.00699085,0.0189055,16361,0,0,0,0,0.2,1
16613,-3.11487e-12,3.04675e-38,-1.51733e-06,-3.18057e-12,3.04651e-38,0,-1.06637e-13,0,0,-3.68054,-0.15048,0.560563,-0.298273,-0.431284,0.00736962,-0.00920883,0,-0.642339,-0.15048,277,-67,277,-67,399,-68,274,54,0.436332,-0.0872664,0,-1.5,-nan,0,0,0,-0.609826,-0.194346,0,0,0,0,0.000378768,0.00969672,15500,-0.3097,0.231929,-0.00699085,0.0189055,16361,0,0,0,0,0.2,1
16630,-3.11487e-12,3.04675e-38,-1.51733e-06,-3.18057e-12,3.04651e-38,0,-1.06637e-13,0,0,-3.68054,-0.15048,0.560563,-0.298149,-0.43144,0.00730717,-0.00913078,0,-0.642339,-0.15048,277,-67,277,-67,399,-68,274,54,0.436332,-0.0872664,0,-1.5,-nan,0,0,0,-0.60982,-0.19418,0,0,0,0,0.000316314,0.00977476,15500,-0.3097,0.231929,-0.00699085,0.0189055,16361,0,0,0,0,0.2,1
16651,-3.11487e-12,3.04675e-38,-1.51733e-06,-3.18057e-12,3.04651e-38,0,-1.06637e-13,0,0,-3.68054,-0.15048,0.560563,-0.297996,-0.43163,0.00723069,-0.00903523,0,-0.642339,-0.15048,277,-67,277,-67,399,-68,274,54,0.436332,-0.0872664,0,-1.5,-nan,0,0,0,-0.609815,-0.193973,0,0,0,0,0.000239841,0.00987032,15500,-0.3097,0.231929,-0.00699085,0.0189055,16361,0,0,0,0,0.2,1
