timestamp,A_x,A_y,A_z,P,Q,R,Phi,Theta,Psi,poseX,poseY,poseZ,state_X,state_Y,state_Z,state_VzB,state_Bx,state_By,state_Bz,p1_x,p1_y,p2_x,p2_y,p3_x,p3_y,p4_x,p4_y,roll,pitch,yaw,alt,targetHeading,highLevelState,lowLevelState,gateNumber,filtered_x,filtered_y,x_OT,y_OT,vx_OT,vy_OT,filtered_vx,filtered_vygateArearansac_corr_x,ransac_corr_y,ransac_corr_vx,ransac_corr_vy,detectionTimeStamp
8151,0,0,0,0,0,0,0,0,0,0,0,0,0,0,0,0,0,0,0,0,0,0,0,0,0,0,0,0,-0.261799,0,-1.5,nan,0,0,0,0,0,0,0,0,0,0,0,1.9603e-19,0,0,0,0,0
8165,0,0,0,0,0,0,0,0,0,0,0,0,0,0,0,0,0,0,0,0,0,0,0,0,0,0,0,0,-0.261799,0,-1.5,nan,0,0,0,0,0,0,0,0,0,0,0,1.9603e-19,0,0,0,0,0
8912,-3.2133e-12,7.9515e-38,-1.55831e-06,-3.27827e-12,7.95103e-38,-3.40903e-12,-1.06589e-13,0,0,0,0,0,0,0,0,0,0,0,0,0,0,0,0,0,0,0,0,0,-0.261799,0,-1.5,nan,0,0,0,0,0,0,0,0,0,0,0,1.9603e-19,0,0,0,0,0
8953,-3.2133e-12,7.9515e-38,-1.55831e-06,-3.27827e-12,7.95103e-38,0,-1.0659e-13,0,0,0,0,0,0,0,0,0,0,0,0,0,0,0,0,0,0,0,0,0,-0.261799,0,-1.5,nan,0,0,0,0,0,0,0,0,0,0,0,1.9603e-19,0,0,0,0,0
9190,-3.2133e-12,7.9515e-38,-1.55831e-06,-3.27827e-12,7.95103e-38,-3.40903e-12,-1.0659e-13,0,0,0,0,0,0,0,0,0,0,0,0,0,0,0,0,0,0,0,0,0,-0.261799,0,-1.5,nan,0,0,0,0,0,0,0,0,0,0,0,1.9603e-19,0,0,0,0,0
9259,-3.2133e-12,7.9515e-38,-1.55831e-06,-3.27827e-12,7.95103e-38,0,-1.0659e-13,0,0,0,0,0,0,0,0,0,0,0,0,0,0,0,0,0,0,0,0,0,-0.261799,0,-1.5,nan,0,0,0,0,0,0,0,0,0,0,0,1.9603e-19,0,0,0,0,0
9500,-3.2133e-12,7.9515e-38,-1.55831e-06,-3.27827e-12,7.95103e-38,-3.40903e-12,-1.0659e-13,0,0,0,0,0,0,0,0,0,0,0,0,0,0,0,0,0,0,0,0,0,-0.261799,0,-1.5,nan,0,0,0,0,0,0,0,0,0,0,0,1.9603e-19,0,0,0,0,0
9587,-3.2133e-12,7.9515e-38,-1.55831e-06,-3.27827e-12,7.95103e-38,0,-1.06591e-13,0,0,0,0,0,0,0,0,0,0,0,0,0,0,0,0,0,0,0,0,0,-0.261799,0,-1.5,nan,0,0,0,0,0,0,0,0,0,0,0,1.9603e-19,0,0,0,0,0
9700,-3.2133e-12,7.9515e-38,-1.55831e-06,-3.27827e-12,7.95103e-38,-3.40903e-12,-1.06591e-13,0,0,0,0,0,0,0,0,0,0,3.23,-0.5,-1367817408,-1367817408,-1367817408,-1367817408,-1367817368,2032239668,660284076,-1367817368,0,-0.261799,0,-1.5,nan,0,0,0,0,0,0,0,0,0,0,0,0,0,0,0,0,9692
9751,-3.2133e-12,7.9515e-38,-1.55831e-06,-3.27827e-12,7.95103e-38,0,-1.06591e-13,0,0,0,0,0,0,0,0,0,0,3.23,-0.5,-1367817408,-1367817408,-1367817408,-1367817408,-1367817368,2032239668,660284076,-1367817368,0,-0.261799,0,-1.5,nan,0,0,0,0,0,0,0,0,0,0,0,0,0,0,0,0,9692
9786,-3.2133e-12,7.9515e-38,-1.55831e-06,-3.27827e-12,7.95103e-38,-3.40903e-12,-1.06591e-13,0,0,0,0,0,0,0,0,0,0,3.23,-0.5,-1367817408,-1367817408,-1367817408,-1367817408,-1367817368,2032239668,660284076,-1367817368,0,-0.261799,0,-1.5,nan,0,0,0,0,0,0,0,0,0,0,0,0,0,0,0,0,9692
9806,-3.2133e-12,7.9515e-38,-1.55831e-06,-3.27827e-12,7.95103e-38,0,-1.06592e-13,0,0,-3.11328,-0.160094,0.0955514,0,0,0,0,0,0.0990858,-0.660094,274,-39,274,-39,408,-58,274,84,0,-0.261799,0,-1.5,nan,0,0,0,0,0,0,0,0,0,0,0,19028,0,0,0,0,9798
9910,-3.2133e-12,7.9515e-38,-1.55831e-06,-3.27827e-12,7.95103e-38,-3.40903e-12,-1.06592e-13,0,0,-3.14569,-0.136275,0.0758453,0,0,0,0,0,0.0613916,-0.636275,269,-33,269,-33,405,-53,274,88,0,-0.261799,0,-1.5,nan,0,0,0,0,0,0,0,0,0,0,0,19176,0,0,0,0,9902
9968,-3.2133e-12,7.9515e-38,-1.55831e-06,-3.27827e-12,7.95103e-38,0,-1.06592e-13,0,0,-3.20172,-0.136533,0.0611596,0,0,0,0,0,-0.00401688,-0.636533,269,-31,269,-31,402,-39,273,91,0,-0.261799,0,-1.5,nan,0,0,0,0,0,0,0,0,0,0,0,17680,0,0,0,0,9960
9986,-3.2133e-12,7.9515e-38,-1.55831e-06,-3.27827e-12,7.95103e-38,-3.40903e-12,-1.06593e-13,0,0,-3.20172,-0.136533,0.0611596,0,0,0,0,0,-0.00401688,-0.636533,269,-31,269,-31,402,-39,273,91,0,-0.261799,0,-1.5,nan,0,0,0,0,0,0,0,0,0,0,0,17680,0,0,0,0,9960
10003,-3.2133e-12,7.9515e-38,-1.55831e-06,-3.27827e-12,7.95103e-38,0,-1.06593e-13,0,0,-3.20172,-0.136533,0.0611596,0,0,0,0,0,-0.00401688,-0.636533,269,-31,269,-31,402,-39,273,91,0,-0.261799,0,-1.5,nan,0,0,0,0,0,0,0,0,0,0,0,17680,0,0,0,0,9960
10110,-3.2133e-12,7.9515e-38,-1.55831e-06,-3.27827e-12,7.95103e-38,-3.40903e-12,-1.06593e-13,0,0,-3.28528,-0.195915,0.110248,0,0,0,0,0,-0.102143,-0.695915,277,-32,277,-32,409,-35,280,88,0,-0.261799,0,-1.5,nan,0,0,0,0,0,0,0,0,0,0,0,16236,0,0,0,0,10102
10198,-3.2133e-12,7.9515e-38,-1.55831e-06,-3.27827e-12,7.95103e-38,0,-1.06593e-13,0,0,-3.28528,-0.195915,0.110248,0,0,0,0,0,-0.102143,-0.695915,277,-32,277,-32,409,-35,280,88,0,-0.261799,0,-1.5,nan,0,0,0,0,0,0,0,0,0,0,0,16236,0,0,0,0,10102
10215,-3.2133e-12,7.9515e-38,-1.55831e-06,-3.27827e-12,7.95103e-38,-3.40903e-12,-1.06594e-13,0,0,-3.28528,-0.195915,0.110248,0,0,0,0,0,-0.102143,-0.695915,277,-32,277,-32,409,-35,280,88,0,-0.261799,0,-1.5,nan,0,0,0,0,0,0,0,0,0,0,0,16236,0,0,0,0,10102
10368,-3.2133e-12,7.9515e-38,-1.55831e-06,-3.27827e-12,7.95103e-38,0,-1.06594e-13,0,0,-3.28528,-0.195915,0.110248,0,0,0,0,0,-0.102143,-0.695915,277,-32,277,-32,409,-35,280,88,0,-0.261799,0,-1.5,nan,0,0,0,0,0,0,0,0,0,0,0,16236,0,0,0,0,10102
10394,-3.2133e-12,7.9515e-38,-1.55831e-06,-3.27827e-12,7.95103e-38,-3.40903e-12,-1.06594e-13,0,0,-3.28528,-0.195915,0.110248,0,0,0,0,0,-0.102143,-0.695915,277,-32,277,-32,409,-35,280,88,0,-0.261799,0,-1.5,nan,0,0,0,0,0,0,0,0,0,0,0,16236,0,0,0,0,10102
10411,-3.2133e-12,7.9515e-38,-1.55831e-06,-3.27827e-12,7.95103e-38,0,-1.06594e-13,0,0,-3.28528,-0.195915,0.110248,0,0,0,0,0,-0.102143,-0.695915,277,-32,277,-32,409,-35,280,88,0,-0.261799,0,-1.5,nan,0,0,0,0,0,0,0,0,0,0,0,16236,0,0,0,0,10102
10520,-3.2133e-12,7.9515e-38,-1.55831e-06,-3.27827e-12,7.95103e-38,-3.40903e-12,-1.06595e-13,0,0,-3.28528,-0.195915,0.110248,0,0,0,0,0,-0.102143,-0.695915,277,-32,277,-32,409,-35,280,88,0,-0.261799,0,-1.5,nan,0,0,0,0,0,0,0,0,0,0,0,16236,0,0,0,0,10102
10559,-3.2133e-12,7.9515e-38,-1.55831e-06,-3.27827e-12,7.95103e-38,0,-1.06595e-13,0,0,-3.28528,-0.195915,0.110248,0,0,0,0,0,-0.102143,-0.695915,277,-32,277,-32,409,-35,280,88,0,-0.261799,0,-1.5,nan,0,0,0,0,0,0,0,0,0,0,0,16236,0,0,0,0,10102
10625,-3.2133e-12,7.9515e-38,-1.55831e-06,-3.27827e-12,7.95103e-38,-3.40903e-12,-1.06595e-13,0,0,-3.28528,-0.195915,0.110248,0,0,0,0,0,-0.102143,-0.695915,277,-32,277,-32,409,-35,280,88,0,-0.261799,0,-1.5,nan,0,0,0,0,0,0,0,0,0,0,0,16236,0,0,0,0,10102
10643,-3.2133e-12,7.9515e-38,-1.55831e-06,-3.27827e-12,7.95103e-38,0,-1.06596e-13,0,0,-3.28528,-0.195915,0.110248,0,0,0,0,0,-0.102143,-0.695915,277,-32,277,-32,409,-35,280,88,0,-0.261799,0,-1.5,nan,0,0,0,0,0,0,0,0,0,0,0,16236,0,0,0,0,10102
10667,-3.2133e-12,7.9515e-38,-1.55831e-06,-3.27827e-12,7.95103e-38,-3.40903e-12,-1.06596e-13,0,0,-3.28528,-0.195915,0.110248,0,0,0,0,0,-0.102143,-0.695915,277,-32,277,-32,409,-35,280,88,0,-0.261799,0,-1.5,nan,0,0,0,0,0,0,0,0,0,0,0,16236,0,0,0,0,10102
10684,-3.2133e-12,7.9515e-38,-1.55831e-06,-3.27827e-12,7.95103e-38,0,-1.06596e-13,0,0,-3.28528,-0.195915,0.110248,0,0,0,0,0,-0.102143,-0.695915,277,-32,277,-32,409,-35,280,88,0,-0.261799,0,-1.5,nan,0,0,0,0,0,0,0,0,0,0,0,16236,0,0,0,0,10102
10706,-3.2133e-12,7.9515e-38,-1.55831e-06,-3.27827e-12,7.95103e-38,-3.40903e-12,-1.06596e-13,0,0,-3.28528,-0.195915,0.110248,0,0,0,0,0,-0.102143,-0.695915,277,-32,277,-32,409,-35,280,88,0,-0.261799,0,-1.5,nan,0,0,0,0,0,0,0,0,0,0,0,16236,0,0,0,0,10102
10723,-3.2133e-12,7.9515e-38,-1.55831e-06,-3.27827e-12,7.95103e-38,0,-1.06597e-13,0,0,-3.184,-0.236395,0.0746301,0,0,0,0,0,0.0167098,-0.736395,283,-39,283,-39,420,-37,281,84,0,-0.261799,0,-1.5,nan,0,0,0,0,0,0,0,0,0,0,0,17653,0,0,0,0,10723
10747,-3.2133e-12,7.9515e-38,-1.55831e-06,-3.27827e-12,7.95103e-38,-3.40903e-12,-1.06597e-13,0,0,-3.184,-0.236395,0.0746301,0,0,0,0,0,0.0167098,-0.736395,283,-39,283,-39,420,-37,281,84,0,-0.261799,0,-1.5,nan,0,0,0,0,0,0,0,0,0,0,0,17653,0,0,0,0,10723
10817,-3.2133e-12,7.9515e-38,-1.55831e-06,-3.27827e-12,7.95103e-38,0,-1.06597e-13,0,0,-3.184,-0.236395,0.0746301,0,0,0,0,0,0.0167098,-0.736395,283,-39,283,-39,420,-37,281,84,0,-0.261799,0,-1.5,nan,0,0,0,0,0,0,0,0,0,0,0,17653,0,0,0,0,10723
10913,-3.2133e-12,7.9515e-38,-1.55831e-06,-3.27827e-12,7.95103e-38,-3.40903e-12,-1.06597e-13,0,0,-3.16858,-0.239049,0.0952715,0,0,0,0,0,0.0347142,-0.739049,285,-44,285,-44,420,-42,281,84,0,-0.261799,0,-1.5,nan,0,0,0,0,0,0,0,0,0,0,0,17792,0,0,0,0,10905
10930,-3.2133e-12,7.9515e-38,-1.55831e-06,-3.27827e-12,7.95103e-38,0,-1.06598e-13,0,0,-3.18959,-0.240593,0.132642,0,0,0,0,0,0.0101752,-0.740593,284,-46,284,-46,420,-44,282,80,0,-0.261799,0,-1.5,nan,0,0,0,0,0,0,0,0,0,0,0,17388,0,0,0,0,10924
10953,-3.2133e-12,7.9515e-38,-1.55831e-06,-3.27827e-12,7.95103e-38,-3.40903e-12,-1.06598e-13,0,0,-3.18959,-0.240593,0.132642,0,0,0,0,0,0.0101752,-0.740593,284,-46,284,-46,420,-44,282,80,0,-0.261799,0,-1.5,nan,0,0,0,0,0,0,0,0,0,0,0,17388,0,0,0,0,10924
10967,-3.2133e-12,7.9515e-38,-1.55831e-06,-3.27827e-12,7.95103e-38,0,-1.06598e-13,0,0,-3.20076,-0.236138,0.130596,0,0,0,0,0,-0.00289297,-0.736138,284,-42,284,-42,419,-45,281,81,0,-0.261799,0,-1.5,nan,0,0,0,0,0,0,0,0,0,0,0,17388,0,0,0,0,10958
11003,-3.2133e-12,7.9515e-38,-1.55831e-06,-3.27827e-12,7.95103e-38,-3.40903e-12,-1.06599e-13,0,0,-3.22628,-0.220768,0.149333,0,0,0,0,0,-0.0327878,-0.720768,281,-42,281,-42,414,-45,281,80,0,-0.261799,0,-1.5,nan,0,0,0,0,0,0,0,0,0,0,0,16625,0,0,0,0,10994
11023,-3.2133e-12,7.9515e-38,-1.55831e-06,-3.27827e-12,7.95103e-38,0,-1.06599e-13,0,0,-3.22105,-0.228912,0.144109,0,0,0,0,0,-0.0266547,-0.728912,283,-42,283,-42,416,-45,281,81,0,-0.261799,0,-1.5,nan,0,0,0,0,0,0,0,0,0,0,0,17010,0,0,0,0,11023
11044,-3.2133e-12,7.9515e-38,-1.55831e-06,-3.27827e-12,7.95103e-38,-3.40903e-12,-1.06599e-13,0,0,-3.22105,-0.228912,0.144109,0,0,0,0,0,-0.0266547,-0.728912,283,-42,283,-42,416,-45,281,81,0,-0.261799,0,-1.5,nan,0,0,0,0,0,0,0,0,0,0,0,17010,0,0,0,0,11023
11172,-3.2133e-12,7.9515e-38,-1.55831e-06,-3.27827e-12,7.95103e-38,0,-1.06599e-13,0,0,-3.1482,-0.217536,0.129769,0,0,0,0,0,0.0584738,-0.717536,281,-42,281,-42,416,-57,281,80,0.261799,-0.261799,0,-1.5,nan,0,0,0,-0.0634516,-0.721408,0,0,0,0,-0.276521,0.049692,18495,-0.030822,-0.727272,-0.276521,0.049692,11056
11187,-3.2133e-12,7.9515e-38,-1.55831e-06,-3.27827e-12,7.95103e-38,-3.40903e-12,-1.066e-13,0,0,-3.1482,-0.217536,0.129769,0,0,0,0,0,0.0584738,-0.717536,281,-42,281,-42,416,-57,281,80,0.261799,-0.261799,0,-1.5,nan,0,0,0,-0.0675995,-0.720663,0,0,0,0,-0.276521,0.049692,18495,-0.030822,-0.727272,-0.276521,0.049692,11056
11203,-3.2133e-12,7.9515e-38,-1.55831e-06,-3.27827e-12,7.95103e-38,0,-1.066e-13,0,0,-3.1482,-0.217536,0.129769,0,0,0,0,0,0.0584738,-0.717536,281,-42,281,-42,416,-57,281,80,0.261799,-0.261799,0,-1.5,nan,0,0,0,-0.0720239,-0.719868,0,0,0,0,-0.276521,0.049692,18495,-0.030822,-0.727272,-0.276521,0.049692,11056
11241,-3.2133e-12,7.9515e-38,-1.55831e-06,-3.27827e-12,7.95103e-38,-3.40903e-12,-1.066e-13,0,0,-3.1482,-0.217536,0.129769,0,0,0,0,0,0.0584738,-0.717536,281,-42,281,-42,416,-57,281,80,0.261799,-0.261799,0,-1.5,nan,0,0,0,-0.0825318,-0.71798,0,0,0,0,-0.276521,0.049692,18495,-0.030822,-0.727272,-0.276521,0.049692,11056
11261,-3.2133e-12,7.9515e-38,-1.55831e-06,-3.27827e-12,7.95103e-38,0,-1.066e-13,0,0,-3.1482,-0.217536,0.129769,0,0,0,0,0,0.0584738,-0.717536,281,-42,281,-42,416,-57,281,80,0.261799,-0.261799,0,-1.5,nan,0,0,0,-0.0880623,-0.716986,0,0,0,0,-0.276521,0.049692,18495,-0.030822,-0.727272,-0.276521,0.049692,11056
11283,-3.2133e-12,7.9515e-38,-1.55831e-06,-3.27827e-12,7.95103e-38,-3.40903e-12,-1.06601e-13,0,0,-3.1482,-0.217536,0.129769,0,0,0,0,0,0.0584738,-0.717536,281,-42,281,-42,416,-57,281,80,0.261799,-0.261799,0,-1.5,nan,0,0,0,-0.0938694,-0.715942,0,0,0,0,-0.276521,0.049692,18495,-0.030822,-0.727272,-0.276521,0.049692,11056
11299,-3.2133e-12,7.9515e-38,-1.55831e-06,-3.27827e-12,7.95103e-38,0,-1.06601e-13,0,0,-3.1482,-0.217536,0.129769,0,0,0,0,0,0.0584738,-0.717536,281,-42,281,-42,416,-57,281,80,0.261799,-0.261799,0,-1.5,nan,0,0,0,-0.0985704,-0.715097,0,0,0,0,-0.276521,0.049692,18495,-0.030822,-0.727272,-0.276521,0.049692,11056
11316,-3.2133e-12,7.9515e-38,-1.55831e-06,-3.27827e-12,7.95103e-38,-3.40903e-12,-1.06601e-13,0,0,-3.1482,-0.217536,0.129769,0,0,0,0,0,0.0584738,-0.717536,281,-42,281,-42,416,-57,281,80,0.261799,-0.261799,0,-1.5,nan,0,0,0,-0.103271,-0.714253,0,0,0,0,-0.276521,0.049692,18495,-0.030822,-0.727272,-0.276521,0.049692,11056
11449,-3.2133e-12,7.9515e-38,-1.55831e-06,-3.27827e-12,7.95103e-38,0,-1.06602e-13,0,0,-3.22111,-0.220548,0.14422,0,0,0,0,0,-0.026721,-0.720548,281,-42,281,-42,414,-45,281,80,0.261799,-0.261799,0,-1.5,nan,0,0,0,-0.0391757,-0.715617,0,0,0,0,-0.0936442,0.0370763,16625,-0.026721,-0.720548,-0.0936442,0.0370763,11328
11462,-3.2133e-12,7.9515e-38,-1.55831e-06,-3.27827e-12,7.95103e-38,-3.40903e-12,-1.06602e-13,0,0,-3.22111,-0.220548,0.14422,0,0,0,0,0,-0.026721,-0.720548,281,-42,281,-42,414,-45,281,80,0.261799,-0.261799,0,-1.5,nan,0,0,0,-0.0403931,-0.715135,0,0,0,0,-0.0936442,0.0370763,16625,-0.026721,-0.720548,-0.0936442,0.0370763,11328
11479,-3.2133e-12,7.9515e-38,-1.55831e-06,-3.27827e-12,7.95103e-38,0,-1.06602e-13,0,0,-3.22111,-0.220548,0.14422,0,0,0,0,0,-0.026721,-0.720548,281,-42,281,-42,414,-45,281,80,0.261799,-0.261799,0,-1.5,nan,0,0,0,-0.0419851,-0.714504,0,0,0,0,-0.0936442,0.0370763,16625,-0.026721,-0.720548,-0.0936442,0.0370763,11328
11496,-3.2133e-12,7.9515e-38,-1.55831e-06,-3.27827e-12,7.95103e-38,-3.40903e-12,-1.06602e-13,0,0,-3.22111,-0.220548,0.14422,0,0,0,0,0,-0.026721,-0.720548,281,-42,281,-42,414,-45,281,80,0.261799,-0.261799,0,-1.5,nan,0,0,0,-0.0435771,-0.713874,0,0,0,0,-0.0936442,0.0370763,16625,-0.026721,-0.720548,-0.0936442,0.0370763,11328
11513,-3.2133e-12,7.9515e-38,-1.55831e-06,-3.27827e-12,7.95103e-38,0,-1.06603e-13,0,0,-3.22111,-0.220548,0.14422,0,0,0,0,0,-0.026721,-0.720548,281,-42,281,-42,414,-45,281,80,0.261799,-0.261799,0,-1.5,nan,0,0,0,-0.0451691,-0.713244,0,0,0,0,-0.0936442,0.0370763,16625,-0.026721,-0.720548,-0.0936442,0.0370763,11328
11538,-3.2133e-12,7.9515e-38,-1.55831e-06,-3.27827e-12,7.95103e-38,-3.40903e-12,-1.06603e-13,0,0,-3.22111,-0.220548,0.14422,0,0,0,0,0,-0.026721,-0.720548,281,-42,281,-42,414,-45,281,80,0.261799,-0.261799,0,-1.5,nan,0,0,0,-0.0474166,-0.712354,0,0,0,0,-0.0936442,0.0370763,16625,-0.026721,-0.720548,-0.0936442,0.0370763,11328
11555,-3.2133e-12,7.9515e-38,-1.55831e-06,-3.27827e-12,7.95103e-38,0,-1.06603e-13,0,0,-3.22111,-0.220548,0.14422,0,0,0,0,0,-0.026721,-0.720548,281,-42,281,-42,414,-45,281,80,0.261799,-0.261799,0,-1.5,nan,0,0,0,-0.0490085,-0.711724,0,0,0,0,-0.0936442,0.0370763,16625,-0.026721,-0.720548,-0.0936442,0.0370763,11328
11685,-3.2133e-12,7.9515e-38,-1.55831e-06,-3.27827e-12,7.95103e-38,-3.40903e-12,-1.06603e-13,0,0,-3.11611,-0.220985,0.115978,0,0,0,0,0,0.0958006,-0.720985,282,-56,282,-56,417,-45,279,76,0.261799,-0.261799,0,-1.5,nan,0,0,0,0.114798,-0.714935,0,0,0,0,0.148406,0.0266759,19182,0.0953564,-0.71843,0.148406,0.0266759,11563
11732,-3.2133e-12,7.9515e-38,-1.55831e-06,-3.27827e-12,7.95103e-38,0,-1.06604e-13,0,0,-3.1515,-0.213946,0.142143,0,0,0,0,0,0.0546238,-0.713946,279,-54,279,-54,417,-47,281,76,0.261799,-0.261799,0,-1.5,nan,0,0,0,0.0574178,-0.712687,0,0,0,0,0.0675727,0.0293855,18492,0.0543094,-0.714039,0.0675727,0.0293855,11715
11883,-3.2133e-12,7.9515e-38,-1.55831e-06,-3.27827e-12,7.95103e-38,-3.40903e-12,-1.06604e-13,0,0,-3.28302,-0.227869,0.17444,0,0,0,0,0,-0.099474,-0.727869,283,-34,283,-34,417,-47,281,76,0.261799,-0.261799,0,-1.5,nan,0,0,0,0.0582654,-0.708554,0,0,0,0,0.0576859,0.028254,17272,0.0494972,-0.712848,0.0576859,0.028254,11764
12738,-3.2133e-12,7.9515e-38,-1.55831e-06,-3.27827e-12,7.95103e-38,0,-1.06604e-13,0,0,-3.30888,-0.229395,0.166217,-0.228409,-0.707606,-0.130597,0.0123303,0,-0.129983,-0.729395,280,-34,280,-34,417,-35,281,76,0.261799,-0.261799,0,-1.5,nan,0,0,0,-0.228409,-0.707606,0,0,0,0,-0.130597,0.0123303,15618,0,0,0,0,12352
12840,-3.2133e-12,7.9515e-38,-1.55831e-06,-3.27827e-12,7.95103e-38,-3.40903e-12,-1.06605e-13,0,0,-3.35293,-0.237175,0.187575,-0.241102,-0.706408,-0.123962,0.0117038,0,-0.182102,-0.737175,284,-34,284,-34,417,-35,281,76,0.261799,-0.261799,0,-1.5,nan,0,0,0,-0.241102,-0.706408,0,0,0,0,-0.123962,0.0117038,15640,0,0,0,0,12832
12918,-3.2133e-12,7.9515e-38,-1.55831e-06,-3.27827e-12,7.95103e-38,0,-1.06605e-13,0,0,-3.34178,-0.240684,0.184057,-0.250434,-0.705527,-0.119148,0.0112493,0,-0.168889,-0.740684,284,-34,284,-34,417,-35,281,76,0.261799,-0.261799,0,-1.5,nan,0,0,0,-0.250434,-0.705527,0,0,0,0,-0.119148,0.0112493,15504,0,0,0,0,12909
13020,-3.2133e-12,7.9515e-38,-1.55831e-06,-3.27827e-12,7.95103e-38,-3.40903e-12,-1.06605e-13,0,0,-3.3237,-0.241238,0.178428,-0.262014,-0.704434,-0.113094,0.0106777,0,-0.147498,-0.741238,284,-34,284,-34,418,-37,281,76,0.261799,-0.261799,0,-1.5,nan,0,0,0,-0.262014,-0.704434,0,0,0,0,-0.113094,0.0106777,15892,0,0,0,0,13012
13145,-3.2133e-12,7.9515e-38,-1.55831e-06,-3.27827e-12,7.95103e-38,0,-1.06605e-13,0,0,-3.06913,-0.230446,0.111441,-0.275328,-0.703176,-0.106056,0.0100132,0,0.15026,-0.730446,282,-54,282,-54,418,-57,282,80,0.261799,-0.261799,0,-1.5,nan,0,0,0,-0.275328,-0.703176,0,0,0,0,-0.106056,0.0100132,18632,0,0,0,0,13136
13250,-3.2133e-12,7.9515e-38,-1.55831e-06,-3.27827e-12,7.95103e-38,-3.40903e-12,-1.06606e-13,0,0,-3.08078,-0.18904,0.219774,-0.285922,-0.702176,-0.100509,0.00948953,0,0.136777,-0.68904,279,-68,279,-68,414,-70,277,66,0.261799,-0.261799,0,-1.5,nan,0,0,0,-0.285922,-0.702176,0,0,0,0,-0.100509,0.00948953,19043,0,0,0,0,13242
13295,-3.2133e-12,7.9515e-38,-1.55831e-06,-3.27827e-12,7.95103e-38,0,-1.06606e-13,0,0,-3.08078,-0.18904,0.219774,-0.290361,-0.701757,-0.0982567,0.00927685,0,0.136777,-0.68904,279,-68,279,-68,414,-70,277,66,0.261799,-0.261799,0,-1.5,nan,0,0,0,-0.290361,-0.701757,0,0,0,0,-0.0982567,0.00927685,19043,0,0,0,0,13242
13311,-3.2133e-12,7.9515e-38,-1.55831e-06,-3.27827e-12,7.95103e-38,-3.40903e-12,-1.06606e-13,0,0,-3.08078,-0.18904,0.219774,-0.291925,-0.70161,-0.097473,0.00920286,0,0.136777,-0.68904,279,-68,279,-68,414,-70,277,66,0.261799,-0.261799,0,-1.5,nan,0,0,0,-0.291925,-0.70161,0,0,0,0,-0.097473,0.00920286,19043,0,0,0,0,13242
13333,-3.2133e-12,7.9515e-38,-1.55831e-06,-3.27827e-12,7.95103e-38,0,-1.06606e-13,0,0,-3.08078,-0.18904,0.219774,-0.293956,-0.701418,-0.0964526,0.00910652,0,0.136777,-0.68904,279,-68,279,-68,414,-70,277,66,0.261799,-0.261799,0,-1.5,nan,0,0,0,-0.293956,-0.701418,0,0,0,0,-0.0964526,0.00910652,19043,0,0,0,0,13242
13349,-3.2133e-12,7.9515e-38,-1.55831e-06,-3.27827e-12,7.95103e-38,-3.40903e-12,-1.06607e-13,0,0,-3.08078,-0.18904,0.219774,-0.295587,-0.701264,-0.095635,0.00902933,0,0.136777,-0.68904,279,-68,279,-68,414,-70,277,66,0.261799,-0.261799,0,-1.5,nan,0,0,0,-0.295587,-0.701264,0,0,0,0,-0.095635,0.00902933,19043,0,0,0,0,13242
13460,-3.2133e-12,7.9515e-38,-1.55831e-06,-3.27827e-12,7.95103e-38,0,-1.06607e-13,0,0,-3.08078,-0.18904,0.219774,-0.305654,-0.700313,-0.0903475,0.00853012,0,0.136777,-0.68904,279,-68,279,-68,414,-70,277,66,0.261799,-0.261799,0,-1.5,nan,0,0,0,-0.305654,-0.700313,0,0,0,0,-0.0903475,0.00853012,19043,0,0,0,0,13242
13502,-3.2133e-12,7.9515e-38,-1.55831e-06,-3.27827e-12,7.95103e-38,-3.40903e-12,-1.06607e-13,0,0,-3.08078,-0.18904,0.219774,-0.309383,-0.699961,-0.0884576,0.00835168,0,0.136777,-0.68904,279,-68,279,-68,414,-70,277,66,0.261799,-0.261799,0,-1.5,nan,0,0,0,-0.309383,-0.699961,0,0,0,0,-0.0884576,0.00835168,19043,0,0,0,0,13242
13518,-3.2133e-12,7.9515e-38,-1.55831e-06,-3.27827e-12,7.95103e-38,0,-1.06607e-13,0,0,-3.08078,-0.18904,0.219774,-0.310791,-0.699828,-0.0877519,0.00828505,0,0.136777,-0.68904,279,-68,279,-68,414,-70,277,66,0.261799,-0.261799,0,-1.5,nan,0,0,0,-0.310791,-0.699828,0,0,0,0,-0.0877519,0.00828505,19043,0,0,0,0,13242
13536,-3.2133e-12,7.9515e-38,-1.55831e-06,-3.27827e-12,7.95103e-38,-3.40903e-12,-1.06608e-13,0,0,-3.08078,-0.18904,0.219774,-0.312275,-0.699688,-0.0870081,0.00821483,0,0.136777,-0.68904,279,-68,279,-68,414,-70,277,66,0.261799,-0.261799,0,-1.5,nan,0,0,0,-0.312275,-0.699688,0,0,0,0,-0.0870081,0.00821483,19043,0,0,0,0,13242
13557,-3.2133e-12,7.9515e-38,-1.55831e-06,-3.27827e-12,7.95103e-38,0,-1.06608e-13,0,0,-3.08078,-0.18904,0.219774,-0.314088,-0.699517,-0.0860973,0.00812883,0,0.136777,-0.68904,279,-68,279,-68,414,-70,277,66,0.261799,-0.261799,0,-1.5,nan,0,0,0,-0.314088,-0.699517,0,0,0,0,-0.0860973,0.00812883,19043,0,0,0,0,13242
13660,-3.2133e-12,7.9515e-38,-1.55831e-06,-3.27827e-12,7.95103e-38,-3.40903e-12,-1.06608e-13,0,0,-3.08078,-0.18904,0.219774,-0.322611,-0.698712,-0.0816373,0.00770774,0,0.136777,-0.68904,279,-68,279,-68,414,-70,277,66,0.261799,-0.261799,0,-1.5,nan,0,0,0,-0.322611,-0.698712,0,0,0,0,-0.0816373,0.00770774,19043,0,0,0,0,13242
13710,-3.2133e-12,7.9515e-38,-1.55831e-06,-3.27827e-12,7.95103e-38,0,-1.06609e-13,0,0,-3.08078,-0.18904,0.219774,-0.326607,-0.698335,-0.0796045,0.00751581,0,0.136777,-0.68904,279,-68,279,-68,414,-70,277,66,0.261799,-0.261799,0,-1.5,nan,0,0,0,-0.326607,-0.698335,0,0,0,0,-0.0796045,0.00751581,19043,0,0,0,0,13242
13726,-3.2133e-12,7.9515e-38,-1.55831e-06,-3.27827e-12,7.95103e-38,-3.40903e-12,-1.06609e-13,0,0,-3.08078,-0.18904,0.219774,-0.327874,-0.698215,-0.0789694,0.00745585,0,0.136777,-0.68904,279,-68,279,-68,414,-70,277,66,0.261799,-0.261799,0,-1.5,nan,0,0,0,-0.327874,-0.698215,0,0,0,0,-0.0789694,0.00745585,19043,0,0,0,0,13242
13740,-3.2133e-12,7.9515e-38,-1.55831e-06,-3.27827e-12,7.95103e-38,0,-1.06609e-13,0,0,-3.08078,-0.18904,0.219774,-0.328975,-0.698111,-0.0784181,0.0074038,0,0.136777,-0.68904,279,-68,279,-68,414,-70,277,66,0.261799,-0.261799,0,-1.5,nan,0,0,0,-0.328975,-0.698111,0,0,0,0,-0.0784181,0.0074038,19043,0,0,0,0,13242
13926,-3.2133e-12,7.9515e-38,-1.55831e-06,-3.27827e-12,7.95103e-38,-3.40903e-12,-1.06609e-13,0,0,-3.08078,-0.18904,0.219774,-0.342261,-0.696857,-0.0711535,0.00671792,0,0.136777,-0.68904,279,-68,279,-68,414,-70,277,66,0.261799,-0.261799,0,-1.5,nan,0,0,0,-0.342261,-0.696857,0,0,0,0,-0.0711535,0.00671792,19043,0,0,0,0,13242
13943,-3.2133e-12,7.9515e-38,-1.55831e-06,-3.27827e-12,7.95103e-38,0,-1.0661e-13,0,0,-3.08078,-0.18904,0.219774,-0.343464,-0.696743,-0.0705505,0.00666099,0,0.136777,-0.68904,279,-68,279,-68,414,-70,277,66,0.261799,-0.261799,0,-1.5,nan,0,0,0,-0.343464,-0.696743,0,0,0,0,-0.0705505,0.00666099,19043,0,0,0,0,13242
13965,-3.2133e-12,7.9515e-38,-1.55831e-06,-3.27827e-12,7.95103e-38,-3.40903e-12,-1.0661e-13,0,0,-3.08078,-0.18904,0.219774,-0.345004,-0.696598,-0.0697771,0.00658797,0,0.136777,-0.68904,279,-68,279,-68,414,-70,277,66,0.261799,-0.261799,0,-1.5,nan,0,0,0,-0.345004,-0.696598,0,0,0,0,-0.0697771,0.00658797,19043,0,0,0,0,13242
13981,-3.2133e-12,7.9515e-38,-1.55831e-06,-3.27827e-12,7.95103e-38,0,-1.0661e-13,0,0,-3.08078,-0.18904,0.219774,-0.346115,-0.696493,-0.0692204,0.00653541,0,0.136777,-0.68904,279,-68,279,-68,414,-70,277,66,0.261799,-0.261799,0,-1.5,nan,0,0,0,-0.346115,-0.696493,0,0,0,0,-0.0692204,0.00653541,19043,0,0,0,0,13242
14090,-3.2133e-12,7.9515e-38,-1.55831e-06,-3.27827e-12,7.95103e-38,-3.40903e-12,-1.0661e-13,0,0,-3.08078,-0.18904,0.219774,-0.353278,-0.695817,-0.0654623,0.00618059,0,0.136777,-0.68904,279,-68,279,-68,414,-70,277,66,0.261799,-0.261799,0,-1.5,nan,0,0,0,-0.353278,-0.695817,0,0,0,0,-0.0654623,0.00618059,19043,0,0,0,0,13242
14123,-3.2133e-12,7.9515e-38,-1.55831e-06,-3.27827e-12,7.95103e-38,0,-1.06611e-13,0,0,-3.08078,-0.18904,0.219774,-0.35541,-0.695615,-0.0643862,0.00607899,0,0.136777,-0.68904,279,-68,279,-68,414,-70,277,66,0.261799,-0.261799,0,-1.5,nan,0,0,0,-0.35541,-0.695615,0,0,0,0,-0.0643862,0.00607899,19043,0,0,0,0,13242
14139,-3.2133e-12,7.9515e-38,-1.55831e-06,-3.27827e-12,7.95103e-38,-3.40903e-12,-1.06611e-13,0,0,-3.08078,-0.18904,0.219774,-0.356435,-0.695519,-0.0638725,0.00603049,0,0.136777,-0.68904,279,-68,279,-68,414,-70,277,66,0.261799,-0.261799,0,-1.5,nan,0,0,0,-0.356435,-0.695519,0,0,0,0,-0.0638725,0.00603049,19043,0,0,0,0,13242
14157,-3.2133e-12,7.9515e-38,-1.55831e-06,-3.27827e-12,7.95103e-38,0,-1.06611e-13,0,0,-3.08078,-0.18904,0.219774,-0.357515,-0.695417,-0.0633311,0.00597937,0,0.136777,-0.68904,279,-68,279,-68,414,-70,277,66,0.261799,-0.261799,0,-1.5,nan,0,0,0,-0.357515,-0.695417,0,0,0,0,-0.0633311,0.00597937,19043,0,0,0,0,13242
14178,-3.2133e-12,7.9515e-38,-1.55831e-06,-3.27827e-12,7.95103e-38,-3.40903e-12,-1.06612e-13,0,0,-3.08078,-0.18904,0.219774,-0.358897,-0.695286,-0.0626368,0.00591382,0,0.136777,-0.68904,279,-68,279,-68,414,-70,277,66,0.261799,-0.261799,0,-1.5,nan,0,0,0,-0.358897,-0.695286,0,0,0,0,-0.0626368,0.00591382,19043,0,0,0,0,13242
14280,-3.2133e-12,7.9515e-38,-1.55831e-06,-3.27827e-12,7.95103e-38,0,-1.06612e-13,0,0,-3.08078,-0.18904,0.219774,-0.364985,-0.694711,-0.0594544,0.00561336,0,0.136777,-0.68904,279,-68,279,-68,414,-70,277,66,0.261799,-0.261799,0,-1.5,nan,0,0,0,-0.364985,-0.694711,0,0,0,0,-0.0594544,0.00561336,19043,0,0,0,0,13242
14362,-3.2133e-12,7.9515e-38,-1.55831e-06,-3.27827e-12,7.95103e-38,-3.40903e-12,-1.06612e-13,0,0,-3.08078,-0.18904,0.219774,-0.369681,-0.694268,-0.057027,0.00538418,0,0.136777,-0.68904,279,-68,279,-68,414,-70,277,66,0.261799,-0.261799,0,-1.5,nan,0,0,0,-0.369681,-0.694268,0,0,0,0,-0.057027,0.00538418,19043,0,0,0,0,13242
14387,-3.2133e-12,7.9515e-38,-1.55831e-06,-3.27827e-12,7.95103e-38,0,-1.06612e-13,0,0,-3.08078,-0.18904,0.219774,-0.371093,-0.694135,-0.0563164,0.00531709,0,0.136777,-0.68904,279,-68,279,-68,414,-70,277,66,0.261799,-0.261799,0,-1.5,nan,0,0,0,-0.371093,-0.694135,0,0,0,0,-0.0563164,0.00531709,19043,0,0,0,0,13242
14401,-3.2133e-12,7.9515e-38,-1.55831e-06,-3.27827e-12,7.95103e-38,-3.40903e-12,-1.06613e-13,0,0,-3.08078,-0.18904,0.219774,-0.371878,-0.69406,-0.0559233,0.00527997,0,0.136777,-0.68904,279,-68,279,-68,414,-70,277,66,0.261799,-0.261799,0,-1.5,nan,0,0,0,-0.371878,-0.69406,0,0,0,0,-0.0559233,0.00527997,19043,0,0,0,0,13242
14510,-3.2133e-12,7.9515e-38,-1.55831e-06,-3.27827e-12,7.95103e-38,0,-1.06613e-13,0,0,-3.08078,-0.18904,0.219774,-0.377665,-0.693514,-0.0528871,0.00499331,0,0.136777,-0.68904,279,-68,279,-68,414,-70,277,66,0.261799,-0.261799,0,-1.5,nan,0,0,0,-0.377665,-0.693514,0,0,0,0,-0.0528871,0.00499331,19043,0,0,0,0,13242
14579,-3.2133e-12,7.9515e-38,-1.55831e-06,-3.27827e-12,7.95103e-38,-3.40903e-12,-1.06613e-13,0,0,-3.08078,-0.18904,0.219774,-0.381202,-0.69318,-0.0510692,0.00482167,0,0.136777,-0.68904,279,-68,279,-68,414,-70,277,66,0.261799,-0.261799,0,-1.5,nan,0,0,0,-0.381202,-0.69318,0,0,0,0,-0.0510692,0.00482167,19043,0,0,0,0,13242
14597,-3.2133e-12,7.9515e-38,-1.55831e-06,-3.27827e-12,7.95103e-38,0,-1.06613e-13,0,0,-3.08078,-0.18904,0.219774,-0.382116,-0.693094,-0.050611,0.00477841,0,0.136777,-0.68904,279,-68,279,-68,414,-70,277,66,0.261799,-0.261799,0,-1.5,nan,0,0,0,-0.382116,-0.693094,0,0,0,0,-0.050611,0.00477841,19043,0,0,0,0,13242
14618,-3.2133e-12,7.9515e-38,-1.55831e-06,-3.27827e-12,7.95103e-38,-3.40903e-12,-1.06614e-13,0,0,-3.08078,-0.18904,0.219774,-0.383171,-0.692994,-0.0500813,0.0047284,0,0.136777,-0.68904,279,-68,279,-68,414,-70,277,66,0.261799,-0.261799,0,-1.5,nan,0,0,0,-0.383171,-0.692994,0,0,0,0,-0.0500813,0.0047284,19043,0,0,0,0,13242
14720,-3.2133e-12,7.9515e-38,-1.55831e-06,-3.27827e-12,7.95103e-38,0,-1.06614e-13,0,0,-3.08078,-0.18904,0.219774,-0.388038,-0.692535,-0.0475369,0.00448817,0,0.136777,-0.68904,279,-68,279,-68,414,-70,277,66,0.261799,-0.261799,0,-1.5,nan,0,0,0,-0.388038,-0.692535,0,0,0,0,-0.0475369,0.00448817,19043,0,0,0,0,13242
14796,-3.2133e-12,7.9515e-38,-1.55831e-06,-3.27827e-12,7.95103e-38,-3.40903e-12,-1.06614e-13,0,0,-3.08078,-0.18904,0.219774,-0.391527,-0.692205,-0.0457372,0.00431826,0,0.136777,-0.68904,279,-68,279,-68,414,-70,277,66,0.261799,-0.261799,0,-1.5,nan,0,0,0,-0.391527,-0.692205,0,0,0,0,-0.0457372,0.00431826,19043,0,0,0,0,13242
14813,-3.2133e-12,7.9515e-38,-1.55831e-06,-3.27827e-12,7.95103e-38,0,-1.06615e-13,0,0,-3.08078,-0.18904,0.219774,-0.3923,-0.692132,-0.0453496,0.00428166,0,0.136777,-0.68904,279,-68,279,-68,414,-70,277,66,0.261799,-0.261799,0,-1.5,nan,0,0,0,-0.3923,-0.692132,0,0,0,0,-0.0453496,0.00428166,19043,0,0,0,0,13242
14831,-3.2133e-12,7.9515e-38,-1.55831e-06,-3.27827e-12,7.95103e-38,-3.40903e-12,-1.06615e-13,0,0,-3.08078,-0.18904,0.219774,-0.393112,-0.692055,-0.0449427,0.00424324,0,0.136777,-0.68904,279,-68,279,-68,414,-70,277,66,0.261799,-0.261799,0,-1.5,nan,0,0,0,-0.393112,-0.692055,0,0,0,0,-0.0449427,0.00424324,19043,0,0,0,0,13242
14870,-3.2133e-12,7.9515e-38,-1.55831e-06,-3.27827e-12,7.95103e-38,0,-1.06615e-13,0,0,-3.08078,-0.18904,0.219774,-0.394837,-0.691893,-0.0440697,0.00416081,0,0.136777,-0.68904,279,-68,279,-68,414,-70,277,66,0.261799,-0.261799,0,-1.5,nan,0,0,0,-0.394837,-0.691893,0,0,0,0,-0.0440697,0.00416081,19043,0,0,0,0,13242
14980,-3.2133e-12,7.9515e-38,-1.55831e-06,-3.27827e-12,7.95103e-38,-3.40903e-12,-1.06615e-13,0,0,-3.08078,-0.18904,0.219774,-0.399437,-0.691458,-0.0416551,0.00393284,0,0.136777,-0.68904,279,-68,279,-68,414,-70,277,66,0.261799,-0.261799,0,-1.5,nan,0,0,0,-0.399437,-0.691458,0,0,0,0,-0.0416551,0.00393284,19043,0,0,0,0,13242
15022,-3.2133e-12,7.9515e-38,-1.55831e-06,-3.27827e-12,7.95103e-38,0,-1.06616e-13,0,0,-3.08078,-0.18904,0.219774,-0.401156,-0.691296,-0.0407834,0.00385054,0,0.136777,-0.68904,279,-68,279,-68,414,-70,277,66,0.261799,-0.261799,0,-1.5,nan,0,0,0,-0.401156,-0.691296,0,0,0,0,-0.0407834,0.00385054,19043,0,0,0,0,13242
15039,-3.2133e-12,7.9515e-38,-1.55831e-06,-3.27827e-12,7.95103e-38,-3.40903e-12,-1.06616e-13,0,0,-3.08078,-0.18904,0.219774,-0.401845,-0.691231,-0.0404378,0.00381791,0,0.136777,-0.68904,279,-68,279,-68,414,-70,277,66,0.261799,-0.261799,0,-1.5,nan,0,0,0,-0.401845,-0.691231,0,0,0,0,-0.0404378,0.00381791,19043,0,0,0,0,13242
15053,-3.2133e-12,7.9515e-38,-1.55831e-06,-3.27827e-12,7.95103e-38,0,-1.06616e-13,0,0,-3.08078,-0.18904,0.219774,-0.402409,-0.691178,-0.0401554,0.00379125,0,0.136777,-0.68904,279,-68,279,-68,414,-70,277,66,0.261799,-0.261799,0,-1.5,nan,0,0,0,-0.402409,-0.691178,0,0,0,0,-0.0401554,0.00379125,19043,0,0,0,0,13242
15160,-3.2133e-12,7.9515e-38,-1.55831e-06,-3.27827e-12,7.95103e-38,-3.40903e-12,-1.06616e-13,0,0,-3.08078,-0.18904,0.219774,-0.406492,-0.690792,-0.0380153,0.0035892,0,0.136777,-0.68904,279,-68,279,-68,414,-70,277,66,0.261799,-0.261799,0,-1.5,nan,0,0,0,-0.406492,-0.690792,0,0,0,0,-0.0380153,0.0035892,19043,0,0,0,0,13242
15230,-3.2133e-12,7.9515e-38,-1.55831e-06,-3.27827e-12,7.95103e-38,0,-1.06617e-13,0,0,-3.08078,-0.18904,0.219774,-0.40907,-0.690549,-0.0366897,0.00346404,0,0.136777,-0.68904,279,-68,279,-68,414,-70,277,66,0.261799,-0.261799,0,-1.5,nan,0,0,0,-0.40907,-0.690549,0,0,0,0,-0.0366897,0.00346404,19043,0,0,0,0,13242
15247,-3.2133e-12,7.9515e-38,-1.55831e-06,-3.27827e-12,7.95103e-38,-3.40903e-12,-1.06617e-13,0,0,-3.08078,-0.18904,0.219774,-0.40969,-0.69049,-0.0363788,0.00343468,0,0.136777,-0.68904,279,-68,279,-68,414,-70,277,66,0.261799,-0.261799,0,-1.5,nan,0,0,0,-0.40969,-0.69049,0,0,0,0,-0.0363788,0.00343468,19043,0,0,0,0,13242
15269,-3.2133e-12,7.9515e-38,-1.55831e-06,-3.27827e-12,7.95103e-38,0,-1.06617e-13,0,0,-3.08078,-0.18904,0.219774,-0.410484,-0.690416,-0.0359799,0.00339703,0,0.136777,-0.68904,279,-68,279,-68,414,-70,277,66,0.261799,-0.261799,0,-1.5,nan,0,0,0,-0.410484,-0.690416,0,0,0,0,-0.0359799,0.00339703,19043,0,0,0,0,13242
15370,-3.2133e-12,7.9515e-38,-1.55831e-06,-3.27827e-12,7.95103e-38,-3.40903e-12,-1.06618e-13,0,0,-3.08078,-0.18904,0.219774,-0.413949,-0.690088,-0.0341698,0.00322613,0,0.136777,-0.68904,279,-68,279,-68,414,-70,277,66,0.261799,-0.261799,0,-1.5,nan,0,0,0,-0.413949,-0.690088,0,0,0,0,-0.0341698,0.00322613,19043,0,0,0,0,13242
15408,-3.2133e-12,7.9515e-38,-1.55831e-06,-3.27827e-12,7.95103e-38,0,-1.06618e-13,0,0,-3.08078,-0.18904,0.219774,-0.415227,-0.689968,-0.0335229,0.00316504,0,0.136777,-0.68904,279,-68,279,-68,414,-70,277,66,0.261799,-0.261799,0,-1.5,nan,0,0,0,-0.415227,-0.689968,0,0,0,0,-0.0335229,0.00316504,19043,0,0,0,0,13242
15425,-3.2133e-12,7.9515e-38,-1.55831e-06,-3.27827e-12,7.95103e-38,-3.40903e-12,-1.06618e-13,0,0,-3.08078,-0.18904,0.219774,-0.415794,-0.689914,-0.0332388,0.00313822,0,0.136777,-0.68904,279,-68,279,-68,414,-70,277,66,0.261799,-0.261799,0,-1.5,nan,0,0,0,-0.415794,-0.689914,0,0,0,0,-0.0332388,0.00313822,19043,0,0,0,0,13242
15441,-3.2133e-12,7.9515e-38,-1.55831e-06,-3.27827e-12,7.95103e-38,0,-1.06618e-13,0,0,-3.08078,-0.18904,0.219774,-0.416323,-0.689864,-0.0329736,0.00311319,0,0.136777,-0.68904,279,-68,279,-68,414,-70,277,66,0.261799,-0.261799,0,-1.5,nan,0,0,0,-0.416323,-0.689864,0,0,0,0,-0.0329736,0.00311319,19043,0,0,0,0,13242
15462,-3.2133e-12,7.9515e-38,-1.55831e-06,-3.27827e-12,7.95103e-38,-3.40903e-12,-1.06619e-13,0,0,-3.08078,-0.18904,0.219774,-0.41701,-0.689799,-0.0326284,0.0030806,0,0.136777,-0.68904,279,-68,279,-68,414,-70,277,66,0.261799,-0.261799,0,-1.5,nan,0,0,0,-0.41701,-0.689799,0,0,0,0,-0.0326284,0.0030806,19043,0,0,0,0,13242
15570,-3.2133e-12,7.9515e-38,-1.55831e-06,-3.27827e-12,7.95103e-38,0,-1.06619e-13,0,0,-3.08078,-0.18904,0.219774,-0.420357,-0.689483,-0.0308732,0.00291488,0,0.136777,-0.68904,279,-68,279,-68,414,-70,277,66,0.261799,-0.261799,0,-1.5,nan,0,0,0,-0.420357,-0.689483,0,0,0,0,-0.0308732,0.00291488,19043,0,0,0,0,13242
15680,-3.2133e-12,7.9515e-38,-1.55831e-06,-3.27827e-12,7.95103e-38,-3.40903e-12,-1.06619e-13,0,0,-3.08078,-0.18904,0.219774,-0.423579,-0.689179,-0.0291816,0.00275517,0,0.136777,-0.68904,279,-68,279,-68,414,-70,277,66,0.261799,-0.261799,0,-1.5,nan,0,0,0,-0.423579,-0.689179,0,0,0,0,-0.0291816,0.00275517,19043,0,0,0,0,13242
15699,-3.2133e-12,7.9515e-38,-1.55831e-06,-3.27827e-12,7.95103e-38,0,-1.06619e-13,0,0,-3.08078,-0.18904,0.219774,-0.424101,-0.68913,-0.0289198,0.00273045,0,0.136777,-0.68904,279,-68,279,-68,414,-70,277,66,0.261799,-0.261799,0,-1.5,nan,0,0,0,-0.424101,-0.68913,0,0,0,0,-0.0289198,0.00273045,19043,0,0,0,0,13242
15712,-3.2133e-12,7.9515e-38,-1.55831e-06,-3.27827e-12,7.95103e-38,-3.40903e-12,-1.0662e-13,0,0,-3.08078,-0.18904,0.219774,-0.424504,-0.689092,-0.0287179,0.00271138,0,0.136777,-0.68904,279,-68,279,-68,414,-70,277,66,0.261799,-0.261799,0,-1.5,nan,0,0,0,-0.424504,-0.689092,0,0,0,0,-0.0287179,0.00271138,19043,0,0,0,0,13242
15855,-3.2133e-12,7.9515e-38,-1.55831e-06,-3.27827e-12,7.95103e-38,0,-1.0662e-13,0,0,-3.08078,-0.18904,0.219774,-0.428335,-0.68873,-0.0266734,0.00251836,0,0.136777,-0.68904,279,-68,279,-68,414,-70,277,66,0.261799,-0.261799,0,-1.5,nan,0,0,0,-0.428335,-0.68873,0,0,0,0,-0.0266734,0.00251836,19043,0,0,0,0,13242
15872,-3.2133e-12,7.9515e-38,-1.55831e-06,-3.27827e-12,7.95103e-38,-3.40903e-12,-1.0662e-13,0,0,-3.08078,-0.18904,0.219774,-0.42876,-0.68869,-0.0264606,0.00249826,0,0.136777,-0.68904,279,-68,279,-68,414,-70,277,66,0.261799,-0.261799,0,-1.5,nan,0,0,0,-0.42876,-0.68869,0,0,0,0,-0.0264606,0.00249826,19043,0,0,0,0,13242
15907,-3.2133e-12,7.9515e-38,-1.55831e-06,-3.27827e-12,7.95103e-38,0,-1.0662e-13,0,0,-3.08078,-0.18904,0.219774,-0.429699,-0.688601,-0.0259861,0.00245347,0,0.136777,-0.68904,279,-68,279,-68,414,-70,277,66,0.261799,-0.261799,0,-1.5,nan,0,0,0,-0.429699,-0.688601,0,0,0,0,-0.0259861,0.00245347,19043,0,0,0,0,13242
15959,-3.2133e-12,7.9515e-38,-1.55831e-06,-3.27827e-12,7.95103e-38,-3.40903e-12,-1.06621e-13,0,0,-3.08078,-0.18904,0.219774,-0.430995,-0.688479,-0.0253259,0.00239113,0,0.136777,-0.68904,279,-68,279,-68,414,-70,277,66,0.261799,-0.261799,0,-1.5,nan,0,0,0,-0.430995,-0.688479,0,0,0,0,-0.0253259,0.00239113,19043,0,0,0,0,13242
16070,-3.2133e-12,7.9515e-38,-1.55831e-06,-3.27827e-12,7.95103e-38,0,-1.06621e-13,0,0,-3.08078,-0.18904,0.219774,-0.433684,-0.688225,-0.023913,0.00225774,0,0.136777,-0.68904,279,-68,279,-68,414,-70,277,66,0.261799,-0.261799,0,-1.5,nan,0,0,0,-0.433684,-0.688225,0,0,0,0,-0.023913,0.00225774,19043,0,0,0,0,13242
16162,-3.2133e-12,7.9515e-38,-1.55831e-06,-3.27827e-12,7.95103e-38,-3.40903e-12,-1.06621e-13,0,0,-3.08078,-0.18904,0.219774,-0.435792,-0.688026,-0.0228177,0.00215432,0,0.136777,-0.68904,279,-68,279,-68,414,-70,277,66,0.261799,-0.261799,0,-1.5,nan,0,0,0,-0.435792,-0.688026,0,0,0,0,-0.0228177,0.00215432,19043,0,0,0,0,13242
16179,-3.2133e-12,7.9515e-38,-1.55831e-06,-3.27827e-12,7.95103e-38,0,-1.06622e-13,0,0,-3.08078,-0.18904,0.219774,-0.436178,-0.68799,-0.0226243,0.00213606,0,0.136777,-0.68904,279,-68,279,-68,414,-70,277,66,0.261799,-0.261799,0,-1.5,nan,0,0,0,-0.436178,-0.68799,0,0,0,0,-0.0226243,0.00213606,19043,0,0,0,0,13242
16196,-3.2133e-12,7.9515e-38,-1.55831e-06,-3.27827e-12,7.95103e-38,-3.40903e-12,-1.06622e-13,0,0,-3.08078,-0.18904,0.219774,-0.43656,-0.687954,-0.0224325,0.00211796,0,0.136777,-0.68904,279,-68,279,-68,414,-70,277,66,0.261799,-0.261799,0,-1.5,nan,0,0,0,-0.43656,-0.687954,0,0,0,0,-0.0224325,0.00211796,19043,0,0,0,0,13242
16217,-3.2133e-12,7.9515e-38,-1.55831e-06,-3.27827e-12,7.95103e-38,0,-1.06622e-13,0,0,-3.08078,-0.18904,0.219774,-0.437028,-0.687909,-0.0221978,0.00209579,0,0.136777,-0.68904,279,-68,279,-68,414,-70,277,66,0.261799,-0.261799,0,-1.5,nan,0,0,0,-0.437028,-0.687909,0,0,0,0,-0.0221978,0.00209579,19043,0,0,0,0,13242
16320,-3.2133e-12,7.9515e-38,-1.55831e-06,-3.27827e-12,7.95103e-38,-3.40903e-12,-1.06622e-13,0,0,-3.01864,0.166221,0.152408,-0.439205,-0.687704,-0.0210589,0.00198827,0,0.208549,-0.333779,233,-67,233,-67,373,-65,232,70,0.261799,-0.261799,0,-1.5,nan,0,0,0,-0.439205,-0.687704,0,0,0,0,-0.0210589,0.00198827,19881,0,0,0,0,16312
16376,-3.2133e-12,7.9515e-38,-1.55831e-06,-3.27827e-12,7.95103e-38,0,-1.06623e-13,0,0,-3.01864,0.166221,0.152408,-0.440356,-0.687595,-0.0204717,0.00193282,0,0.208549,-0.333779,233,-67,233,-67,373,-65,232,70,0.261799,-0.261799,0,-1.5,nan,0,0,0,-0.440356,-0.687595,0,0,0,0,-0.0204717,0.00193282,19881,0,0,0,0,16312
16397,-3.2133e-12,7.9515e-38,-1.55831e-06,-3.27827e-12,7.95103e-38,-3.40903e-12,-1.06623e-13,0,0,-3.01864,0.166221,0.152408,-0.440783,-0.687555,-0.0202574,0.00191259,0,0.208549,-0.333779,233,-67,233,-67,373,-65,232,70,0.261799,-0.261799,0,-1.5,nan,0,0,0,-0.440783,-0.687555,0,0,0,0,-0.0202574,0.00191259,19881,0,0,0,0,16312
16500,-3.2133e-12,7.9515e-38,-1.55831e-06,-3.27827e-12,7.95103e-38,0,-1.06623e-13,0,0,-3.01864,0.166221,0.152408,-0.44277,-0.687367,-0.0192181,0.00181446,0,0.208549,-0.333779,233,-67,233,-67,373,-65,232,70,0.261799,-0.261799,0,-1.5,nan,0,0,0,-0.44277,-0.687367,0,0,0,0,-0.0192181,0.00181446,19881,0,0,0,0,16312
16567,-3.2133e-12,7.9515e-38,-1.55831e-06,-3.27827e-12,7.95103e-38,-3.40903e-12,-1.06623e-13,0,0,-3.01864,0.166221,0.152408,-0.44402,-0.687249,-0.0185769,0.00175393,0,0.208549,-0.333779,233,-67,233,-67,373,-65,232,70,0.261799,-0.261799,0,-1.5,nan,0,0,0,-0.44402,-0.687249,0,0,0,0,-0.0185769,0.00175393,19881,0,0,0,0,16312
16583,-3.2133e-12,7.9515e-38,-1.55831e-06,-3.27827e-12,7.95103e-38,0,-1.06624e-13,0,0,-3.01864,0.166221,0.152408,-0.444315,-0.687222,-0.0184287,0.00173994,0,0.208549,-0.333779,233,-67,233,-67,373,-65,232,70,0.261799,-0.261799,0,-1.5,nan,0,0,0,-0.444315,-0.687222,0,0,0,0,-0.0184287,0.00173994,19881,0,0,0,0,16312
16600,-3.2133e-12,7.9515e-38,-1.55831e-06,-3.27827e-12,7.95103e-38,-3.40903e-12,-1.06624e-13,0,0,-3.01864,0.166221,0.152408,-0.444627,-0.687192,-0.0182725,0.00172519,0,0.208549,-0.333779,233,-67,233,-67,373,-65,232,70,0.261799,-0.261799,0,-1.5,nan,0,0,0,-0.444627,-0.687192,0,0,0,0,-0.0182725,0.00172519,19881,0,0,0,0,16312
16621,-3.2133e-12,7.9515e-38,-1.55831e-06,-3.27827e-12,7.95103e-38,0,-1.06624e-13,0,0,-3.01864,0.166221,0.152408,-0.445008,-0.687156,-0.0180813,0.00170713,0,0.208549,-0.333779,233,-67,233,-67,373,-65,232,70,0.261799,-0.261799,0,-1.5,nan,0,0,0,-0.445008,-0.687156,0,0,0,0,-0.0180813,0.00170713,19881,0,0,0,0,16312
16730,-3.2133e-12,7.9515e-38,-1.55831e-06,-3.27827e-12,7.95103e-38,-3.40903e-12,-1.06625e-13,0,0,-3.01864,0.166221,0.152408,-0.446879,-0.68698,-0.0170996,0.00161445,0,0.208549,-0.333779,233,-67,233,-67,373,-65,232,70,0.261799,-0.261799,0,-1.5,nan,0,0,0,-0.446879,-0.68698,0,0,0,0,-0.0170996,0.00161445,19881,0,0,0,0,16312
16760,-3.2133e-12,7.9515e-38,-1.55831e-06,-3.27827e-12,7.95103e-38,0,-1.06625e-13,0,0,-3.01864,0.166221,0.152408,-0.447386,-0.686932,-0.016844,0.00159032,0,0.208549,-0.333779,233,-67,233,-67,373,-65,232,70,0.261799,-0.261799,0,-1.5,nan,0,0,0,-0.447386,-0.686932,0,0,0,0,-0.016844,0.00159032,19881,0,0,0,0,16312
16776,-3.2133e-12,7.9515e-38,-1.55831e-06,-3.27827e-12,7.95103e-38,-3.40903e-12,-1.06625e-13,0,0,-3.01864,0.166221,0.152408,-0.447654,-0.686906,-0.0167097,0.00157764,0,0.208549,-0.333779,233,-67,233,-67,373,-65,232,70,0.261799,-0.261799,0,-1.5,nan,0,0,0,-0.447654,-0.686906,0,0,0,0,-0.0167097,0.00157764,19881,0,0,0,0,16312
16793,-3.2133e-12,7.9515e-38,-1.55831e-06,-3.27827e-12,7.95103e-38,0,-1.06625e-13,0,0,-3.01864,0.166221,0.152408,-0.447937,-0.68688,-0.016568,0.00156426,0,0.208549,-0.333779,233,-67,233,-67,373,-65,232,70,0.261799,-0.261799,0,-1.5,nan,0,0,0,-0.447937,-0.68688,0,0,0,0,-0.016568,0.00156426,19881,0,0,0,0,16312
16814,-3.2133e-12,7.9515e-38,-1.55831e-06,-3.27827e-12,7.95103e-38,-3.40903e-12,-1.06626e-13,0,0,-3.01864,0.166221,0.152408,-0.448282,-0.686847,-0.0163946,0.00154789,0,0.208549,-0.333779,233,-67,233,-67,373,-65,232,70,0.261799,-0.261799,0,-1.5,nan,0,0,0,-0.448282,-0.686847,0,0,0,0,-0.0163946,0.00154789,19881,0,0,0,0,16312
16851,-3.2133e-12,7.9515e-38,-1.55831e-06,-3.27827e-12,7.95103e-38,0,-1.06626e-13,0,0,-3.01864,0.166221,0.152408,-0.448879,-0.686791,-0.0160924,0.00151935,0,0.208549,-0.333779,233,-67,233,-67,373,-65,232,70,0.261799,-0.261799,0,-1.5,nan,0,0,0,-0.448879,-0.686791,0,0,0,0,-0.0160924,0.00151935,19881,0,0,0,0,16312
16868,-3.2133e-12,7.9515e-38,-1.55831e-06,-3.27827e-12,7.95103e-38,-3.40903e-12,-1.06626e-13,0,0,-3.01864,0.166221,0.152408,-0.449151,-0.686765,-0.015956,0.00150647,0,0.208549,-0.333779,233,-67,233,-67,373,-65,232,70,0.261799,-0.261799,0,-1.5,nan,0,0,0,-0.449151,-0.686765,0,0,0,0,-0.015956,0.00150647,19881,0,0,0,0,16312
16889,-3.2133e-12,7.9515e-38,-1.55831e-06,-3.27827e-12,7.95103e-38,0,-1.06626e-13,0,0,-3.01864,0.166221,0.152408,-0.449484,-0.686734,-0.0157889,0.0014907,0,0.208549,-0.333779,233,-67,233,-67,373,-65,232,70,0.261799,-0.261799,0,-1.5,nan,0,0,0,-0.449484,-0.686734,0,0,0,0,-0.0157889,0.0014907,19881,0,0,0,0,16312
16906,-3.2133e-12,7.9515e-38,-1.55831e-06,-3.27827e-12,7.95103e-38,-3.40903e-12,-1.06627e-13,0,0,-3.09678,0.143918,0.400088,-0.449751,-0.686708,-0.0156551,0.00147807,0,0.11823,-0.356082,234,-98,234,-98,374,-74,237,43,0.261799,-0.261799,0,-1.5,nan,0,0,0,-0.449751,-0.686708,0,0,0,0,-0.0156551,0.00147807,19880,0,0,0,0,16897
16924,-3.2133e-12,7.9515e-38,-1.55831e-06,-3.27827e-12,7.95103e-38,0,-1.06627e-13,0,0,-3.2128,0.15737,0.497028,-0.450031,-0.686682,-0.0155146,0.00146481,0,-0.0169854,-0.34263,235,-83,235,-83,374,-81,235,34,0.261799,-0.261799,0,-1.5,nan,0,0,0,-0.450031,-0.686682,0,0,0,0,-0.0155146,0.00146481,16680,0,0,0,0,16922
16941,-3.2133e-12,7.9515e-38,-1.55831e-06,-3.27827e-12,7.95103e-38,-3.40903e-12,-1.06627e-13,0,0,-3.2128,0.15737,0.497028,-0.450293,-0.686657,-0.0153831,0.00145239,0,-0.0169854,-0.34263,235,-83,235,-83,374,-81,235,34,0.261799,-0.261799,0,-1.5,nan,0,0,0,-0.450293,-0.686657,0,0,0,0,-0.0153831,0.00145239,16680,0,0,0,0,16922
16958,-3.2133e-12,7.9515e-38,-1.55831e-06,-3.27827e-12,7.95103e-38,0,-1.06628e-13,0,0,-3.02983,0.169056,0.462883,-0.450553,-0.686633,-0.0152527,0.00144008,0,0.195654,-0.330944,231,-102,231,-102,372,-102,232,31,0.261799,-0.261799,0,-1.5,nan,0,0,0,-0.450553,-0.686633,0,0,0,0,-0.0152527,0.00144008,19317,0,0,0,0,16958
16982,-3.2133e-12,7.9515e-38,-1.55831e-06,-3.27827e-12,7.95103e-38,-3.40903e-12,-1.06631e-13,0,0,-3.02983,0.169056,0.462883,-0.450916,-0.686598,-0.0150703,0.00142285,0,0.195654,-0.330944,231,-102,231,-102,372,-102,232,31,0.261799,-0.261799,0,-1.5,nan,0,0,0,-0.450916,-0.686598,0,0,0,0,-0.0150703,0.00142285,19317,0,0,0,0,16958
17000,-3.2133e-12,7.9515e-38,-1.55831e-06,-3.27827e-12,7.95103e-38,0,-1.06632e-13,0,0,-3.02983,0.169056,0.462883,-0.451171,-0.686574,-0.0149425,0.00141079,0,0.195654,-0.330944,231,-102,231,-102,372,-102,232,31,0.261799,-0.261799,0,-1.5,nan,0,0,0,-0.451171,-0.686574,0,0,0,0,-0.0149425,0.00141079,19317,0,0,0,0,16991
17046,-3.2133e-12,7.9515e-38,-1.55831e-06,-3.27827e-12,7.95103e-38,-3.40903e-12,-1.06632e-13,0,0,-3.00695,0.170028,0.420209,-0.451859,-0.68651,-0.0145927,0.00137776,0,0.222005,-0.329972,230,-106,230,-106,371,-94,232,37,0.261799,-0.261799,0,-1.5,nan,0,0,0,-0.451859,-0.68651,0,0,0,0,-0.0145927,0.00137776,20304,0,0,0,0,17038
17067,-3.2133e-12,7.9515e-38,-1.55831e-06,-3.27827e-12,7.95103e-38,0,-1.06632e-13,0,0,-3.19822,0.116329,0.487146,-0.452163,-0.686481,-0.0144399,0.00136334,0,8.44002e-05,-0.383671,238,-83,238,-83,377,-82,241,34,0.261799,-0.261799,0,-1.5,nan,0,0,0,-0.452163,-0.686481,0,0,0,0,-0.0144399,0.00136334,16819,0,0,0,0,17061
17087,-3.2133e-12,7.9515e-38,-1.55831e-06,-3.27827e-12,7.95103e-38,-3.40903e-12,-1.06633e-13,0,0,-3.19822,0.116329,0.487146,-0.45245,-0.686454,-0.014296,0.00134975,0,8.44002e-05,-0.383671,238,-83,238,-83,377,-82,241,34,0.261799,-0.261799,0,-1.5,nan,0,0,0,-0.45245,-0.686454,0,0,0,0,-0.014296,0.00134975,16819,0,0,0,0,17061
17108,-3.2133e-12,7.9515e-38,-1.55831e-06,-3.27827e-12,7.95103e-38,0,-1.06633e-13,0,0,-3.19822,0.116329,0.487146,-0.452748,-0.686426,-0.0141463,0.00133562,0,8.44002e-05,-0.383671,238,-83,238,-83,377,-82,241,34,0.261799,-0.261799,0,-1.5,nan,0,0,0,-0.452748,-0.686426,0,0,0,0,-0.0141463,0.00133562,16819,0,0,0,0,17061
17242,-3.2133e-12,7.9515e-38,-1.55831e-06,-3.27827e-12,7.95103e-38,-3.40903e-12,-1.06633e-13,0,0,-3.05901,0.130006,0.402375,-0.454531,-0.686257,-0.013205,0.00124675,0,0.161964,-0.369994,238,-98,238,-98,363,-96,245,46,0.261799,-0.261799,0,-1.5,nan,0,0,0,0.138122,-0.397836,0,0,0,0,-0.200357,-0.233966,19856,0.614924,0.316412,-0.187152,-0.235212,17126
17262,-3.2133e-12,7.9515e-38,-1.55831e-06,-3.27827e-12,7.95103e-38,0,-1.06633e-13,0,0,-3.05901,0.130006,0.402375,-0.454793,-0.686233,-0.0130734,0.00123432,0,0.161964,-0.369994,238,-98,238,-98,363,-96,245,46,0.261799,-0.261799,0,-1.5,nan,0,0,0,0.134117,-0.402515,0,0,0,0,-0.200226,-0.233978,19856,0.614924,0.316412,-0.187152,-0.235212,17126
17293,-3.2133e-12,7.9515e-38,-1.55831e-06,-3.27827e-12,7.95103e-38,-3.40903e-12,-1.06634e-13,0,0,-3.05901,0.130006,0.402375,-0.455193,-0.686195,-0.0128715,0.00121526,0,0.161964,-0.369994,238,-98,238,-98,363,-96,245,46,0.261799,-0.261799,0,-1.5,nan,0,0,0,0.127914,-0.409769,0,0,0,0,-0.200024,-0.233997,19856,0.614924,0.316412,-0.187152,-0.235212,17126
17306,-3.2133e-12,7.9515e-38,-1.55831e-06,-3.27827e-12,7.95103e-38,0,-1.06634e-13,0,0,-3.05901,0.130006,0.402375,-0.45536,-0.686179,-0.0127881,0.00120738,0,0.161964,-0.369994,238,-98,238,-98,363,-96,245,46,0.261799,-0.261799,0,-1.5,nan,0,0,0,0.125315,-0.412811,0,0,0,0,-0.19994,-0.234005,19856,0.614924,0.316412,-0.187152,-0.235212,17126
17327,-3.2133e-12,7.9515e-38,-1.55831e-06,-3.27827e-12,7.95103e-38,-3.40903e-12,-1.06634e-13,0,0,-3.05901,0.130006,0.402375,-0.455614,-0.686155,-0.0126606,0.00119534,0,0.161964,-0.369994,238,-98,238,-98,363,-96,245,46,0.261799,-0.261799,0,-1.5,nan,0,0,0,0.121318,-0.417491,0,0,0,0,-0.199813,-0.234017,19856,0.614924,0.316412,-0.187152,-0.235212,17126
17479,-3.2133e-12,7.9515e-38,-1.55831e-06,-3.27827e-12,7.95103e-38,0,-1.06634e-13,0,0,-3.13166,0.121619,0.236853,-0.4574,-0.685986,-0.0117021,0.00110485,0,0.0777299,-0.378381,238,-72,238,-72,374,-57,242,63,0.261799,-0.261799,0,-1.5,nan,0,0,0,0.0295907,-0.397898,0,0,0,0,-0.316662,-0.128404,19312,0.533344,0.307774,-0.30496,-0.129508,17357
17521,-3.2133e-12,7.9515e-38,-1.55831e-06,-3.27827e-12,7.95103e-38,-3.40903e-12,-1.06635e-13,0,0,-3.13166,0.121619,0.236853,-0.457894,-0.68594,-0.0114514,0.00108118,0,0.0777299,-0.378381,238,-72,238,-72,374,-57,242,63,0.261799,-0.261799,0,-1.5,nan,0,0,0,0.0159835,-0.40342,0,0,0,0,-0.316411,-0.128427,19312,0.533344,0.307774,-0.30496,-0.129508,17357
17541,-3.2133e-12,7.9515e-38,-1.55831e-06,-3.27827e-12,7.95103e-38,0,-1.06635e-13,0,0,-3.13166,0.121619,0.236853,-0.45811,-0.685919,-0.0113429,0.00107093,0,0.0777299,-0.378381,238,-72,238,-72,374,-57,242,63,0.261799,-0.261799,0,-1.5,nan,0,0,0,0.00997344,-0.40586,0,0,0,0,-0.316303,-0.128437,19312,0.533344,0.307774,-0.30496,-0.129508,17357
17690,-3.2133e-12,7.9515e-38,-1.55831e-06,-3.27827e-12,7.95103e-38,-3.40903e-12,-1.06635e-13,0,0,-3.10542,0.121145,0.213244,-0.459691,-0.68577,-0.0104959,0.000990962,0,0.108207,-0.378855,238,-70,238,-70,376,-57,240,65,0.261799,-0.261799,0,-1.5,nan,0,0,0,0.0851826,-0.394001,0,0,0,0,-0.143368,-0.0705877,19320,0.564804,0.302506,-0.132873,-0.0715787,17572
17718,-3.2133e-12,7.9515e-38,-1.55831e-06,-3.27827e-12,7.95103e-38,0,-1.06636e-13,0,0,-3.11106,0.127594,0.216541,-0.459982,-0.685743,-0.0103494,0.000977134,0,0.101665,-0.372406,238,-70,238,-70,376,-57,239,65,0.261799,-0.261799,0,-1.5,nan,0,0,0,0.0811714,-0.390725,0,0,0,0,-0.143222,-0.0690818,19320,0.544874,0.296979,-0.132873,-0.070059,17701
17734,-3.2133e-12,7.9515e-38,-1.55831e-06,-3.27827e-12,7.95103e-38,-3.40903e-12,-1.06636e-13,0,0,-3.11106,0.127594,0.216541,-0.460147,-0.685727,-0.0102668,0.000969338,0,0.101665,-0.372406,238,-70,238,-70,376,-57,239,65,0.261799,-0.261799,0,-1.5,nan,0,0,0,0.0788807,-0.39183,0,0,0,0,-0.143139,-0.0690896,19320,0.544874,0.296979,-0.132873,-0.070059,17701
17874,-3.2133e-12,7.9515e-38,-1.55831e-06,-3.27827e-12,7.95103e-38,0,-1.06636e-13,0,0,-3.14374,0.126926,0.235964,-0.461498,-0.6856,-0.00955508,0.000902138,0,0.0636656,-0.373074,241,-70,241,-70,374,-57,239,65,0.261799,-0.261799,0,-1.5,nan,0,0,0,0.0443197,-0.381372,0,0,0,0,-0.162028,-0.0402637,18900,0.524114,0.309168,-0.152473,-0.0411659,17756
17900,-3.2133e-12,7.9515e-38,-1.55831e-06,-3.27827e-12,7.95103e-38,-3.40903e-12,-1.06636e-13,0,0,-3.15874,0.114515,0.228784,-0.461744,-0.685576,-0.00943142,0.000890463,0,0.0461895,-0.385485,242,-67,242,-67,376,-53,240,65,0.261799,-0.261799,0,-1.5,nan,0,0,0,0.0451773,-0.385617,0,0,0,0,-0.154806,-0.0447595,18768,0.508375,0.300415,-0.145374,-0.0456499,17892
17914,-3.2133e-12,7.9515e-38,-1.55831e-06,-3.27827e-12,7.95103e-38,0,-1.06637e-13,0,0,-3.15874,0.114515,0.228784,-0.461876,-0.685564,-0.00936558,0.000884246,0,0.0461895,-0.385485,242,-67,242,-67,376,-53,240,65,0.261799,-0.261799,0,-1.5,nan,0,0,0,0.0430106,-0.386244,0,0,0,0,-0.15474,-0.0447657,18768,0.508375,0.300415,-0.145374,-0.0456499,17892
17925,-3.2133e-12,7.9515e-38,-1.55831e-06,-3.27827e-12,7.95103e-38,-3.40903e-12,-1.06637e-13,0,0,-3.15874,0.114515,0.228784,-0.461978,-0.685554,-0.00931418,0.000879394,0,0.0461895,-0.385485,242,-67,242,-67,376,-53,240,65,0.261799,-0.261799,0,-1.5,nan,0,0,0,0.0413089,-0.386736,0,0,0,0,-0.154689,-0.0447705,18768,0.508375,0.300415,-0.145374,-0.0456499,17892
17946,-3.2133e-12,7.9515e-38,-1.55831e-06,-3.27827e-12,7.95103e-38,0,-1.06637e-13,0,0,-3.15874,0.114515,0.228784,-0.462173,-0.685536,-0.00921668,0.000870188,0,0.0461895,-0.385485,242,-67,242,-67,376,-53,240,65,0.261799,-0.261799,0,-1.5,nan,0,0,0,0.038062,-0.387677,0,0,0,0,-0.154591,-0.0447797,18768,0.508375,0.300415,-0.145374,-0.0456499,17892
17964,-3.2133e-12,7.9515e-38,-1.55831e-06,-3.27827e-12,7.95103e-38,-3.40903e-12,-1.06637e-13,0,0,-3.15874,0.114515,0.228784,-0.462328,-0.685521,-0.00913856,0.000862812,0,0.0461895,-0.385485,242,-67,242,-67,376,-53,240,65,0.261799,-0.261799,0,-1.5,nan,0,0,0,0.0354349,-0.388438,0,0,0,0,-0.154513,-0.0447871,18768,0.508375,0.300415,-0.145374,-0.0456499,17892
17980,-3.2133e-12,7.9515e-38,-1.55831e-06,-3.27827e-12,7.95103e-38,0,-1.06638e-13,0,0,-3.15874,0.114515,0.228784,-0.462483,-0.685506,-0.0090611,0.000855499,0,0.0461895,-0.385485,242,-67,242,-67,376,-53,240,65,0.261799,-0.261799,0,-1.5,nan,0,0,0,0.0328092,-0.389199,0,0,0,0,-0.154436,-0.0447944,18768,0.508375,0.300415,-0.145374,-0.0456499,17892
18020,-3.2133e-12,7.9515e-38,-1.55831e-06,-3.27827e-12,7.95103e-38,-3.40903e-12,-1.06638e-13,0,0,-3.15874,0.114515,0.228784,-0.462839,-0.685473,-0.00888058,0.000838455,0,0.0461895,-0.385485,242,-67,242,-67,376,-53,240,65,0.261799,-0.261799,0,-1.5,nan,0,0,0,0.0266376,-0.390992,0,0,0,0,-0.154255,-0.0448115,18768,0.508375,0.300415,-0.145374,-0.0456499,17892
18037,-3.2133e-12,7.9515e-38,-1.55831e-06,-3.27827e-12,7.95103e-38,0,-1.06638e-13,0,0,-3.15874,0.114515,0.228784,-0.462981,-0.685459,-0.00880973,0.000831766,0,0.0461895,-0.385485,242,-67,242,-67,376,-53,240,65,0.261799,-0.261799,0,-1.5,nan,0,0,0,0.0241703,-0.391709,0,0,0,0,-0.154184,-0.0448182,18768,0.508375,0.300415,-0.145374,-0.0456499,17892
18087,-3.2133e-12,7.9515e-38,-1.55831e-06,-3.27827e-12,7.95103e-38,-3.40903e-12,-1.06638e-13,0,0,-3.15874,0.114515,0.228784,-0.46342,-0.685418,-0.00858589,0.000810632,0,0.0461895,-0.385485,242,-67,242,-67,376,-53,240,65,0.261799,-0.261799,0,-1.5,nan,0,0,0,0.0163168,-0.393995,0,0,0,0,-0.15396,-0.0448393,18768,0.508375,0.300415,-0.145374,-0.0456499,17892
18109,-3.2133e-12,7.9515e-38,-1.55831e-06,-3.27827e-12,7.95103e-38,0,-1.06639e-13,0,0,-3.15874,0.114515,0.228784,-0.463608,-0.6854,-0.00849176,0.000801745,0,0.0461895,-0.385485,242,-67,242,-67,376,-53,240,65,0.261799,-0.261799,0,-1.5,nan,0,0,0,0.0129312,-0.394982,0,0,0,0,-0.153866,-0.0448482,18768,0.508375,0.300415,-0.145374,-0.0456499,17892
18126,-3.2133e-12,7.9515e-38,-1.55831e-06,-3.27827e-12,7.95103e-38,-3.40903e-12,-1.06639e-13,0,0,-3.15874,0.114515,0.228784,-0.463751,-0.685387,-0.00841978,0.000794949,0,0.0461895,-0.385485,242,-67,242,-67,376,-53,240,65,0.261799,-0.261799,0,-1.5,nan,0,0,0,0.0103164,-0.395744,0,0,0,0,-0.153794,-0.044855,18768,0.508375,0.300415,-0.145374,-0.0456499,17892
18146,-3.2133e-12,7.9515e-38,-1.55831e-06,-3.27827e-12,7.95103e-38,0,-1.06639e-13,0,0,-3.15874,0.114515,0.228784,-0.463918,-0.685371,-0.00833584,0.000787024,0,0.0461895,-0.385485,242,-67,242,-67,376,-53,240,65,0.261799,-0.261799,0,-1.5,nan,0,0,0,0.00724179,-0.396642,0,0,0,0,-0.15371,-0.0448629,18768,0.508375,0.300415,-0.145374,-0.0456499,17892
18168,-3.2133e-12,7.9515e-38,-1.55831e-06,-3.27827e-12,7.95103e-38,-3.40903e-12,-1.0664e-13,0,0,-3.15874,0.114515,0.228784,-0.4641,-0.685354,-0.00824443,0.000778393,0,0.0461895,-0.385485,242,-67,242,-67,376,-53,240,65,0.261799,-0.261799,0,-1.5,nan,0,0,0,0.00386173,-0.397629,0,0,0,0,-0.153619,-0.0448715,18768,0.508375,0.300415,-0.145374,-0.0456499,17892
18185,-3.2133e-12,7.9515e-38,-1.55831e-06,-3.27827e-12,7.95103e-38,0,-1.0664e-13,0,0,-3.15874,0.114515,0.228784,-0.46424,-0.685341,-0.00817456,0.000771797,0,0.0461895,-0.385485,242,-67,242,-67,376,-53,240,65,0.261799,-0.261799,0,-1.5,nan,0,0,0,0.00125095,-0.398392,0,0,0,0,-0.153549,-0.0448781,18768,0.508375,0.300415,-0.145374,-0.0456499,17892
18199,-3.2133e-12,7.9515e-38,-1.55831e-06,-3.27827e-12,7.95103e-38,-3.40903e-12,-1.0664e-13,0,0,-3.15874,0.114515,0.228784,-0.464354,-0.68533,-0.00811748,0.000766408,0,0.0461895,-0.385485,242,-67,242,-67,376,-53,240,65,0.261799,-0.261799,0,-1.5,nan,0,0,0,-0.000898084,-0.39902,0,0,0,0,-0.153492,-0.0448835,18768,0.508375,0.300415,-0.145374,-0.0456499,17892
18217,-3.2133e-12,7.9515e-38,-1.55831e-06,-3.27827e-12,7.95103e-38,0,-1.0664e-13,0,0,-3.15874,0.114515,0.228784,-0.464499,-0.685316,-0.00804464,0.00075953,0,0.0461895,-0.385485,242,-67,242,-67,376,-53,240,65,0.261799,-0.261799,0,-1.5,nan,0,0,0,-0.00365997,-0.399828,0,0,0,0,-0.153419,-0.0448904,18768,0.508375,0.300415,-0.145374,-0.0456499,17892
18234,-3.2133e-12,7.9515e-38,-1.55831e-06,-3.27827e-12,7.95103e-38,-3.40903e-12,-1.06641e-13,0,0,-3.15874,0.114515,0.228784,-0.464635,-0.685303,-0.00797645,0.000753092,0,0.0461895,-0.385485,242,-67,242,-67,376,-53,240,65,0.261799,-0.261799,0,-1.5,nan,0,0,0,-0.00626719,-0.400591,0,0,0,0,-0.153351,-0.0448968,18768,0.508375,0.300415,-0.145374,-0.0456499,17892
18273,-3.2133e-12,7.9515e-38,-1.55831e-06,-3.27827e-12,7.95103e-38,0,-1.06641e-13,0,0,-3.15874,0.114515,0.228784,-0.464941,-0.685274,-0.00782145,0.000738458,0,0.0461895,-0.385485,242,-67,242,-67,376,-53,240,65,0.261799,-0.261799,0,-1.5,nan,0,0,0,-0.0122428,-0.402342,0,0,0,0,-0.153196,-0.0449115,18768,0.508375,0.300415,-0.145374,-0.0456499,17892
18294,-3.2133e-12,7.9515e-38,-1.55831e-06,-3.27827e-12,7.95103e-38,-3.40903e-12,-1.06641e-13,0,0,-3.15874,0.114515,0.228784,-0.465104,-0.685259,-0.00773958,0.000730728,0,0.0461895,-0.385485,242,-67,242,-67,376,-53,240,65,0.261799,-0.261799,0,-1.5,nan,0,0,0,-0.0154585,-0.403286,0,0,0,0,-0.153114,-0.0449192,18768,0.508375,0.300415,-0.145374,-0.0456499,17892
18311,-3.2133e-12,7.9515e-38,-1.55831e-06,-3.27827e-12,7.95103e-38,0,-1.06641e-13,0,0,-3.15874,0.114515,0.228784,-0.465235,-0.685246,-0.00767397,0.000724534,0,0.0461895,-0.385485,242,-67,242,-67,376,-53,240,65,0.261799,-0.261799,0,-1.5,nan,0,0,0,-0.0180606,-0.404049,0,0,0,0,-0.153048,-0.0449254,18768,0.508375,0.300415,-0.145374,-0.0456499,17892
18331,-3.2133e-12,7.9515e-38,-1.55831e-06,-3.27827e-12,7.95103e-38,-3.40903e-12,-1.06642e-13,0,0,-3.15874,0.114515,0.228784,-0.465387,-0.685232,-0.00759747,0.000717311,0,0.0461895,-0.385485,242,-67,242,-67,376,-53,240,65,0.261799,-0.261799,0,-1.5,nan,0,0,0,-0.0211204,-0.404948,0,0,0,0,-0.152972,-0.0449326,18768,0.508375,0.300415,-0.145374,-0.0456499,17892
18348,-3.2133e-12,7.9515e-38,-1.55831e-06,-3.27827e-12,7.95103e-38,0,-1.06642e-13,0,0,-3.15874,0.114515,0.228784,-0.465516,-0.68522,-0.00753308,0.000711232,0,0.0461895,-0.385485,242,-67,242,-67,376,-53,240,65,0.261799,-0.261799,0,-1.5,nan,0,0,0,-0.0237203,-0.405712,0,0,0,0,-0.152908,-0.0449387,18768,0.508375,0.300415,-0.145374,-0.0456499,17892
18396,-3.2133e-12,7.9515e-38,-1.55831e-06,-3.27827e-12,7.95103e-38,-3.40903e-12,-1.06642e-13,0,0,-3.15874,0.114515,0.228784,-0.0310517,-0.407869,-0.152437,-0.0448644,0,0.0461895,-0.385485,242,-67,242,-67,376,-53,240,65,0.261799,-0.261799,0,-1.5,nan,0,0,0,-0.0310517,-0.407869,0,0,0,0,-0.152437,-0.0448644,18768,0,0,0,0,17892
18413,-3.2133e-12,7.9515e-38,-1.55831e-06,-3.27827e-12,7.95103e-38,0,-1.06643e-13,0,0,-3.15874,0.114515,0.228784,-0.0336289,-0.408628,-0.151145,-0.0444842,0,0.0461895,-0.385485,242,-67,242,-67,376,-53,240,65,0.261799,-0.261799,0,-1.5,nan,0,0,0,-0.0336289,-0.408628,0,0,0,0,-0.151145,-0.0444842,18768,0,0,0,0,17892
18433,-3.2133e-12,7.9515e-38,-1.55831e-06,-3.27827e-12,7.95103e-38,-3.40903e-12,-1.06643e-13,0,0,-3.1016,0.076075,0.172746,-0.0366313,-0.409511,-0.149639,-0.0440408,0,0.112642,-0.423925,248,-61,248,-61,379,-62,245,72,0.261799,-0.261799,0,-1.5,nan,0,0,0,-0.0366313,-0.409511,0,0,0,0,-0.149639,-0.0440408,18626,0,0,0,0,18424
18471,-3.2133e-12,7.9515e-38,-1.55831e-06,-3.27827e-12,7.95103e-38,0,-1.06643e-13,0,0,-3.1016,0.076075,0.172746,-0.0422294,-0.411159,-0.146805,-0.043207,0,0.112642,-0.423925,248,-61,248,-61,379,-62,245,72,0.261799,-0.261799,0,-1.5,nan,0,0,0,-0.0422294,-0.411159,0,0,0,0,-0.146805,-0.043207,18626,0,0,0,0,18424
18498,-3.2133e-12,7.9515e-38,-1.55831e-06,-3.27827e-12,7.95103e-38,-3.40903e-12,-1.06643e-13,0,0,-3.1016,0.076075,0.172746,-0.0461537,-0.412314,-0.14483,-0.0426257,0,0.112642,-0.423925,248,-61,248,-61,379,-62,245,72,0.261799,-0.261799,0,-1.5,nan,0,0,0,-0.0461537,-0.412314,0,0,0,0,-0.14483,-0.0426257,18626,0,0,0,0,18424
18516,-3.2133e-12,7.9515e-38,-1.55831e-06,-3.27827e-12,7.95103e-38,0,-1.06644e-13,0,0,-3.1016,0.076075,0.172746,-0.0486019,-0.413034,-0.143603,-0.0422644,0,0.112642,-0.423925,248,-61,248,-61,379,-62,245,72,0.261799,-0.261799,0,-1.5,nan,0,0,0,-0.0486019,-0.413034,0,0,0,0,-0.143603,-0.0422644,18626,0,0,0,0,18424
18532,-3.2133e-12,7.9515e-38,-1.55831e-06,-3.27827e-12,7.95103e-38,-3.40903e-12,-1.06644e-13,0,0,-3.1016,0.076075,0.172746,-0.0510293,-0.413749,-0.142386,-0.0419062,0,0.112642,-0.423925,248,-61,248,-61,379,-62,245,72,0.261799,-0.261799,0,-1.5,nan,0,0,0,-0.0510293,-0.413749,0,0,0,0,-0.142386,-0.0419062,18626,0,0,0,0,18424
18549,-3.2133e-12,7.9515e-38,-1.55831e-06,-3.27827e-12,7.95103e-38,0,-1.06644e-13,0,0,-3.1016,0.076075,0.172746,-0.0534361,-0.414457,-0.141179,-0.041551,0,0.112642,-0.423925,248,-61,248,-61,379,-62,245,72,0.261799,-0.261799,0,-1.5,nan,0,0,0,-0.0534361,-0.414457,0,0,0,0,-0.141179,-0.041551,18626,0,0,0,0,18424
18570,-3.2133e-12,7.9515e-38,-1.55831e-06,-3.27827e-12,7.95103e-38,-3.40903e-12,-1.06644e-13,0,0,-3.1016,0.076075,0.172746,-0.0563788,-0.415323,-0.139701,-0.041116,0,0.112642,-0.423925,248,-61,248,-61,379,-62,245,72,0.261799,-0.261799,0,-1.5,nan,0,0,0,-0.0563788,-0.415323,0,0,0,0,-0.139701,-0.041116,18626,0,0,0,0,18424
18590,-3.2133e-12,7.9515e-38,-1.55831e-06,-3.27827e-12,7.95103e-38,0,-1.06645e-13,0,0,-3.1016,0.076075,0.172746,-0.0591539,-0.41614,-0.138308,-0.0407062,0,0.112642,-0.423925,248,-61,248,-61,379,-62,245,72,0.261799,-0.261799,0,-1.5,nan,0,0,0,-0.0591539,-0.41614,0,0,0,0,-0.138308,-0.0407062,18626,0,0,0,0,18424
