timestamp,A_x,A_y,A_z,P,Q,R,Phi,Theta,Psi,poseX,poseY,poseZ,state_X,state_Y,state_Z,state_VzB,state_Bx,state_By,state_Bz,p1_x,p1_y,p2_x,p2_y,p3_x,p3_y,p4_x,p4_y,roll,pitch,yaw,alt,targetHeading,highLevelState,lowLevelState,gateNumber,filtered_x,filtered_y,x_OT,y_OT,vx_OT,vy_OT
10,0,0,0,0,0,0,0,0,0,0,0,0,0,0,0,0,0,0,0,0,0,0,0,0,0,0,0,0,-0.261799,0.00779127,-1.5,-nan,0,0,3,0,0,0,0,0,0
20,0,0,0,0,0,0,0,0,0,0,0,0,0,0,0,0,0,0,0,0,0,0,0,0,0,0,0,0,-0.261799,0.00651725,-1.5,-nan,0,0,3,0,0,0,0,0,0
30,-3.21068e-12,2.67461e-38,-1.57228e-06,-3.27738e-12,2.67437e-38,-3.40903e-12,-1.13703e-13,0,0,0,0,0,0,0,0,0,0,0,0,0,0,0,0,0,0,0,0,0,-0.261799,-0.00179581,-1.5,-nan,0,0,3,0,0,0,0,0,0
40,-3.21068e-12,2.67461e-38,-1.57228e-06,-3.27738e-12,2.67437e-38,0,-1.13703e-13,0,0,0,0,0,0,0,0,0,0,0,0,0,0,0,0,0,0,0,0,0,-0.261799,-0.00174606,-1.5,-nan,0,0,3,0,0,0,0,0,0
50,-3.21068e-12,2.67461e-38,-1.57228e-06,-3.27738e-12,2.67437e-38,-3.40903e-12,-1.13704e-13,0,0,0,0,0,0,0,0,0,0,0,0,0,0,0,0,0,0,0,0,0,-0.261799,-0.00168054,-1.5,-nan,0,0,3,0,0,0,0,0,0
60,-3.21068e-12,2.67461e-38,-1.57228e-06,-3.27738e-12,2.67437e-38,0,-1.13704e-13,0,0,0,0,0,0,0,0,0,0,0,0,0,0,0,0,0,0,0,0,0,-0.261799,-0.00161418,-1.5,-nan,0,0,3,0,0,0,0,0,0
70,-3.21068e-12,2.67461e-38,-1.57228e-06,-3.27738e-12,2.67437e-38,-3.40903e-12,-1.13705e-13,0,0,0,0,0,0,0,0,0,0,0,0,0,0,0,0,0,0,0,0,0,-0.261799,-0.00144264,-1.5,-nan,0,0,3,0,0,0,0,0,0
80,-3.21068e-12,2.67461e-38,-1.57228e-06,-3.27738e-12,2.67437e-38,0,-1.13705e-13,0,0,0,0,0,0,0,0,0,0,0,0,0,0,0,0,0,0,0,0,0,-0.261799,-0.00138563,-1.5,-nan,0,0,3,0,0,0,0,0,0
90,-3.21068e-12,2.67461e-38,-1.57228e-06,-3.27738e-12,2.67437e-38,-3.40903e-12,-1.13706e-13,0,0,0,0,0,0,0,0,0,0,0,0,0,0,0,0,0,0,0,0,0,-0.261799,-0.00131723,-1.5,-nan,0,0,3,0,0,0,0,0,0
100,-3.21068e-12,2.67461e-38,-1.57228e-06,-3.27738e-12,2.67437e-38,0,-1.13706e-13,0,0,0,0,0,0,0,0,0,0,0,0,0,0,0,0,0,0,0,0,0,-0.261799,-0.00126263,-1.5,-nan,0,0,3,0,0,0,0,0,0
110,-3.21068e-12,2.67461e-38,-1.57228e-06,-3.27738e-12,2.67437e-38,-3.40903e-12,-1.13707e-13,0,0,0,0,0,0,0,0,0,0,0,0,0,0,0,0,0,0,0,0,0,-0.261799,-0.00120781,-1.5,-nan,0,0,3,0,0,0,0,0,0
120,-3.21068e-12,2.67461e-38,-1.57228e-06,-3.27738e-12,2.67437e-38,0,-1.13708e-13,0,0,0,0,0,0,0,0,0,0,0,0,0,0,0,0,0,0,0,0,0,-0.261799,-0.00116007,-1.5,-nan,0,0,3,0,0,0,0,0,0
130,-3.21068e-12,2.67461e-38,-1.57228e-06,-3.27738e-12,2.67437e-38,-3.40903e-12,-1.13708e-13,0,0,0,0,0,0,0,0,0,0,0,0,0,0,0,0,0,0,0,0,0,-0.261799,-0.00110743,-1.5,-nan,0,0,3,0,0,0,0,0,0
140,-3.21068e-12,2.67461e-38,-1.57228e-06,-3.27738e-12,2.67437e-38,0,-1.13709e-13,0,0,0,0,0,0,0,0,0,0,0,0,0,0,0,0,0,0,0,0,0,-0.261799,-0.00106584,-1.5,-nan,0,0,3,0,0,0,0,0,0
150,-3.21068e-12,2.67461e-38,-1.57228e-06,-3.27738e-12,2.67437e-38,-3.40903e-12,-1.13709e-13,0,0,0,0,0,0,0,0,0,0,0,0,0,0,0,0,0,0,0,0,0,-0.261799,-0.00101952,-1.5,-nan,0,0,3,0,0,0,0,0,0
160,-3.21068e-12,2.67461e-38,-1.57228e-06,-3.27738e-12,2.67437e-38,0,-1.1371e-13,0,0,0,0,0,0,0,0,0,0,0,0,0,0,0,0,0,0,0,0,0,-0.261799,-0.00097726,-1.5,-nan,0,0,3,0,0,0,0,0,0
170,-3.21068e-12,2.67461e-38,-1.57228e-06,-3.27738e-12,2.67437e-38,-3.40903e-12,-1.1371e-13,0,0,0,0,0,0,0,0,0,0,0,0,0,0,0,0,0,0,0,0,0,-0.261799,-0.000934789,-1.5,-nan,0,0,3,0,0,0,0,0,0
180,-3.21068e-12,2.67461e-38,-1.57228e-06,-3.27738e-12,2.67437e-38,0,-1.13711e-13,0,0,0,0,0,0,0,0,0,0,0,0,0,0,0,0,0,0,0,0,0,-0.261799,-0.000896041,-1.5,-nan,0,0,3,0,0,0,0,0,0
190,-3.21068e-12,2.67461e-38,-1.57228e-06,-3.27738e-12,2.67437e-38,-3.40903e-12,-1.13711e-13,0,0,0,0,0,0,0,0,0,0,0,0,0,0,0,0,0,0,0,0,0,-0.261799,-0.0008571,-1.5,-nan,0,0,3,0,0,0,0,0,0
200,-3.21068e-12,2.67461e-38,-1.57228e-06,-3.27738e-12,2.67437e-38,0,-1.13712e-13,0,0,0,0,0,0,0,0,0,0,0,0,0,0,0,0,0,0,0,0,0,-0.261799,-0.000823225,-1.5,-nan,0,0,3,0,0,0,0,0,0
210,-3.21068e-12,2.67461e-38,-1.57228e-06,-3.27738e-12,2.67437e-38,-3.40903e-12,-1.13712e-13,0,0,0,0,0,0,0,0,0,0,0,0,0,0,0,0,0,0,0,0,0,-0.261799,-0.000785828,-1.5,-nan,0,0,3,0,0,0,0,0,0
220,-3.21068e-12,2.67461e-38,-1.57228e-06,-3.27738e-12,2.67437e-38,0,-1.13713e-13,0,0,0,0,0,0,0,0,0,0,0,0,0,0,0,0,0,0,0,0,0,-0.261799,-0.000753255,-1.5,-nan,0,0,3,0,0,0,0,0,0
230,-3.21068e-12,2.67461e-38,-1.57228e-06,-3.27738e-12,2.67437e-38,-3.40903e-12,-1.13714e-13,0,0,0,0,0,0,0,0,0,0,0,0,0,0,0,0,0,0,0,0,0,-0.261799,-0.000720519,-1.5,-nan,0,0,3,0,0,0,0,0,0
240,-3.21068e-12,2.67461e-38,-1.57228e-06,-3.27738e-12,2.67437e-38,0,-1.13714e-13,0,0,0,0,0,0,0,0,0,0,0,0,0,0,0,0,0,0,0,0,0,-0.261799,-0.000694879,-1.5,-nan,0,0,3,0,0,0,0,0,0
250,-3.21068e-12,2.67461e-38,-1.57228e-06,-3.27738e-12,2.67437e-38,-3.40903e-12,-1.13715e-13,0,0,0,0,0,0,0,0,0,0,0,0,0,0,0,0,0,0,0,0,0,-0.261799,-0.000679724,-1.5,-nan,0,0,3,0,0,0,0,0,0
260,-3.21068e-12,2.67461e-38,-1.57228e-06,-3.27738e-12,2.67437e-38,0,-1.13715e-13,0,0,0,0,0,0,0,0,0,0,0,0,0,0,0,0,0,0,0,0,0,-0.261799,-0.000660887,-1.5,-nan,0,0,3,0,0,0,0,0,0
270,-3.21068e-12,2.67461e-38,-1.57228e-06,-3.27738e-12,2.67437e-38,-3.40903e-12,-1.13716e-13,0,0,0,0,0,0,0,0,0,0,0,0,0,0,0,0,0,0,0,0,0,-0.261799,-0.000634767,-1.5,-nan,0,0,3,0,0,0,0,0,0
280,-3.21068e-12,2.67461e-38,-1.57228e-06,-3.27738e-12,2.67437e-38,0,-1.13716e-13,0,0,0,0,0,0,0,0,0,0,0,0,0,0,0,0,0,0,0,0,0,-0.261799,-0.000605961,-1.5,-nan,0,0,3,0,0,0,0,0,0
290,-3.21068e-12,2.67461e-38,-1.57228e-06,-3.27738e-12,2.67437e-38,-3.40903e-12,-1.13717e-13,0,0,0,0,0,0,0,0,0,0,0,0,0,0,0,0,0,0,0,0,0,-0.261799,-0.000582034,-1.5,-nan,0,0,3,0,0,0,0,0,0
300,-3.21068e-12,2.67461e-38,-1.57228e-06,-3.27738e-12,2.67437e-38,0,-1.13717e-13,0,0,0,0,0,0,0,0,0,0,0,0,0,0,0,0,0,0,0,0,0,-0.261799,-0.000556765,-1.5,-nan,0,0,3,0,0,0,0,0,0
310,-3.21068e-12,2.67461e-38,-1.57228e-06,-3.27738e-12,2.67437e-38,-3.40903e-12,-1.13718e-13,0,0,0,0,0,0,0,0,0,0,0,0,0,0,0,0,0,0,0,0,0,-0.261799,-0.00053476,-1.5,-nan,0,0,3,0,0,0,0,0,0
320,-3.21068e-12,2.67461e-38,-1.57228e-06,-3.27738e-12,2.67437e-38,0,-1.13718e-13,0,0,0,0,0,0,0,0,0,0,0,0,0,0,0,0,0,0,0,0,0,-0.261799,-0.00051152,-1.5,-nan,0,0,3,0,0,0,0,0,0
330,-3.21068e-12,2.67461e-38,-1.57228e-06,-3.27738e-12,2.67437e-38,-3.40903e-12,-1.13719e-13,0,0,0,0,0,0,0,0,0,0,0,0,0,0,0,0,0,0,0,0,0,-0.261799,-0.000490317,-1.5,-nan,0,0,3,0,0,0,0,0,0
340,-3.21068e-12,2.67461e-38,-1.57228e-06,-3.27738e-12,2.67437e-38,0,-1.13719e-13,0,0,0,0,0,0,0,0,0,0,0,0,0,0,0,0,0,0,0,0,0,-0.261799,-0.000468066,-1.5,-nan,0,0,3,0,0,0,0,0,0
350,-3.21068e-12,2.67461e-38,-1.57228e-06,-3.27738e-12,2.67437e-38,-3.40903e-12,-1.1372e-13,0,0,0,0,0,0,0,0,0,0,0,0,0,0,0,0,0,0,0,0,0,-0.261799,-0.000449584,-1.5,-nan,0,0,3,0,0,0,0,0,0
360,-3.21068e-12,2.67461e-38,-1.57228e-06,-3.27738e-12,2.67437e-38,0,-1.13721e-13,0,0,0,0,0,0,0,0,0,0,0,0,0,0,0,0,0,0,0,0,0,-0.261799,-0.000430045,-1.5,-nan,0,0,3,0,0,0,0,0,0
370,-3.21068e-12,2.67461e-38,-1.57228e-06,-3.27738e-12,2.67437e-38,-3.40903e-12,-1.13721e-13,0,0,0,0,0,0,0,0,0,0,0,0,0,0,0,0,0,0,0,0,0,-0.261799,-0.000412219,-1.5,-nan,0,0,3,0,0,0,0,0,0
380,-3.21068e-12,2.67461e-38,-1.57228e-06,-3.27738e-12,2.67437e-38,0,-1.13722e-13,0,0,0,0,0,0,0,0,0,0,0,0,0,0,0,0,0,0,0,0,0,-0.261799,-0.000394305,-1.5,-nan,0,0,3,0,0,0,0,0,0
390,-3.21068e-12,2.67461e-38,-1.57228e-06,-3.27738e-12,2.67437e-38,-3.40903e-12,-1.13722e-13,0,0,0,0,0,0,0,0,0,0,0,0,0,0,0,0,0,0,0,0,0,-0.261799,-0.000378721,-1.5,-nan,0,0,3,0,0,0,0,0,0
400,-3.21068e-12,2.67461e-38,-1.57228e-06,-3.27738e-12,2.67437e-38,0,-1.13723e-13,0,0,0,0,0,0,0,0,0,0,0,0,0,0,0,0,0,0,0,0,0,-0.261799,-0.000361535,-1.5,-nan,0,0,3,0,0,0,0,0,0
410,-3.21068e-12,2.67461e-38,-1.57228e-06,-3.27738e-12,2.67437e-38,-3.40903e-12,-1.13723e-13,0,0,0,0,0,0,0,0,0,0,0,0,0,0,0,0,0,0,0,0,0,-0.261799,-0.000347259,-1.5,-nan,0,0,3,0,0,0,0,0,0
420,-3.21068e-12,2.67461e-38,-1.57228e-06,-3.27738e-12,2.67437e-38,0,-1.13724e-13,0,0,0,0,0,0,0,0,0,0,0,0,0,0,0,0,0,0,0,0,0,-0.261799,-0.000332167,-1.5,-nan,0,0,3,0,0,0,0,0,0
430,-3.21068e-12,2.67461e-38,-1.57228e-06,-3.27738e-12,2.67437e-38,-3.40903e-12,-1.13724e-13,0,0,0,0,0,0,0,0,0,0,0,0,0,0,0,0,0,0,0,0,0,-0.261799,-0.000319039,-1.5,-nan,0,0,3,0,0,0,0,0,0
440,-3.21068e-12,2.67461e-38,-1.57228e-06,-3.27738e-12,2.67437e-38,0,-1.13725e-13,0,0,0,0,0,0,0,0,0,0,0,0,0,0,0,0,0,0,0,0,0,-0.261799,-0.000304561,-1.5,-nan,0,0,3,0,0,0,0,0,0
450,-3.21068e-12,2.67461e-38,-1.57228e-06,-3.27738e-12,2.67437e-38,-3.40903e-12,-1.13725e-13,0,0,0,0,0,0,0,0,0,0,0,0,0,0,0,0,0,0,0,0,0,-0.261799,-0.000292524,-1.5,-nan,0,0,3,0,0,0,0,0,0
460,-3.21068e-12,2.67461e-38,-1.57228e-06,-3.27738e-12,2.67437e-38,0,-1.13726e-13,0,0,0,0,0,0,0,0,0,0,0,0,0,0,0,0,0,0,0,0,0,-0.261799,-0.00027866,-1.5,-nan,0,0,3,0,0,0,0,0,0
470,-3.21068e-12,2.67461e-38,-1.57228e-06,-3.27738e-12,2.67437e-38,-3.40903e-12,-1.13727e-13,0,0,0,0,0,0,0,0,0,0,0,0,0,0,0,0,0,0,0,0,0,-0.261799,-0.000269292,-1.5,-nan,0,0,3,0,0,0,0,0,0
480,-3.21068e-12,2.67461e-38,-1.57228e-06,-3.27738e-12,2.67437e-38,0,-1.13727e-13,0,0,0,0,0,0,0,0,0,0,0,0,0,0,0,0,0,0,0,0,0,-0.261799,-0.000260774,-1.5,-nan,0,0,3,0,0,0,0,0,0
490,-3.21068e-12,2.67461e-38,-1.57228e-06,-3.27738e-12,2.67437e-38,-3.40903e-12,-1.13728e-13,0,0,0,0,0,0,0,0,0,0,0,0,0,0,0,0,0,0,0,0,0,-0.261799,-0.000252521,-1.5,-nan,0,0,3,0,0,0,0,0,0
500,-3.21068e-12,2.67461e-38,-1.57228e-06,-3.27738e-12,2.67437e-38,0,-1.13728e-13,0,0,0,0,0,0,0,0,0,0,0,0,0,0,0,0,0,0,0,0,0,-0.261799,-0.000242043,-1.5,-nan,0,0,3,0,0,0,0,0,0
510,-3.21068e-12,2.67461e-38,-1.57228e-06,-3.27738e-12,2.67437e-38,-3.40903e-12,-1.13729e-13,0,0,0,0,0,0,0,0,0,0,0,0,0,0,0,0,0,0,0,0,0,-0.261799,-0.000232001,-1.5,-nan,0,0,3,0,0,0,0,0,0
520,-3.21068e-12,2.67461e-38,-1.57228e-06,-3.27738e-12,2.67437e-38,0,-1.13729e-13,0,0,0,0,0,0,0,0,0,0,0,0,0,0,0,0,0,0,0,0,0,-0.261799,-0.000221928,-1.5,-nan,0,0,3,0,0,0,0,0,0
530,-3.21068e-12,2.67461e-38,-1.57228e-06,-3.27738e-12,2.67437e-38,-3.40903e-12,-1.1373e-13,0,0,0,0,0,0,0,0,0,0,0,0,0,0,0,0,0,0,0,0,0,-0.261799,-0.000212729,-1.5,-nan,0,0,3,0,0,0,0,0,0
540,-3.21068e-12,2.67461e-38,-1.57228e-06,-3.27738e-12,2.67437e-38,0,-1.1373e-13,0,0,0,0,0,0,0,0,0,0,0,0,0,0,0,0,0,0,0,0,0,-0.261799,-0.000203911,-1.5,-nan,0,0,3,0,0,0,0,0,0
550,-3.21068e-12,2.67461e-38,-1.57228e-06,-3.27738e-12,2.67437e-38,-3.40903e-12,-1.13731e-13,0,0,0,0,0,0,0,0,0,0,0,0,0,0,0,0,0,0,0,0,0,-0.261799,-0.000195451,-1.5,-nan,0,0,3,0,0,0,0,0,0
560,-3.21068e-12,2.67461e-38,-1.57228e-06,-3.27738e-12,2.67437e-38,0,-1.13731e-13,0,0,0,0,0,0,0,0,0,0,0,0,0,0,0,0,0,0,0,0,0,-0.261799,-0.000187349,-1.5,-nan,0,0,3,0,0,0,0,0,0
570,-3.21068e-12,2.67461e-38,-1.57228e-06,-3.27738e-12,2.67437e-38,-3.40903e-12,-1.13732e-13,0,0,0,0,0,0,0,0,0,0,0,0,0,0,0,0,0,0,0,0,0,-0.261799,-0.000179576,-1.5,-nan,0,0,3,0,0,0,0,0,0
580,-3.21068e-12,2.67461e-38,-1.57228e-06,-3.27738e-12,2.67437e-38,0,-1.13732e-13,0,0,0,0,0,0,0,0,0,0,0,0,0,0,0,0,0,0,0,0,0,-0.261799,-0.000172125,-1.5,-nan,0,0,3,0,0,0,0,0,0
590,-3.21068e-12,2.67461e-38,-1.57228e-06,-3.27738e-12,2.67437e-38,-3.40903e-12,-1.13733e-13,0,0,0,0,0,0,0,0,0,0,0,0,0,0,0,0,0,0,0,0,0,-0.261799,-0.000164984,-1.5,-nan,0,0,3,0,0,0,0,0,0
600,-3.21068e-12,2.67461e-38,-1.57228e-06,-3.27738e-12,2.67437e-38,0,-1.13734e-13,0,0,0,0,0,0,0,0,0,0,0,0,0,0,0,0,0,0,0,0,0,-0.261799,-0.000155865,-1.5,-nan,0,0,3,0,0,0,0,0,0
610,-3.21068e-12,2.67461e-38,-1.57228e-06,-3.27738e-12,2.67437e-38,-3.40903e-12,-1.13734e-13,0,0,0,0,0,0,0,0,0,0,0,0,0,0,0,0,0,0,0,0,0,-0.261799,-0.000149398,-1.5,-nan,0,0,3,0,0,0,0,0,0
620,-3.21068e-12,2.67461e-38,-1.57228e-06,-3.27738e-12,2.67437e-38,0,-1.13735e-13,0,0,0,0,0,0,0,0,0,0,0,0,0,0,0,0,0,0,0,0,0,-0.261799,-0.0001432,-1.5,-nan,0,0,3,0,0,0,0,0,0
630,-3.21068e-12,2.67461e-38,-1.57228e-06,-3.27738e-12,2.67437e-38,-3.40903e-12,-1.13735e-13,0,0,0,0,0,0,0,0,0,0,0,0,2059745331,-1368598984,2059745331,-1368598984,-1368598944,-1368598944,-1368598904,-1995351570,0,-0.261799,-0.000136983,-1.5,-nan,0,0,3,0,0,0,0,0,0
640,-3.21068e-12,2.67461e-38,-1.57228e-06,-3.27738e-12,2.67437e-38,0,-1.13736e-13,0,0,0,0,0,0,0,0,0,0,0,0,2059745331,-1368598984,2059745331,-1368598984,-1368598944,-1368598944,-1368598904,-1995351570,0,-0.261799,-0.000131029,-1.5,-nan,0,0,3,0,0,0,0,0,0
650,-3.21068e-12,2.67461e-38,-1.57228e-06,-3.27738e-12,2.67437e-38,-3.40903e-12,-1.13736e-13,0,0,-2.85356,-0.279824,0.658276,0,0,0,0,0,1.14644,-0.279824,2059745331,-1368598984,2059745331,-1368598984,-1368598944,-1368598944,-1368598904,-1995351570,0,-0.261799,-0.000125593,-1.5,-nan,0,0,3,0,0,0,0,0,0
660,-3.21068e-12,2.67461e-38,-1.57228e-06,-3.27738e-12,2.67437e-38,0,-1.13737e-13,0,0,-2.77334,-0.274085,0.557894,0,0,0,0,0,1.22666,-0.274085,2059745331,-1368598984,2059745331,-1368598984,-1368598944,-1368598944,-1368598904,-1995351570,0,-0.261799,-0.000115946,-1.5,-nan,0,0,3,0,0,0,0,0,0
670,-3.21068e-12,2.67461e-38,-1.57228e-06,-3.27738e-12,2.67437e-38,-3.40903e-12,-1.13737e-13,0,0,-2.77334,-0.274085,0.557894,0,0,0,0,0,1.22666,-0.274085,2059745331,-1368598984,2059745331,-1368598984,-1368598944,-1368598944,-1368598904,-1995351570,0,-0.261799,-0.000108854,-1.5,-nan,0,0,3,0,0,0,0,0,0
680,-3.21068e-12,2.67461e-38,-1.57228e-06,-3.27738e-12,2.67437e-38,0,-1.13738e-13,0,0,-2.59185,-0.321784,0.335576,0,0,0,0,0,1.40815,-0.321784,2059745331,-1368598984,2059745331,-1368598984,-1368598944,-1368598944,-1368598904,-1995351570,0,-0.261799,-0.000105194,-1.5,-nan,0,0,3,0,0,0,0,0,0
690,-3.21068e-12,2.67461e-38,-1.57228e-06,-3.27738e-12,2.67437e-38,-3.40903e-12,-1.13738e-13,0,0,-2.59185,-0.321784,0.335576,0,0,0,0,0,1.40815,-0.321784,2059745331,-1368598984,2059745331,-1368598984,-1368598944,-1368598944,-1368598904,-1995351570,0,-0.261799,-0.000101865,-1.5,-nan,0,0,3,0,0,0,0,0,0
700,-3.21068e-12,2.67461e-38,-1.57228e-06,-3.27738e-12,2.67437e-38,0,-1.13739e-13,0,0,-2.63636,-0.322203,0.342848,0,0,0,0,0,1.36364,-0.322203,2059745331,-1368598984,2059745331,-1368598984,-1368598944,-1368598944,-1368598904,-1995351570,0.261799,-0.257449,-7.6988e-05,-1.5,-nan,0,0,3,1.52854,-0.364583,0,0,0,0
710,-3.21068e-12,2.67461e-38,-1.57228e-06,-3.27738e-12,2.67437e-38,-3.40903e-12,-1.1374e-13,0,0,-2.64181,-0.323064,0.320917,0,0,0,0,0,1.35819,-0.323064,2059745331,-1368598984,2059745331,-1368598984,-1368598944,-1368598944,-1368598904,-1995351570,0.261799,-0.261799,-5.25799e-05,-1.5,-nan,0,0,3,1.45147,-0.351135,0,0,0,0
720,-3.21068e-12,2.67461e-38,-1.57228e-06,-3.27738e-12,2.67437e-38,0,-1.1374e-13,0,0,-2.64181,-0.323064,0.320917,0,0,0,0,0,1.35819,-0.323064,2059745331,-1368598984,2059745331,-1368598984,-1368598944,-1368598944,-1368598904,-1995351570,0.261799,-0.261799,-4.97774e-05,-1.5,-nan,0,0,3,1.46711,-0.355842,0,0,0,0
730,-3.21068e-12,2.67461e-38,-1.57228e-06,-3.27738e-12,2.67437e-38,-3.40903e-12,-1.13741e-13,0,0,-3.1827,-0.319911,0.70718,0,0,0,0,0,0.817296,-0.319911,2059745331,-1368598984,2059745331,-1368598984,-1368598944,-1368598944,-1368598904,-1995351570,0.261799,-0.261799,-3.60535e-05,-1.5,-nan,0,0,3,1.54823,-0.380252,0,0,0,0
740,-3.21068e-12,2.67461e-38,-1.57228e-06,-3.27738e-12,2.67437e-38,0,-1.13741e-13,0,0,-3.22306,-0.364128,0.705309,0,0,0,0,0,0.77694,-0.364128,2059745331,-1368598984,2059745331,-1368598984,-1368598944,-1368598944,-1368598904,-1995351570,0.261799,-0.261799,-2.73197e-05,-1.5,-nan,0,0,3,0.677271,-0.382131,0,0,0,0
750,-3.21068e-12,2.67461e-38,-1.57228e-06,-3.27738e-12,2.67437e-38,-3.40903e-12,-1.13742e-13,0,0,-3.12568,-0.352248,0.539924,0,0,0,0,0,0.874325,-0.352248,2059745331,-1368598984,2059745331,-1368598984,-1368598944,-1368598944,-1368598904,-1995351570,0.261799,-0.261799,-2.05527e-05,-1.5,-nan,0,0,3,0.706423,-0.365246,0,0,0,0
760,-3.21068e-12,2.67461e-38,-1.57228e-06,-3.27738e-12,2.67437e-38,0,-1.13742e-13,0,0,-2.75499,-0.382729,0.226813,0,0,0,0,0,1.24501,-0.382729,2059745331,-1368598984,2059745331,-1368598984,-1368598944,-1368598944,-1368598904,-1995351570,0.261799,-0.261799,-1.56999e-05,-1.5,-nan,0,0,3,0.76924,-0.395237,0,0,0,0
770,-3.21068e-12,2.67461e-38,-1.57228e-06,-3.27738e-12,2.67437e-38,-3.40903e-12,-1.13743e-13,0,0,-2.75499,-0.382729,0.226813,0,0,0,0,0,1.24501,-0.382729,2059745331,-1368598984,2059745331,-1368598984,-1368598944,-1368598944,-1368598904,-1995351570,0.261799,-0.261799,-1.46856e-05,-1.5,-nan,0,0,3,1.25342,-0.386437,0,0,0,0
780,-3.21068e-12,2.67461e-38,-1.57228e-06,-3.27738e-12,2.67437e-38,0,-1.13743e-13,0,0,-2.75499,-0.382729,0.226813,0,0,0,0,0,1.24501,-0.382729,2059745331,-1368598984,2059745331,-1368598984,-1368598944,-1368598944,-1368598904,-1995351570,0.261799,-0.261799,-1.42787e-05,-1.5,-nan,0,0,3,1.25351,-0.387658,0,0,0,0
790,-3.21068e-12,2.67461e-38,-1.57228e-06,-3.27738e-12,2.67437e-38,-3.40903e-12,-1.13744e-13,0,0,-2.80142,-0.38048,0.216241,0,0,0,0,0,1.19858,-0.38048,2059745331,-1368598984,2059745331,-1368598984,-1368598944,-1368598944,-1368598904,-1995351570,0.261799,-0.261799,-1.04752e-05,-1.5,-nan,0,0,3,1.22823,-0.395503,0,0,0,0
800,-3.21068e-12,2.67461e-38,-1.57228e-06,-3.27738e-12,2.67437e-38,0,-1.13744e-13,0,0,-2.76209,-0.373704,0.180318,0,0,0,0,0,1.23791,-0.373704,2059745331,-1368598984,2059745331,-1368598984,-1368598944,-1368598944,-1368598904,-1995351570,0.261799,-0.261799,-7.66963e-06,-1.5,-nan,0,0,3,1.2278,-0.399433,0,0,0,0
810,-3.21068e-12,2.67461e-38,-1.57228e-06,-3.27738e-12,2.67437e-38,-3.40903e-12,-1.13745e-13,0,0,-2.75843,-0.389506,0.164362,0,0,0,0,0,1.24157,-0.389506,2059745331,-1368598984,2059745331,-1368598984,-1368598944,-1368598944,-1368598904,-1995351570,0.261799,-0.261799,-5.96265e-06,-1.5,-nan,0,0,3,1.22247,-0.39831,0,0,0,0
820,-3.21068e-12,2.67461e-38,-1.57228e-06,-3.27738e-12,2.67437e-38,0,-1.13745e-13,0,0,-2.78313,-0.360185,0.210943,0,0,0,0,0,1.21687,-0.360185,2059745331,-1368598984,2059745331,-1368598984,-1368598944,-1368598944,-1368598904,-1995351570,0.261799,-0.261799,-4.14268e-06,-1.5,-nan,0,0,3,1.23629,-0.405663,0,0,0,0
830,-3.21068e-12,2.67461e-38,-1.57228e-06,-3.27738e-12,2.67437e-38,-3.40903e-12,-1.13746e-13,0,0,-2.78177,-0.367199,0.225218,0,0,0,0,0,1.21823,-0.367199,2059745331,-1368598984,2059745331,-1368598984,-1368598944,-1368598944,-1368598904,-1995351570,0.261799,-0.261799,-3.16359e-06,-1.5,-nan,0,0,3,1.21994,-0.412326,0,0,0,0
840,-3.21068e-12,2.67461e-38,-1.57228e-06,-3.27738e-12,2.67437e-38,0,-1.13747e-13,0,0,-2.74801,-0.357694,0.208116,0,0,0,0,0,1.25199,-0.357694,2059745331,-1368598984,2059745331,-1368598984,-1368598944,-1368598944,-1368598904,-1995351570,0.261799,-0.261799,-2.391e-06,-1.5,-nan,0,0,3,1.2418,-0.402897,0,0,0,0
850,-3.21068e-12,2.67461e-38,-1.57228e-06,-3.27738e-12,2.67437e-38,-3.40903e-12,-1.13747e-13,0,0,-2.73835,-0.35633,0.211108,0,0,0,0,0,1.26165,-0.35633,2059745331,-1368598984,2059745331,-1368598984,-1368598944,-1368598944,-1368598904,-1995351570,0.261799,-0.261799,-1.8259e-06,-1.5,-nan,0,0,3,1.24822,-0.379345,0,0,0,0
860,-3.21068e-12,2.67461e-38,-1.57228e-06,-3.27738e-12,2.67437e-38,0,-1.13748e-13,0,0,-2.74365,-0.356938,0.206813,0,0,0,0,0,1.25635,-0.356938,2059745331,-1368598984,2059745331,-1368598984,-1368598944,-1368598944,-1368598904,-1995351570,0.261799,-0.261799,-1.40591e-06,-1.5,-nan,0,0,3,1.24851,-0.382345,0,0,0,0
870,-3.21068e-12,2.67461e-38,-1.57228e-06,-3.27738e-12,2.67437e-38,-3.40903e-12,-1.13748e-13,0,0,-2.81049,-0.380166,0.233324,0,0,0,0,0,1.18951,-0.380166,2059745331,-1368598984,2059745331,-1368598984,-1368598944,-1368598944,-1368598904,-1995351570,0.261799,-0.261799,-1.06043e-06,-1.5,-nan,0,0,3,1.18006,-0.384193,0,0,0,0
880,-3.21068e-12,2.67461e-38,-1.57228e-06,-3.27738e-12,2.67437e-38,0,-1.13749e-13,0,0,-2.76293,-0.35083,0.196757,0,0,0,0,0,1.23707,-0.35083,2059745331,-1368598984,2059745331,-1368598984,-1368598944,-1368598944,-1368598904,-1995351570,0.261799,-0.261799,-8.06101e-07,-1.5,-nan,0,0,3,1.27763,-0.35337,0,0,0,0
890,-3.21068e-12,2.67461e-38,-1.57228e-06,-3.27738e-12,2.67437e-38,-3.40903e-12,-1.13749e-13,0,0,-2.75719,-0.35578,0.193924,0,0,0,0,0,1.24281,-0.35578,2059745331,-1368598984,2059745331,-1368598984,-1368598944,-1368598944,-1368598904,-1995351570,0.261799,-0.261799,-6.07653e-07,-1.5,-nan,0,0,3,1.2453,-0.346825,0,0,0,0
900,-3.21068e-12,2.67461e-38,-1.57228e-06,-3.27738e-12,2.67437e-38,0,-1.1375e-13,0,0,-2.81305,-0.361882,0.246626,0,0,0,0,0,1.18695,-0.361882,2059745331,-1368598984,2059745331,-1368598984,-1368598944,-1368598944,-1368598904,-1995351570,0.261799,-0.261799,-4.30881e-07,-1.5,-nan,0,0,3,1.24512,-0.35077,0,0,0,0
910,-3.21068e-12,2.67461e-38,-1.57228e-06,-3.27738e-12,2.67437e-38,-3.40903e-12,-1.1375e-13,0,0,-2.73278,-0.370473,0.156272,0,0,0,0,0,1.26722,-0.370473,2059745331,-1368598984,2059745331,-1368598984,-1368598944,-1368598944,-1368598904,-1995351570,0.261799,-0.261799,-2.86643e-07,-1.5,-nan,0,0,3,1.24833,-0.349682,0,0,0,0
920,-3.21068e-12,2.67461e-38,-1.57228e-06,-3.27738e-12,2.67437e-38,0,-1.13751e-13,0,0,-2.97821,-0.356315,0.354084,0,0,0,0,0,1.02179,-0.356315,2059745331,-1368598984,2059745331,-1368598984,-1368598944,-1368598944,-1368598904,-1995351570,0.261799,-0.261799,-2.14516e-07,-1.5,-nan,0,0,3,1.2334,-0.354708,0,0,0,0
930,-3.21068e-12,2.67461e-38,-1.57228e-06,-3.27738e-12,2.67437e-38,-3.40903e-12,-1.13751e-13,0,0,-2.98875,-0.353057,0.352276,0,0,0,0,0,1.01125,-0.353057,2059745331,-1368598984,2059745331,-1368598984,-1368598944,-1368598944,-1368598904,-1995351570,0.261799,-0.261799,-1.59275e-07,-1.5,-nan,0,0,3,1.18913,-0.351049,0,0,0,0
940,-3.21068e-12,2.67461e-38,-1.57228e-06,-3.27738e-12,2.67437e-38,0,-1.13752e-13,0,0,-2.76984,-0.38314,0.189486,0,0,0,0,0,1.23016,-0.38314,2059745331,-1368598984,2059745331,-1368598984,-1368598944,-1368598944,-1368598904,-1995351570,0.261799,-0.261799,-1.23595e-07,-1.5,-nan,0,0,3,1.22705,-0.353306,0,0,0,0
950,-3.21068e-12,2.67461e-38,-1.57228e-06,-3.27738e-12,2.67437e-38,-3.40903e-12,-1.13753e-13,0,0,-2.82493,-0.378005,0.168838,0,0,0,0,0,1.17507,-0.378005,2059745331,-1368598984,2059745331,-1368598984,-1368598944,-1368598944,-1368598904,-1995351570,0.261799,-0.261799,-9.51662e-08,-1.5,-nan,0,0,3,1.17178,-0.364779,0,0,0,0
960,-3.21068e-12,2.67461e-38,-1.57228e-06,-3.27738e-12,2.67437e-38,0,-1.13753e-13,0,0,-2.81442,-0.390693,0.14122,0,0,0,0,0,1.18558,-0.390693,2059745331,-1368598984,2059745331,-1368598984,-1368598944,-1368598944,-1368598904,-1995351570,0.261799,-0.261799,-7.21546e-08,-1.5,-nan,0,0,3,1.17737,-0.381286,0,0,0,0
970,-3.21068e-12,2.67461e-38,-1.57228e-06,-3.27738e-12,2.67437e-38,-3.40903e-12,-1.13754e-13,0,0,-2.81336,-0.376838,0.209317,0,0,0,0,0,1.18664,-0.376838,2059745331,-1368598984,2059745331,-1368598984,-1368598944,-1368598944,-1368598904,-1995351570,0.261799,-0.261799,-5.47074e-08,-1.5,-nan,0,0,3,1.17875,-0.380295,0,0,0,0
980,-3.21068e-12,2.67461e-38,-1.57228e-06,-3.27738e-12,2.67437e-38,0,-1.13754e-13,0,0,-2.73317,-0.360591,0.17848,0,0,0,0,0,1.26683,-0.360591,2059745331,-1368598984,2059745331,-1368598984,-1368598944,-1368598944,-1368598904,-1995351570,0.261799,-0.261799,-4.15864e-08,-1.5,-nan,0,0,3,1.17536,-0.380275,0,0,0,0
990,-3.21068e-12,2.67461e-38,-1.57228e-06,-3.27738e-12,2.67437e-38,-3.40903e-12,-1.13755e-13,0,0,-2.73389,-0.371797,0.199943,0,0,0,0,0,1.26611,-0.371797,2059745331,-1368598984,2059745331,-1368598984,-1368598944,-1368598944,-1368598904,-1995351570,0.261799,-0.261799,-3.12856e-08,-1.5,-nan,0,0,3,1.16915,-0.374545,0,0,0,0
1000,-3.21068e-12,2.67461e-38,-1.57228e-06,-3.27738e-12,2.67437e-38,0,-1.13755e-13,0,0,-2.78693,-0.350767,0.222414,0,0,0,0,0,1.21307,-0.350767,2059745331,-1368598984,2059745331,-1368598984,-1368598944,-1368598944,-1368598904,-1995351570,0.261799,-0.261799,-2.33373e-08,-1.5,-nan,0,0,3,1.21238,-0.37486,0,0,0,0
1010,-3.21068e-12,2.67461e-38,-1.57228e-06,-3.27738e-12,2.67437e-38,-3.40903e-12,-1.13756e-13,0,0,-2.74136,-0.351214,0.194854,0,0,0,0,0,1.25864,-0.351214,2059745331,-1368598984,2059745331,-1368598984,-1368598944,-1368598944,-1368598904,-1995351570,0.261799,-0.261799,-1.63519e-08,-1.5,-nan,0,0,3,1.2259,-0.363184,0,0,0,0
1020,-3.21068e-12,2.67461e-38,-1.57228e-06,-3.27738e-12,2.67437e-38,0,-1.13756e-13,0,0,-2.73209,-0.36083,0.186013,0,0,0,0,0,1.26792,-0.36083,2059745331,-1368598984,2059745331,-1368598984,-1368598944,-1368598944,-1368598904,-1995351570,0.261799,-0.261799,-1.22052e-08,-1.5,-nan,0,0,3,1.26754,-0.360677,0,0,0,0
1030,-3.21068e-12,2.67461e-38,-1.57228e-06,-3.27738e-12,2.67437e-38,-3.40903e-12,-1.13757e-13,0,0,-3.26436,-0.352355,0.64578,0,0,0,0,0,0.735643,-0.352355,2059745331,-1368598984,2059745331,-1368598984,-1368598944,-1368598944,-1368598904,-1995351570,0.261799,-0.261799,-9.18205e-09,-1.5,-nan,0,0,3,1.23229,-0.359673,0,0,0,0
1040,-3.21068e-12,2.67461e-38,-1.57228e-06,-3.27738e-12,2.67437e-38,0,-1.13757e-13,0,0,-3.27604,-0.353992,0.647083,0,0,0,0,0,0.723963,-0.353992,2059745331,-1368598984,2059745331,-1368598984,-1368598944,-1368598944,-1368598904,-1995351570,0.261799,-0.261799,-5.9457e-09,-1.5,-nan,0,0,3,1.24515,-0.352241,0,0,0,0
1050,-3.21068e-12,2.67461e-38,-1.57228e-06,-3.27738e-12,2.67437e-38,-3.40903e-12,-1.13758e-13,0,0,-3.27604,-0.353992,0.647083,0,0,0,0,0,0.723963,-0.353992,2059745331,-1368598984,2059745331,-1368598984,-1368598944,-1368598944,-1368598904,-1995351570,0.261799,-0.261799,-5.62917e-09,-1.5,-nan,0,0,3,1.24632,-0.351976,0,0,0,0
1060,-3.21068e-12,2.67461e-38,-1.57228e-06,-3.27738e-12,2.67437e-38,0,-1.13759e-13,0,0,-2.7752,-0.360651,0.211736,0,0,0,0,0,1.2248,-0.360651,2059745331,-1368598984,2059745331,-1368598984,-1368598944,-1368598944,-1368598904,-1995351570,0.261799,-0.261799,-4.21013e-09,-1.5,-nan,0,0,3,1.25485,-0.349746,0,0,0,0
1070,-3.21068e-12,2.67461e-38,-1.57228e-06,-3.27738e-12,2.67437e-38,-3.40903e-12,-1.13759e-13,0,0,-2.7404,-0.345181,0.195372,0,0,0,0,0,1.2596,-0.345181,2059745331,-1368598984,2059745331,-1368598984,-1368598944,-1368598944,-1368598904,-1995351570,0.261799,-0.261799,-3.2751e-09,-1.5,-nan,0,0,3,1.25253,-0.344465,0,0,0,0
1080,-3.21068e-12,2.67461e-38,-1.57228e-06,-3.27738e-12,2.67437e-38,0,-1.1376e-13,0,0,-2.74473,-0.355697,0.200126,0,0,0,0,0,1.25527,-0.355697,2059745331,-1368598984,2059745331,-1368598984,-1368598944,-1368598944,-1368598904,-1995351570,0.261799,-0.261799,-2.48172e-09,-1.5,-nan,0,0,3,1.25917,-0.344017,0,0,0,0
1090,-3.21068e-12,2.67461e-38,-1.57228e-06,-3.27738e-12,2.67437e-38,-3.40903e-12,-1.1376e-13,0,0,-2.77471,-0.35992,0.212954,0,0,0,0,0,1.22529,-0.35992,2059745331,-1368598984,2059745331,-1368598984,-1368598944,-1368598944,-1368598904,-1995351570,0.261799,-0.261799,-1.76819e-09,-1.5,-nan,0,0,3,1.2357,-0.34151,0,0,0,0
1100,-3.21068e-12,2.67461e-38,-1.57228e-06,-3.27738e-12,2.67437e-38,0,-1.13761e-13,0,0,-2.74072,-0.354846,0.195723,0,0,0,0,0,1.25928,-0.354846,2059745331,-1368598984,2059745331,-1368598984,-1368598944,-1368598944,-1368598904,-1995351570,0.261799,-0.261799,-1.32941e-09,-1.5,-nan,0,0,3,1.27195,-0.348778,0,0,0,0
1110,-3.21068e-12,2.67461e-38,-1.57228e-06,-3.27738e-12,2.67437e-38,-3.40903e-12,-1.13761e-13,0,0,-2.76627,-0.359551,0.213326,0,0,0,0,0,1.23373,-0.359551,2059745331,-1368598984,2059745331,-1368598984,-1368598944,-1368598944,-1368598904,-1995351570,0.261799,-0.261799,-1.00213e-09,-1.5,-nan,0,0,3,1.24235,-0.353506,0,0,0,0
1120,-3.21068e-12,2.67461e-38,-1.57228e-06,-3.27738e-12,2.67437e-38,0,-1.13762e-13,0,0,-3.24821,-0.360258,0.628888,0,0,0,0,0,0.751789,-0.360258,2059745331,-1368598984,2059745331,-1368598984,-1368598944,-1368598944,-1368598904,-1995351570,0.261799,-0.261799,-7.5194e-10,-1.5,-nan,0,0,3,1.2229,-0.35576,0,0,0,0
1130,-3.21068e-12,2.67461e-38,-1.57228e-06,-3.27738e-12,2.67437e-38,-3.40903e-12,-1.13762e-13,0,0,-2.70418,-0.349378,0.16052,0,0,0,0,0,1.29582,-0.349378,2059745331,-1368598984,2059745331,-1368598984,-1368598944,-1368598944,-1368598904,-1995351570,0.261799,-0.261799,-5.39101e-10,-1.5,-nan,0,0,3,1.22749,-0.361067,0,0,0,0
1140,-3.21068e-12,2.67461e-38,-1.57228e-06,-3.27738e-12,2.67437e-38,0,-1.13763e-13,0,0,-2.73606,-0.353621,0.194642,0,0,0,0,0,1.26394,-0.353621,2059745331,-1368598984,2059745331,-1368598984,-1368598944,-1368598944,-1368598904,-1995351570,0.261799,-0.261799,-4.10863e-10,-1.5,-nan,0,0,3,1.2644,-0.360484,0,0,0,0
1150,-3.21068e-12,2.67461e-38,-1.57228e-06,-3.27738e-12,2.67437e-38,-3.40903e-12,-1.13763e-13,0,0,-2.80164,-0.366205,0.229094,0,0,0,0,0,1.19836,-0.366205,2059745331,-1368598984,2059745331,-1368598984,-1368598944,-1368598944,-1368598904,-1995351570,0.261799,-0.261799,-3.12322e-10,-1.5,-nan,0,0,3,1.22326,-0.362138,0,0,0,0
1160,-3.21068e-12,2.67461e-38,-1.57228e-06,-3.27738e-12,2.67437e-38,0,-1.13764e-13,0,0,-2.76004,-0.363568,0.191198,0,0,0,0,0,1.23996,-0.363568,2059745331,-1368598984,2059745331,-1368598984,-1368598944,-1368598944,-1368598904,-1995351570,0.261799,-0.261799,-2.37892e-10,-1.5,-nan,0,0,3,1.23386,-0.363368,0,0,0,0
1170,-3.21068e-12,2.67461e-38,-1.57228e-06,-3.27738e-12,2.67437e-38,-3.40903e-12,-1.13764e-13,0,0,-2.76255,-0.355451,0.197398,0,0,0,0,0,1.23745,-0.355451,2059745331,-1368598984,2059745331,-1368598984,-1368598944,-1368598944,-1368598904,-1995351570,0.261799,-0.261799,-1.812e-10,-1.5,-nan,0,0,3,1.2361,-0.364696,0,0,0,0
1180,-3.21068e-12,2.67461e-38,-1.57228e-06,-3.27738e-12,2.67437e-38,0,-1.13765e-13,0,0,-2.79593,-0.357994,0.225362,0,0,0,0,0,1.20407,-0.357994,2059745331,-1368598984,2059745331,-1368598984,-1368598944,-1368598944,-1368598904,-1995351570,0.261799,-0.261799,-1.38097e-10,-1.5,-nan,0,0,3,1.23175,-0.358431,0,0,0,0
1190,-3.21068e-12,2.67461e-38,-1.57228e-06,-3.27738e-12,2.67437e-38,-3.40903e-12,-1.13766e-13,0,0,-2.79506,-0.357396,0.230725,0,0,0,0,0,1.20494,-0.357396,2059745331,-1368598984,2059745331,-1368598984,-1368598944,-1368598944,-1368598904,-1995351570,0.261799,-0.261799,-1.0362e-10,-1.5,-nan,0,0,3,1.22621,-0.358251,0,0,0,0
1200,-3.21068e-12,2.67461e-38,-1.57228e-06,-3.27738e-12,2.67437e-38,0,-1.13766e-13,0,0,-2.70146,-0.350648,0.164941,0,0,0,0,0,1.29854,-0.350648,2059745331,-1368598984,2059745331,-1368598984,-1368598944,-1368598944,-1368598904,-1995351570,0.261799,-0.261799,-7.95818e-11,-1.5,-nan,0,0,3,1.22944,-0.356906,0,0,0,0
1210,-3.21068e-12,2.67461e-38,-1.57228e-06,-3.27738e-12,2.67437e-38,-3.40903e-12,-1.13767e-13,0,0,-2.71189,-0.360005,0.16744,0,0,0,0,0,1.28811,-0.360005,2059745331,-1368598984,2059745331,-1368598984,-1368598944,-1368598944,-1368598904,-1995351570,0.261799,-0.261799,-6.12432e-11,-1.5,-nan,0,0,3,1.22292,-0.358972,0,0,0,0
1220,-3.21068e-12,2.67461e-38,-1.57228e-06,-3.27738e-12,2.67437e-38,0,-1.13767e-13,0,0,-2.78795,-0.366872,0.220735,0,0,0,0,0,1.21205,-0.366872,2059745331,-1368598984,2059745331,-1368598984,-1368598944,-1368598944,-1368598904,-1995351570,0.261799,-0.261799,-4.67952e-11,-1.5,-nan,0,0,3,1.22626,-0.358809,0,0,0,0
1230,-3.21068e-12,2.67461e-38,-1.57228e-06,-3.27738e-12,2.67437e-38,-3.40903e-12,-1.13768e-13,0,0,-2.76453,-0.370402,0.212599,0,0,0,0,0,1.23547,-0.370402,2059745331,-1368598984,2059745331,-1368598984,-1368598944,-1368598944,-1368598904,-1995351570,0.261799,-0.261799,-3.58501e-11,-1.5,-nan,0,0,3,1.23967,-0.359741,0,0,0,0
1240,-3.21068e-12,2.67461e-38,-1.57228e-06,-3.27738e-12,2.67437e-38,0,-1.13768e-13,0,0,-2.77965,-0.348674,0.206282,0,0,0,0,0,1.22035,-0.348674,2059745331,-1368598984,2059745331,-1368598984,-1368598944,-1368598944,-1368598904,-1995351570,0.261799,-0.261799,-2.7499e-11,-1.5,-nan,0,0,3,1.22856,-0.359988,0,0,0,0
1250,-3.21068e-12,2.67461e-38,-1.57228e-06,-3.27738e-12,2.67437e-38,-3.40903e-12,-1.13769e-13,0,0,-2.79041,-0.369004,0.232601,0,0,0,0,0,1.20959,-0.369004,2059745331,-1368598984,2059745331,-1368598984,-1368598944,-1368598944,-1368598904,-1995351570,0.261799,-0.261799,-2.0621e-11,-1.5,-nan,0,0,3,1.209,-0.36205,0,0,0,0
1260,-3.21068e-12,2.67461e-38,-1.57228e-06,-3.27738e-12,2.67437e-38,0,-1.13769e-13,0,0,-2.74311,-0.345772,0.196932,0,0,0,0,0,1.25689,-0.345772,2059745331,-1368598984,2059745331,-1368598984,-1368598944,-1368598944,-1368598904,-1995351570,0.261799,-0.261799,-1.57474e-11,-1.5,-nan,0,0,3,1.23478,-0.357353,0,0,0,0
1270,-3.21068e-12,2.67461e-38,-1.57228e-06,-3.27738e-12,2.67437e-38,-3.40903e-12,-1.1377e-13,0,0,-2.72552,-0.361344,0.179416,0,0,0,0,0,1.27448,-0.361344,2059745331,-1368598984,2059745331,-1368598984,-1368598944,-1368598944,-1368598904,-1995351570,0.261799,-0.261799,-6.38474e-12,-1.5,-nan,0,0,3,1.23439,-0.360858,0,0,0,0
1280,-3.21068e-12,2.67461e-38,-1.57228e-06,-3.27738e-12,2.67437e-38,0,-1.1377e-13,0,0,-2.73626,-0.350278,0.179623,1.28252,-0.345176,0.0318818,0.00811633,0,1.26374,-0.350278,2059745331,-1368598984,2059745331,-1368598984,-1368598944,-1368598944,-1368598904,-1995351570,0.261799,-0.261799,1.03044e-12,-1.5,-nan,0,0,3,1.28252,-0.345176,0,0,0,0
1290,-3.21068e-12,2.67461e-38,-1.57228e-06,-3.27738e-12,2.67437e-38,-3.40903e-12,-1.13771e-13,0,0,-2.76655,-0.359967,0.216143,1.28483,-0.344587,0.0306912,0.00781323,0,1.23345,-0.359967,2059745331,-1368598984,2059745331,-1368598984,-1368598944,-1368598944,-1368598904,-1995351570,0.261799,-0.261799,8.78434e-13,-1.5,-nan,0,0,3,1.28483,-0.344587,0,0,0,0
1300,-3.21068e-12,2.67461e-38,-1.57228e-06,-3.27738e-12,2.67437e-38,0,-1.13772e-13,0,0,-3.01924,-0.336016,0.387862,1.28734,-0.343949,0.0293923,0.00748256,0,0.980761,-0.336016,2059745331,-1368598984,2059745331,-1368598984,-1368598944,-1368598944,-1368598904,-1995351570,0.261799,-0.261799,7.31592e-13,-1.5,-nan,0,0,3,1.28734,-0.343949,0,0,0,0
1310,-3.21068e-12,2.67461e-38,-1.57228e-06,-3.27738e-12,2.67437e-38,-3.40903e-12,-1.13772e-13,0,0,-2.77482,-0.35874,0.218848,1.2962,-0.341693,0.0245606,0.00625252,0,1.22518,-0.35874,2059745331,-1368598984,2059745331,-1368598984,-1368598944,-1368598944,-1368598904,-1995351570,0.261799,-0.261799,3.16599e-13,-1.5,-nan,0,0,3,1.21138,-0.369632,0,0,0,0
1320,-3.21068e-12,2.67461e-38,-1.57228e-06,-3.27738e-12,2.67437e-38,0,-1.13773e-13,0,0,-2.79186,-0.357064,0.229848,1.29892,-0.341001,0.0231312,0.00588863,0,1.20814,-0.357064,2059745331,-1368598984,2059745331,-1368598984,-1368598944,-1368598944,-1368598904,-1995351570,0.261799,-0.261799,2.44033e-13,-1.5,-nan,0,0,3,1.19905,-0.359523,0,0,0,0
1330,-3.21068e-12,2.67461e-38,-1.57228e-06,-3.27738e-12,2.67437e-38,-3.40903e-12,-1.13773e-13,0,0,-2.79186,-0.357064,0.229848,1.29922,-0.340924,0.0229812,0.00585045,0,1.20814,-0.357064,2059745331,-1368598984,2059745331,-1368598984,-1368598944,-1368598944,-1368598904,-1995351570,0.261799,-0.261799,2.3775e-13,-1.5,-nan,0,0,3,1.19795,-0.359819,0,0,0,0
1340,-3.21068e-12,2.67461e-38,-1.57228e-06,-3.27738e-12,2.67437e-38,0,-1.13774e-13,0,0,-2.76643,-0.351954,0.209809,1.30186,-0.340251,0.0215853,0.0054951,0,1.23357,-0.351954,2059745331,-1368598984,2059745331,-1368598984,-1368598944,-1368598944,-1368598904,-1995351570,0.261799,-0.261799,1.80728e-13,-1.5,-nan,0,0,3,1.19183,-0.351797,0,0,0,0
1350,-3.21068e-12,2.67461e-38,-1.57228e-06,-3.27738e-12,2.67437e-38,-3.40903e-12,-1.13774e-13,0,0,-2.76891,-0.361629,0.207007,1.30476,-0.339513,0.0200379,0.00510116,0,1.23109,-0.361629,2059745331,-1368598984,2059745331,-1368598984,-1368598944,-1368598944,-1368598904,-1995351570,0.261799,-0.261799,1.29573e-13,-1.5,-nan,0,0,3,1.22907,-0.364419,0,0,0,0
1360,-3.21068e-12,2.67461e-38,-1.57228e-06,-3.27738e-12,2.67437e-38,0,-1.13775e-13,0,0,-2.76891,-0.361629,0.207007,1.3053,-0.339377,0.0197683,0.00503252,0,1.23109,-0.361629,2059745331,-1368598984,2059745331,-1368598984,-1368598944,-1368598944,-1368598904,-1995351570,0.261799,-0.261799,1.22667e-13,-1.5,-nan,0,0,3,1.22868,-0.364944,0,0,0,0
1370,-3.21068e-12,2.67461e-38,-1.57228e-06,-3.27738e-12,2.67437e-38,-3.40903e-12,-1.13775e-13,0,0,-2.98203,-0.327106,0.352263,1.30747,-0.338825,0.0186266,0.00474188,0,1.01797,-0.327106,2059745331,-1368598984,2059745331,-1368598984,-1368598944,-1368598944,-1368598904,-1995351570,0.261799,-0.261799,9.4692e-14,-1.5,-nan,0,0,3,1.15434,-0.355143,0,0,0,0
1380,-3.21068e-12,2.67461e-38,-1.57228e-06,-3.27738e-12,2.67437e-38,0,-1.13776e-13,0,0,-2.80624,-0.372074,0.238021,1.3096,-0.338283,0.0175045,0.00445623,0,1.19376,-0.372074,2059745331,-1368598984,2059745331,-1368598984,-1368598944,-1368598944,-1368598904,-1995351570,0.261799,-0.261799,7.21671e-14,-1.5,-nan,0,0,3,1.18696,-0.370948,0,0,0,0
1390,-3.21068e-12,2.67461e-38,-1.57228e-06,-3.27738e-12,2.67437e-38,-3.40903e-12,-1.13776e-13,0,0,-2.82096,-0.374118,0.247598,1.31163,-0.337766,0.0164326,0.00418334,0,1.17904,-0.374118,2059745331,-1368598984,2059745331,-1368598984,-1368598944,-1368598944,-1368598904,-1995351570,0.261799,-0.261799,5.47168e-14,-1.5,-nan,0,0,3,1.17227,-0.37651,0,0,0,0
1400,-3.21068e-12,2.67461e-38,-1.57228e-06,-3.27738e-12,2.67437e-38,0,-1.13777e-13,0,0,-2.71467,-0.347094,0.184528,1.31347,-0.337296,0.0154591,0.0039355,0,1.28533,-0.347094,2059745331,-1368598984,2059745331,-1368598984,-1368598944,-1368598944,-1368598904,-1995351570,0.261799,-0.261799,4.1916e-14,-1.5,-nan,0,0,3,1.17399,-0.372215,0,0,0,0
1410,-3.21068e-12,2.67461e-38,-1.57228e-06,-3.27738e-12,2.67437e-38,-3.40903e-12,-1.13777e-13,0,0,-2.73489,-0.35774,0.189596,1.31518,-0.33686,0.0145586,0.00370626,0,1.26511,-0.35774,2059745331,-1368598984,2059745331,-1368598984,-1368598944,-1368598944,-1368598904,-1995351570,0.261799,-0.261799,3.22746e-14,-1.5,-nan,0,0,3,1.2253,-0.359027,0,0,0,0
1420,-3.21068e-12,2.67461e-38,-1.57228e-06,-3.27738e-12,2.67437e-38,0,-1.13778e-13,0,0,-2.72337,-0.349872,0.181988,1.31685,-0.336437,0.0136815,0.00348299,0,1.27663,-0.349872,2059745331,-1368598984,2059745331,-1368598984,-1368598944,-1368598944,-1368598904,-1995351570,0.261799,-0.261799,2.45973e-14,-1.5,-nan,0,0,3,1.2725,-0.359101,0,0,0,0
1430,-3.21068e-12,2.67461e-38,-1.57228e-06,-3.27738e-12,2.67437e-38,-3.40903e-12,-1.13779e-13,0,0,-2.77124,-0.362226,0.223725,1.31844,-0.33603,0.0128369,0.00326797,0,1.22876,-0.362226,2059745331,-1368598984,2059745331,-1368598984,-1368598944,-1368598944,-1368598904,-1995351570,0.261799,-0.261799,1.86012e-14,-1.5,-nan,0,0,3,1.2344,-0.361287,0,0,0,0
1440,-3.21068e-12,2.67461e-38,-1.57228e-06,-3.27738e-12,2.67437e-38,0,-1.13779e-13,0,0,-2.76854,-0.358909,0.209427,1.32003,-0.335625,0.0119933,0.00305321,0,1.23146,-0.358909,2059745331,-1368598984,2059745331,-1368598984,-1368598944,-1368598944,-1368598904,-1995351570,0.261799,-0.261799,1.37746e-14,-1.5,-nan,0,0,3,1.23147,-0.360714,0,0,0,0
1450,-3.21068e-12,2.67461e-38,-1.57228e-06,-3.27738e-12,2.67437e-38,-3.40903e-12,-1.1378e-13,0,0,-2.7946,-0.353338,0.220823,1.32135,-0.335291,0.0113097,0.00287917,0,1.2054,-0.353338,2059745331,-1368598984,2059745331,-1368598984,-1368598944,-1368598944,-1368598904,-1995351570,0.261799,-0.261799,1.07154e-14,-1.5,-nan,0,0,3,1.22795,-0.359989,0,0,0,0
1460,-3.21068e-12,2.67461e-38,-1.57228e-06,-3.27738e-12,2.67437e-38,0,-1.1378e-13,0,0,-2.75989,-0.354026,0.201129,1.32267,-0.334955,0.0106112,0.00270135,0,1.24011,-0.354026,2059745331,-1368598984,2059745331,-1368598984,-1368598944,-1368598944,-1368598904,-1995351570,0.261799,-0.261799,8.09852e-15,-1.5,-nan,0,0,3,1.2285,-0.359604,0,0,0,0
1470,-3.21068e-12,2.67461e-38,-1.57228e-06,-3.27738e-12,2.67437e-38,-3.40903e-12,-1.13781e-13,0,0,-2.75989,-0.354026,0.201129,1.32309,-0.334849,0.0103998,0.00264753,0,1.24011,-0.354026,2059745331,-1368598984,2059745331,-1368598984,-1368598944,-1368598944,-1368598904,-1995351570,0.261799,-0.261799,7.46058e-15,-1.5,-nan,0,0,3,1.23663,-0.353802,0,0,0,0
1480,-3.21068e-12,2.67461e-38,-1.57228e-06,-3.27738e-12,2.67437e-38,0,-1.13781e-13,0,0,-2.80765,-0.358943,0.232418,1.32425,-0.334551,0.00978335,0.0024906,0,1.19235,-0.358943,2059745331,-1368598984,2059745331,-1368598984,-1368598944,-1368598944,-1368598904,-1995351570,0.261799,-0.261799,5.71202e-15,-1.5,-nan,0,0,3,1.23728,-0.356747,0,0,0,0
1490,-3.21068e-12,2.67461e-38,-1.57228e-06,-3.27738e-12,2.67437e-38,-3.40903e-12,-1.13782e-13,0,0,-2.76161,-0.348754,0.195317,1.32538,-0.334265,0.0091978,0.00234154,0,1.23839,-0.348754,2059745331,-1368598984,2059745331,-1368598984,-1368598944,-1368598944,-1368598904,-1995351570,0.261799,-0.261799,4.38858e-15,-1.5,-nan,0,0,3,1.23869,-0.353198,0,0,0,0
1500,-3.21068e-12,2.67461e-38,-1.57228e-06,-3.27738e-12,2.67437e-38,0,-1.13782e-13,0,0,-2.79801,-0.363091,0.232878,1.32644,-0.333996,0.00864695,0.0022013,0,1.20199,-0.363091,2059745331,-1368598984,2059745331,-1368598984,-1368598944,-1368598944,-1368598904,-1995351570,0.261799,-0.261799,3.3691e-15,-1.5,-nan,0,0,3,1.22818,-0.352322,0,0,0,0
1510,-3.21068e-12,2.67461e-38,-1.57228e-06,-3.27738e-12,2.67437e-38,-3.40903e-12,-1.13783e-13,0,0,-2.79667,-0.363593,0.231892,1.32761,-0.333696,0.00801816,0.00204123,0,1.20334,-0.363593,2059745331,-1368598984,2059745331,-1368598984,-1368598944,-1368598944,-1368598904,-1995351570,0.261799,-0.261799,2.40043e-15,-1.5,-nan,0,0,3,1.2151,-0.35445,0,0,0,0
1520,-3.21068e-12,2.67461e-38,-1.57228e-06,-3.27738e-12,2.67437e-38,0,-1.13783e-13,0,0,-2.75537,-0.369279,0.197709,1.32854,-0.33346,0.00752716,0.00191623,0,1.24463,-0.369279,2059745331,-1368598984,2059745331,-1368598984,-1368598944,-1368598944,-1368598904,-1995351570,0.261799,-0.261799,1.82e-15,-1.5,-nan,0,0,3,1.24456,-0.366399,0,0,0,0
1530,-3.21068e-12,2.67461e-38,-1.57228e-06,-3.27738e-12,2.67437e-38,-3.40903e-12,-1.13784e-13,0,0,-2.80328,-0.361518,0.231985,1.32941,-0.333239,0.00706976,0.00179979,0,1.19672,-0.361518,2059745331,-1368598984,2059745331,-1368598984,-1368598944,-1368598944,-1368598904,-1995351570,0.261799,-0.261799,1.38269e-15,-1.5,-nan,0,0,3,1.19232,-0.36176,0,0,0,0
1540,-3.21068e-12,2.67461e-38,-1.57228e-06,-3.27738e-12,2.67437e-38,0,-1.13785e-13,0,0,-2.78,-0.348726,0.220912,1.33022,-0.333032,0.00664035,0.00169047,0,1.22,-0.348726,2059745331,-1368598984,2059745331,-1368598984,-1368598944,-1368598944,-1368598904,-1995351570,0.261799,-0.261799,1.05107e-15,-1.5,-nan,0,0,3,1.18768,-0.362354,0,0,0,0
1550,-3.21068e-12,2.67461e-38,-1.57228e-06,-3.27738e-12,2.67437e-38,-3.40903e-12,-1.13785e-13,0,0,-2.77862,-0.350779,0.216385,1.33096,-0.332844,0.00625007,0.00159112,0,1.22138,-0.350779,2059745331,-1368598984,2059745331,-1368598984,-1368598944,-1368598944,-1368598904,-1995351570,0.261799,-0.261799,8.06795e-16,-1.5,-nan,0,0,3,1.21223,-0.36466,0,0,0,0
1560,-3.21068e-12,2.67461e-38,-1.57228e-06,-3.27738e-12,2.67437e-38,0,-1.13786e-13,0,0,-2.77862,-0.350779,0.216385,1.3311,-0.332807,0.00617844,0.00157288,0,1.22138,-0.350779,2059745331,-1368598984,2059745331,-1368598984,-1368598944,-1368598944,-1368598904,-1995351570,0.261799,-0.261799,7.70183e-16,-1.5,-nan,0,0,3,1.21157,-0.364872,0,0,0,0
1570,-3.21068e-12,2.67461e-38,-1.57228e-06,-3.27738e-12,2.67437e-38,-3.40903e-12,-1.13786e-13,0,0,-2.79904,-0.362144,0.231173,1.33173,-0.332649,0.00585251,0.00148991,0,1.20096,-0.362144,2059745331,-1368598984,2059745331,-1368598984,-1368598944,-1368598944,-1368598904,-1995351570,0.261799,-0.261799,6.09951e-16,-1.5,-nan,0,0,3,1.19979,-0.361764,0,0,0,0
1580,-3.21068e-12,2.67461e-38,-1.57228e-06,-3.27738e-12,2.67437e-38,0,-1.13787e-13,0,0,-2.79904,-0.362144,0.231173,1.33182,-0.332627,0.00580874,0.00147877,0,1.20096,-0.362144,2059745331,-1368598984,2059745331,-1368598984,-1368598944,-1368598944,-1368598904,-1995351570,0.261799,-0.261799,5.91857e-16,-1.5,-nan,0,0,3,1.19928,-0.361811,0,0,0,0
1590,-3.21068e-12,2.67461e-38,-1.57228e-06,-3.27738e-12,2.67437e-38,-3.40903e-12,-1.13787e-13,0,0,-2.72787,-0.358477,0.191844,1.33243,-0.33247,0.00548829,0.00139719,0,1.27213,-0.358477,2059745331,-1368598984,2059745331,-1368598984,-1368598944,-1368598944,-1368598904,-1995351570,0.261799,-0.261799,4.63591e-16,-1.5,-nan,0,0,3,1.21291,-0.36244,0,0,0,0
1600,-3.21068e-12,2.67461e-38,-1.57228e-06,-3.27738e-12,2.67437e-38,0,-1.13788e-13,0,0,-2.72787,-0.358477,0.191844,1.33262,-0.332422,0.0053928,0.00137288,0,1.27213,-0.358477,2059745331,-1368598984,2059745331,-1368598984,-1368598944,-1368598944,-1368598904,-1995351570,0.261799,-0.261799,4.31868e-16,-1.5,-nan,0,0,3,1.21343,-0.358683,0,0,0,0
1610,-3.21068e-12,2.67461e-38,-1.57228e-06,-3.27738e-12,2.67437e-38,-3.40903e-12,-1.13788e-13,0,0,-2.72787,-0.358477,0.191844,1.33269,-0.332403,0.00535515,0.00136329,0,1.27213,-0.358477,2059745331,-1368598984,2059745331,-1368598984,-1368598944,-1368598944,-1368598904,-1995351570,0.261799,-0.261799,4.19904e-16,-1.5,-nan,0,0,3,1.21327,-0.358694,0,0,0,0
1620,-3.21068e-12,2.67461e-38,-1.57228e-06,-3.27738e-12,2.67437e-38,0,-1.13789e-13,0,0,-2.80571,-0.374868,0.235693,1.33325,-0.332262,0.00506479,0.00128937,0,1.19429,-0.374868,2059745331,-1368598984,2059745331,-1368598984,-1368598944,-1368598944,-1368598904,-1995351570,0.261799,-0.261799,3.30232e-16,-1.5,-nan,0,0,3,1.21003,-0.3591,0,0,0,0
1630,-3.21068e-12,2.67461e-38,-1.57228e-06,-3.27738e-12,2.67437e-38,-3.40903e-12,-1.13789e-13,0,0,-2.73575,-0.359956,0.19459,1.33377,-0.332128,0.0047903,0.00121949,0,1.26425,-0.359956,2059745331,-1368598984,2059745331,-1368598984,-1368598944,-1368598944,-1368598904,-1995351570,0.261799,-0.261799,2.60356e-16,-1.5,-nan,0,0,3,1.21607,-0.360127,0,0,0,0
1640,-3.21068e-12,2.67461e-38,-1.57228e-06,-3.27738e-12,2.67437e-38,0,-1.1379e-13,0,0,-2.74253,-0.351777,0.202405,1.3343,-0.331993,0.00451126,0.00114846,0,1.25747,-0.351777,2059745331,-1368598984,2059745331,-1368598984,-1368598944,-1368598944,-1368598904,-1995351570,0.261799,-0.261799,2.00469e-16,-1.5,-nan,0,0,3,1.25985,-0.360291,0,0,0,0
1650,-3.21068e-12,2.67461e-38,-1.57228e-06,-3.27738e-12,2.67437e-38,-3.40903e-12,-1.1379e-13,0,0,-2.76687,-0.363436,0.206337,1.33473,-0.331883,0.00428665,0.00109128,0,1.23313,-0.363436,2059745331,-1368598984,2059745331,-1368598984,-1368598944,-1368598944,-1368598904,-1995351570,0.261799,-0.261799,1.61052e-16,-1.5,-nan,0,0,3,1.23674,-0.360802,0,0,0,0
1660,-3.21068e-12,2.67461e-38,-1.57228e-06,-3.27738e-12,2.67437e-38,0,-1.13791e-13,0,0,-2.7684,-0.360316,0.209079,1.33522,-0.331759,0.00402842,0.00102554,0,1.2316,-0.360316,2059745331,-1368598984,2059745331,-1368598984,-1368598944,-1368598944,-1368598904,-1995351570,0.261799,-0.261799,1.22742e-16,-1.5,-nan,0,0,3,1.23663,-0.360538,0,0,0,0
1670,-3.21068e-12,2.67461e-38,-1.57228e-06,-3.27738e-12,2.67437e-38,-3.40903e-12,-1.13792e-13,0,0,-2.7684,-0.360316,0.209079,1.3353,-0.331739,0.00399027,0.00101583,0,1.2316,-0.360316,2059745331,-1368598984,2059745331,-1368598984,-1368598944,-1368598944,-1368598904,-1995351570,0.261799,-0.261799,1.18136e-16,-1.5,-nan,0,0,3,1.23856,-0.360282,0,0,0,0
1680,-3.21068e-12,2.67461e-38,-1.57228e-06,-3.27738e-12,2.67437e-38,0,-1.13792e-13,0,0,-2.7684,-0.360316,0.209079,1.33535,-0.331727,0.00396639,0.00100975,0,1.2316,-0.360316,2059745331,-1368598984,2059745331,-1368598984,-1368598944,-1368598944,-1368598904,-1995351570,0.261799,-0.261799,1.15328e-16,-1.5,-nan,0,0,3,1.2388,-0.360298,0,0,0,0
1690,-3.21068e-12,2.67461e-38,-1.57228e-06,-3.27738e-12,2.67437e-38,-3.40903e-12,-1.13793e-13,0,0,-2.78425,-0.368434,0.219484,1.33584,-0.331601,0.00370376,0.000942887,0,1.21575,-0.368434,2059745331,-1368598984,2059745331,-1368598984,-1368598944,-1368598944,-1368598904,-1995351570,0.261799,-0.261799,8.51756e-17,-1.5,-nan,0,0,3,1.24055,-0.360698,0,0,0,0
1700,-3.21068e-12,2.67461e-38,-1.57228e-06,-3.27738e-12,2.67437e-38,0,-1.13793e-13,0,0,-2.76983,-0.358267,0.213636,1.33626,-0.331495,0.00348433,0.000887025,0,1.23017,-0.358267,2059745331,-1368598984,2059745331,-1368598984,-1368598944,-1368598944,-1368598904,-1995351570,0.261799,-0.261799,6.53804e-17,-1.5,-nan,0,0,3,1.23796,-0.359487,0,0,0,0
1710,-3.21068e-12,2.67461e-38,-1.57228e-06,-3.27738e-12,2.67437e-38,-3.40903e-12,-1.13794e-13,0,0,-2.77879,-0.36045,0.206611,1.33665,-0.331396,0.00327954,0.000834891,0,1.22121,-0.36045,2059745331,-1368598984,2059745331,-1368598984,-1368598944,-1368598944,-1368598904,-1995351570,0.261799,-0.261799,5.01856e-17,-1.5,-nan,0,0,3,1.23378,-0.359585,0,0,0,0
1720,-3.21068e-12,2.67461e-38,-1.57228e-06,-3.27738e-12,2.67437e-38,0,-1.13794e-13,0,0,-3.04064,-0.345828,0.39975,1.33702,-0.3313,0.00308025,0.000784158,0,0.95936,-0.345828,2059745331,-1368598984,2059745331,-1368598984,-1368598944,-1368598944,-1368598904,-1995351570,0.261799,-0.261799,3.81271e-17,-1.5,-nan,0,0,3,1.23363,-0.359291,0,0,0,0
1730,-3.21068e-12,2.67461e-38,-1.57228e-06,-3.27738e-12,2.67437e-38,-3.40903e-12,-1.13795e-13,0,0,-2.77332,-0.36334,0.206117,1.33737,-0.331212,0.00289776,0.0007377,0,1.22668,-0.36334,2059745331,-1368598984,2059745331,-1368598984,-1368598944,-1368598944,-1368598904,-1995351570,0.261799,-0.261799,2.92074e-17,-1.5,-nan,0,0,3,1.23021,-0.361604,0,0,0,0
1740,-3.21068e-12,2.67461e-38,-1.57228e-06,-3.27738e-12,2.67437e-38,0,-1.13795e-13,0,0,-2.77657,-0.356815,0.212308,1.33782,-0.331098,0.00265529,0.000675973,0,1.22343,-0.356815,2059745331,-1368598984,2059745331,-1368598984,-1368598944,-1368598944,-1368598904,-1995351570,0.261799,-0.261799,1.95452e-17,-1.5,-nan,0,0,3,1.22642,-0.361273,0,0,0,0
1750,-3.21068e-12,2.67461e-38,-1.57228e-06,-3.27738e-12,2.67437e-38,-3.40903e-12,-1.13796e-13,0,0,-2.77639,-0.346676,0.198267,1.33812,-0.33102,0.00249401,0.000634915,0,1.22361,-0.346676,2059745331,-1368598984,2059745331,-1368598984,-1368598944,-1368598944,-1368598904,-1995351570,0.261799,-0.261799,1.48575e-17,-1.5,-nan,0,0,3,1.22202,-0.357543,0,0,0,0
1760,-3.21068e-12,2.67461e-38,-1.57228e-06,-3.27738e-12,2.67437e-38,0,-1.13796e-13,0,0,-2.77609,-0.361807,0.212543,1.3384,-0.330949,0.00234619,0.000597283,0,1.22391,-0.361807,2059745331,-1368598984,2059745331,-1368598984,-1368598944,-1368598944,-1368598904,-1995351570,0.261799,-0.261799,1.13753e-17,-1.5,-nan,0,0,3,1.22039,-0.359962,0,0,0,0
1770,-3.21068e-12,2.67461e-38,-1.57228e-06,-3.27738e-12,2.67437e-38,-3.40903e-12,-1.13797e-13,0,0,-2.7831,-0.357925,0.22272,1.33867,-0.330881,0.00220485,0.000561302,0,1.2169,-0.357925,2059745331,-1368598984,2059745331,-1368598984,-1368598944,-1368598944,-1368598904,-1995351570,0.261799,-0.261799,8.66937e-18,-1.5,-nan,0,0,3,1.21527,-0.357977,0,0,0,0
1780,-3.21068e-12,2.67461e-38,-1.57228e-06,-3.27738e-12,2.67437e-38,0,-1.13798e-13,0,0,-2.75453,-0.353391,0.195383,1.33893,-0.330816,0.00206977,0.000526914,0,1.24547,-0.353391,2059745331,-1368598984,2059745331,-1368598984,-1368598944,-1368598944,-1368598904,-1995351570,0.261799,-0.261799,6.56925e-18,-1.5,-nan,0,0,3,1.21988,-0.357,0,0,0,0
1790,-3.21068e-12,2.67461e-38,-1.57228e-06,-3.27738e-12,2.67437e-38,-3.40903e-12,-1.13798e-13,0,0,-2.77992,-0.351165,0.216577,1.33917,-0.330754,0.00194368,0.000494815,0,1.22008,-0.351165,2059745331,-1368598984,2059745331,-1368598984,-1368598944,-1368598944,-1368598904,-1995351570,0.261799,-0.261799,5.01386e-18,-1.5,-nan,0,0,3,1.21899,-0.353048,0,0,0,0
1800,-3.21068e-12,2.67461e-38,-1.57228e-06,-3.27738e-12,2.67437e-38,0,-1.13799e-13,0,0,-2.81566,-0.364276,0.240405,1.33939,-0.330699,0.00182853,0.000465499,0,1.18434,-0.364276,2059745331,-1368598984,2059745331,-1368598984,-1368598944,-1368598944,-1368598904,-1995351570,0.261799,-0.261799,3.83874e-18,-1.5,-nan,0,0,3,1.2151,-0.356735,0,0,0,0
1810,-3.21068e-12,2.67461e-38,-1.57228e-06,-3.27738e-12,2.67437e-38,-3.40903e-12,-1.13799e-13,0,0,-2.76996,-0.361572,0.228721,1.33966,-0.330629,0.0016819,0.000428172,0,1.23004,-0.361572,2059745331,-1368598984,2059745331,-1368598984,-1368598944,-1368598944,-1368598904,-1995351570,0.261799,-0.261799,2.62172e-18,-1.5,-nan,0,0,3,1.21501,-0.356683,0,0,0,0
1820,-3.21068e-12,2.67461e-38,-1.57228e-06,-3.27738e-12,2.67437e-38,0,-1.138e-13,0,0,-3.23268,-0.327315,0.611753,1.33985,-0.33058,0.0015797,0.000402153,0,0.767316,-0.327315,2059745331,-1368598984,2059745331,-1368598984,-1368598944,-1368598944,-1368598904,-1995351570,0.261799,-0.261799,1.99178e-18,-1.5,-nan,0,0,3,1.21412,-0.350753,0,0,0,0
1830,-3.21068e-12,2.67461e-38,-1.57228e-06,-3.27738e-12,2.67437e-38,-3.40903e-12,-1.138e-13,0,0,-2.76594,-0.349315,0.19405,1.34003,-0.330535,0.00148685,0.000378517,0,1.23406,-0.349315,2059745331,-1368598984,2059745331,-1368598984,-1368598944,-1368598944,-1368598904,-1995351570,0.261799,-0.261799,1.52888e-18,-1.5,-nan,0,0,3,1.22716,-0.348615,0,0,0,0
1840,-3.21068e-12,2.67461e-38,-1.57228e-06,-3.27738e-12,2.67437e-38,0,-1.13801e-13,0,0,-2.75914,-0.349235,0.200701,1.3402,-0.330493,0.00139947,0.00035627,0,1.24086,-0.349235,2059745331,-1368598984,2059745331,-1368598984,-1368598944,-1368598944,-1368598904,-1995351570,0.261799,-0.261799,1.17356e-18,-1.5,-nan,0,0,3,1.23233,-0.347287,0,0,0,0
1850,-3.21068e-12,2.67461e-38,-1.57228e-06,-3.27738e-12,2.67437e-38,-3.40903e-12,-1.13801e-13,0,0,-3.19807,-0.325922,0.579186,1.34035,-0.330453,0.00131703,0.000335285,0,0.801928,-0.325922,2059745331,-1368598984,2059745331,-1368598984,-1368598944,-1368598944,-1368598904,-1995351570,0.261799,-0.261799,9.05408e-19,-1.5,-nan,0,0,3,1.22378,-0.34633,0,0,0,0
1860,-3.21068e-12,2.67461e-38,-1.57228e-06,-3.27738e-12,2.67437e-38,0,-1.13802e-13,0,0,-3.19807,-0.325922,0.579186,1.34039,-0.330445,0.00130063,0.000331109,0,0.801928,-0.325922,2059745331,-1368598984,2059745331,-1368598984,-1368598944,-1368598944,-1368598904,-1995351570,0.261799,-0.261799,8.60764e-19,-1.5,-nan,0,0,3,1.22378,-0.346163,0,0,0,0
1870,-3.21068e-12,2.67461e-38,-1.57228e-06,-3.27738e-12,2.67437e-38,-3.40903e-12,-1.13802e-13,0,0,-2.76908,-0.35216,0.208773,1.34053,-0.330408,0.00122616,0.000312151,0,1.23092,-0.35216,2059745331,-1368598984,2059745331,-1368598984,-1368598944,-1368598944,-1368598904,-1995351570,0.261799,-0.261799,6.66154e-19,-1.5,-nan,0,0,3,1.23557,-0.345568,0,0,0,0
1880,-3.21068e-12,2.67461e-38,-1.57228e-06,-3.27738e-12,2.67437e-38,0,-1.13803e-13,0,0,-2.75994,-0.355341,0.20278,1.3407,-0.330366,0.00113765,0.000289618,0,1.24006,-0.355341,2059745331,-1368598984,2059745331,-1368598984,-1368598944,-1368598944,-1368598904,-1995351570,0.261799,-0.261799,4.80251e-19,-1.5,-nan,0,0,3,1.23354,-0.346155,0,0,0,0
1890,-3.21068e-12,2.67461e-38,-1.57228e-06,-3.27738e-12,2.67437e-38,-3.40903e-12,-1.13803e-13,0,0,-2.76231,-0.366266,0.204375,1.34082,-0.330335,0.00107362,0.000273317,0,1.23769,-0.366266,2059745331,-1368598984,2059745331,-1368598984,-1368598944,-1368598944,-1368598904,-1995351570,0.261799,-0.261799,3.73365e-19,-1.5,-nan,0,0,3,1.23867,-0.350229,0,0,0,0
1900,-3.21068e-12,2.67461e-38,-1.57228e-06,-3.27738e-12,2.67437e-38,0,-1.13804e-13,0,0,-2.76231,-0.366266,0.204375,1.34094,-0.330304,0.00100998,0.000257117,0,1.23769,-0.366266,2059745331,-1368598984,2059745331,-1368598984,-1368598944,-1368598944,-1368598904,-1995351570,0.261799,-0.261799,2.85858e-19,-1.5,-nan,0,0,3,1.23999,-0.356302,0,0,0,0
1910,-3.21068e-12,2.67461e-38,-1.57228e-06,-3.27738e-12,2.67437e-38,-3.40903e-12,-1.13805e-13,0,0,-2.80283,-0.368138,0.240155,1.34105,-0.330275,0.00095012,0.000241877,0,1.19717,-0.368138,2059745331,-1368598984,2059745331,-1368598984,-1368598944,-1368598944,-1368598904,-1995351570,0.261799,-0.261799,2.1886e-19,-1.5,-nan,0,0,3,1.23961,-0.356307,0,0,0,0
1920,-3.21068e-12,2.67461e-38,-1.57228e-06,-3.27738e-12,2.67437e-38,0,-1.13805e-13,0,0,-2.79166,-0.366172,0.21653,1.34118,-0.330244,0.000883898,0.000225019,0,1.20834,-0.366172,2059745331,-1368598984,2059745331,-1368598984,-1368598944,-1368598944,-1368598904,-1995351570,0.261799,-0.261799,1.58519e-19,-1.5,-nan,0,0,3,1.24127,-0.367373,0,0,0,0
1930,-3.21068e-12,2.67461e-38,-1.57228e-06,-3.27738e-12,2.67437e-38,-3.40903e-12,-1.13806e-13,0,0,-2.79878,-0.359179,0.220966,1.34127,-0.33022,0.000834171,0.00021236,0,1.20122,-0.359179,2059745331,-1368598984,2059745331,-1368598984,-1368598944,-1368598944,-1368598904,-1995351570,0.261799,-0.261799,1.23302e-19,-1.5,-nan,0,0,3,1.20521,-0.359727,0,0,0,0
1940,-3.21068e-12,2.67461e-38,-1.57228e-06,-3.27738e-12,2.67437e-38,0,-1.13806e-13,0,0,-2.77497,-0.356034,0.209621,1.34136,-0.330196,0.00078558,0.00019999,0,1.22503,-0.356034,2059745331,-1368598984,2059745331,-1368598984,-1368598944,-1368598944,-1368598904,-1995351570,0.261799,-0.261799,9.49407e-20,-1.5,-nan,0,0,3,1.22553,-0.360857,0,0,0,0
1950,-3.21068e-12,2.67461e-38,-1.57228e-06,-3.27738e-12,2.67437e-38,-3.40903e-12,-1.13807e-13,0,0,-2.83264,-0.376135,0.24959,1.34145,-0.330173,0.000738256,0.000187942,0,1.16736,-0.376135,2059745331,-1368598984,2059745331,-1368598984,-1368598944,-1368598944,-1368598904,-1995351570,0.261799,-0.261799,7.25022e-20,-1.5,-nan,0,0,3,1.20236,-0.374325,0,0,0,0
1960,-3.21068e-12,2.67461e-38,-1.57228e-06,-3.27738e-12,2.67437e-38,0,-1.13807e-13,0,0,-2.76183,-0.351985,0.200251,1.34154,-0.330152,0.000694518,0.000176807,0,1.23817,-0.351985,2059745331,-1368598984,2059745331,-1368598984,-1368598944,-1368598944,-1368598904,-1995351570,0.261799,-0.261799,5.55406e-20,-1.5,-nan,0,0,3,1.22488,-0.363485,0,0,0,0
1970,-3.21068e-12,2.67461e-38,-1.57228e-06,-3.27738e-12,2.67437e-38,-3.40903e-12,-1.13808e-13,0,0,-2.76708,-0.361131,0.210328,1.34161,-0.330133,0.000654044,0.000166504,0,1.23292,-0.361131,2059745331,-1368598984,2059745331,-1368598984,-1368598944,-1368598944,-1368598904,-1995351570,0.261799,-0.261799,4.2742e-20,-1.5,-nan,0,0,3,1.22338,-0.364639,0,0,0,0
1980,-3.21068e-12,2.67461e-38,-1.57228e-06,-3.27738e-12,2.67437e-38,0,-1.13808e-13,0,0,-2.78123,-0.350641,0.217534,1.34169,-0.330113,0.000614644,0.000156473,0,1.21877,-0.350641,2059745331,-1368598984,2059745331,-1368598984,-1368598944,-1368598944,-1368598904,-1995351570,0.261799,-0.261799,3.25747e-20,-1.5,-nan,0,0,3,1.21897,-0.362624,0,0,0,0
1990,-3.21068e-12,2.67461e-38,-1.57228e-06,-3.27738e-12,2.67437e-38,-3.40903e-12,-1.13809e-13,0,0,-2.72803,-0.358341,0.178981,1.34176,-0.330096,0.000577906,0.000147121,0,1.27197,-0.358341,2059745331,-1368598984,2059745331,-1368598984,-1368598944,-1368598944,-1368598904,-1995351570,0.261799,-0.261799,2.48759e-20,-1.5,-nan,0,0,3,1.21819,-0.361545,0,0,0,0
2000,-3.21068e-12,2.67461e-38,-1.57228e-06,-3.27738e-12,2.67437e-38,0,-1.13809e-13,0,0,-2.81614,-0.37773,0.233169,1.34182,-0.330079,0.000542501,0.000138108,0,1.18386,-0.37773,2059745331,-1368598984,2059745331,-1368598984,-1368598944,-1368598944,-1368598904,-1995351570,0.261799,-0.261799,1.88498e-20,-1.5,-nan,0,0,3,1.2168,-0.364276,0,0,0,0
2010,-3.21068e-12,2.67461e-38,-1.57228e-06,-3.27738e-12,2.67437e-38,-3.40903e-12,-1.1381e-13,0,0,-2.79707,-0.362285,0.219057,1.34189,-0.330063,0.000510091,0.000129857,0,1.20293,-0.362285,2059745331,-1368598984,2059745331,-1368598984,-1368598944,-1368598944,-1368598904,-1995351570,0.261799,-0.261799,1.4403e-20,-1.5,-nan,0,0,3,1.20883,-0.364396,0,0,0,0
2020,-3.21068e-12,2.67461e-38,-1.57228e-06,-3.27738e-12,2.67437e-38,0,-1.13811e-13,0,0,-2.76297,-0.366523,0.204028,1.34194,-0.330049,0.000480378,0.000122293,0,1.23703,-0.366523,2059745331,-1368598984,2059745331,-1368598984,-1368598944,-1368598944,-1368598904,-1995351570,0.261799,-0.261799,1.109e-20,-1.5,-nan,0,0,3,1.21299,-0.363594,0,0,0,0
2030,-3.21068e-12,2.67461e-38,-1.57228e-06,-3.27738e-12,2.67437e-38,-3.40903e-12,-1.13811e-13,0,0,-2.75064,-0.363393,0.210019,1.342,-0.330034,0.00045023,0.000114618,0,1.24936,-0.363393,2059745331,-1368598984,2059745331,-1368598984,-1368598944,-1368598944,-1368598904,-1995351570,0.261799,-0.261799,8.33802e-21,-1.5,-nan,0,0,3,1.21316,-0.362431,0,0,0,0
2040,-3.21068e-12,2.67461e-38,-1.57228e-06,-3.27738e-12,2.67437e-38,0,-1.13812e-13,0,0,-2.75363,-0.360802,0.185275,1.34205,-0.330022,0.000425114,0.000108224,0,1.24637,-0.360802,2059745331,-1368598984,2059745331,-1368598984,-1368598944,-1368598944,-1368598904,-1995351570,0.261799,-0.261799,6.49868e-21,-1.5,-nan,0,0,3,1.24828,-0.360698,0,0,0,0
2050,-3.21068e-12,2.67461e-38,-1.57228e-06,-3.27738e-12,2.67437e-38,-3.40903e-12,-1.13812e-13,0,0,-2.72598,-0.354846,0.179603,1.34209,-0.33001,0.000400128,0.000101863,0,1.27402,-0.354846,2059745331,-1368598984,2059745331,-1368598984,-1368598944,-1368598944,-1368598904,-1995351570,0.261799,-0.261799,4.98835e-21,-1.5,-nan,0,0,3,1.25257,-0.360163,0,0,0,0
2060,-3.21068e-12,2.67461e-38,-1.57228e-06,-3.27738e-12,2.67437e-38,0,-1.13813e-13,0,0,-2.7321,-0.354963,0.1815,1.34214,-0.329999,0.000377418,9.60814e-05,0,1.2679,-0.354963,2059745331,-1368598984,2059745331,-1368598984,-1368598944,-1368598944,-1368598904,-1995351570,0.261799,-0.261799,3.87034e-21,-1.5,-nan,0,0,3,1.26541,-0.354923,0,0,0,0
2070,-3.21068e-12,2.67461e-38,-1.57228e-06,-3.27738e-12,2.67437e-38,-3.40903e-12,-1.13813e-13,0,0,-2.76234,-0.349717,0.196479,1.34218,-0.329988,0.000355047,9.03864e-05,0,1.23766,-0.349717,2059745331,-1368598984,2059745331,-1368598984,-1368598944,-1368598944,-1368598904,-1995351570,0.261799,-0.261799,2.96323e-21,-1.5,-nan,0,0,3,1.2595,-0.353796,0,0,0,0
2080,-3.21068e-12,2.67461e-38,-1.57228e-06,-3.27738e-12,2.67437e-38,0,-1.13814e-13,0,0,-2.77559,-0.353096,0.215905,1.34222,-0.329978,0.00033471,8.5209e-05,0,1.22441,-0.353096,2059745331,-1368598984,2059745331,-1368598984,-1368598944,-1368598944,-1368598904,-1995351570,0.261799,-0.261799,2.29206e-21,-1.5,-nan,0,0,3,1.26238,-0.353312,0,0,0,0
2090,-3.21068e-12,2.67461e-38,-1.57228e-06,-3.27738e-12,2.67437e-38,-3.40903e-12,-1.13814e-13,0,0,-2.77438,-0.360541,0.225809,1.34226,-0.329969,0.00031538,8.0288e-05,0,1.22562,-0.360541,2059745331,-1368598984,2059745331,-1368598984,-1368598944,-1368598944,-1368598904,-1995351570,0.261799,-0.261799,1.76935e-21,-1.5,-nan,0,0,3,1.24432,-0.354108,0,0,0,0
