timestamp,A_x,A_y,A_z,P,Q,R,Phi,Theta,Psi,poseX,poseY,poseZ,state_X,state_Y,state_Z,state_VzB,state_Bx,state_By,state_Bz,p1_x,p1_y,p2_x,p2_y,p3_x,p3_y,p4_x,p4_y,roll,pitch,yaw,alt,targetHeading,highLevelState,lowLevelState,gateNumber,filtered_x,filtered_y,x_OT,y_OT,vx_OT,vy_OT,filtered_vx,filtered_vygateArearansac_corr_x,ransac_corr_y,ransac_corr_vx,ransac_corr_vy,detectionTimeStamp
8367,0,0,0,0,0,0,0,0,0,0,0,0,0,0,0,0,0,0,0,0,0,0,0,0,0,0,0,0,-0.261799,0,-1.5,0,0,0,0,0,0,0,0,0,0,0,0,1.9603e-19,0,0,0,0,0
8381,0,0,0,0,0,0,0,0,0,0,0,0,0,0,0,0,0,0,0,0,0,0,0,0,0,0,0,0,-0.261799,0,-1.5,0,0,0,0,0,0,0,0,0,0,0,0,1.9603e-19,0,0,0,0,0
9125,-3.76029e-12,0,-1.58997e-06,-3.89022e-12,0,-3.40903e-12,-1.13703e-13,0,0,0,0,0,0,0,0,0,0,0,0,0,0,0,0,0,0,0,0,0,-0.261799,0,-1.5,0,0,0,0,0,0,0,0,0,0,0,0,1.9603e-19,0,0,0,0,0
9161,-3.76029e-12,0,-1.58997e-06,-3.89022e-12,0,0,-1.13703e-13,0,0,0,0,0,0,0,0,0,0,0,0,0,0,0,0,0,0,0,0,0,-0.261799,0,-1.5,0,0,0,0,0,0,0,0,0,0,0,0,1.9603e-19,0,0,0,0,0
9400,-3.76029e-12,0,-1.58997e-06,-3.89022e-12,0,-3.40903e-12,-1.13704e-13,0,0,0,0,0,0,0,0,0,0,0,0,0,0,0,0,0,0,0,0,0,-0.261799,0,-1.5,0,0,0,0,0,0,0,0,0,0,0,0,1.9603e-19,0,0,0,0,0
9464,-3.76029e-12,0,-1.58997e-06,-3.89022e-12,0,0,-1.13704e-13,0,0,0,0,0,0,0,0,0,0,0,0,0,0,0,0,0,0,0,0,0,-0.261799,0,-1.5,0,0,0,0,0,0,0,0,0,0,0,0,1.9603e-19,0,0,0,0,0
9710,-3.76029e-12,0,-1.58997e-06,-3.89022e-12,0,-3.40903e-12,-1.13705e-13,0,0,-3.69697,0.0925144,-0.612755,0,0,0,0,0,0.303029,0.0925144,241,73,241,73,375,73,244,179,0,-0.261799,0,-1.5,0,0,0,0,0,0,0,0,0,0,0,0,14628,0,0,0,0,9702
9792,-3.76029e-12,0,-1.58997e-06,-3.89022e-12,0,0,-1.13705e-13,0,0,-3.45578,0.0976424,-0.639883,0,0,0,0,0,0.544217,0.0976424,237,59,237,59,373,57,245,187,0,-0.261799,0,-1.5,0,0,0,0,0,0,0,0,0,0,0,0,18460,0,0,0,0,9783
9900,-3.76029e-12,0,-1.58997e-06,-3.89022e-12,0,-3.40903e-12,-1.13706e-13,0,0,-3.52629,0.0926319,-0.640855,0,0,0,0,0,0.473707,0.0926319,241,62,241,62,375,61,245,185,0,-0.261799,0,-1.5,0,0,0,0,0,0,0,0,0,0,0,0,16740,0,0,0,0,9892
9974,-3.76029e-12,0,-1.58997e-06,-3.89022e-12,0,0,-1.13706e-13,0,0,-3.3221,0.0944375,-0.64124,0,0,0,0,0,0.677901,0.0944375,238,52,238,52,374,44,243,185,0,-0.261799,0,-1.5,0,0,0,0,0,0,0,0,0,0,0,0,19881,0,0,0,0,9971
10080,-3.76029e-12,0,-1.58997e-06,-3.89022e-12,0,-3.40903e-12,-1.13707e-13,0,0,-3.51715,0.0946456,-0.636655,0,0,0,0,0,0.48285,0.0946456,239,62,239,62,373,61,245,184,0,-0.261799,0,-1.5,0,0,0,0,0,0,0,0,0,0,0,0,17220,0,0,0,0,10072
10190,-3.76029e-12,0,-1.58997e-06,-3.89022e-12,0,0,-1.13708e-13,0,0,-3.49334,0.0963546,-0.654242,0,0,0,0,0,0.506656,0.0963546,241,62,241,62,373,61,243,189,0,-0.261799,0,-1.5,0,0,0,0,0,0,0,0,0,0,0,0,17536,0,0,0,0,10182
10250,-3.76029e-12,0,-1.58997e-06,-3.89022e-12,0,-3.40903e-12,-1.13708e-13,0,0,-3.36043,0.105799,-0.627793,0,0,0,0,0,0.639566,0.105799,238,52,238,52,372,44,243,185,-0.217581,-0.261799,0,-1.5,0,0,0,0,0.644411,0.098552,0,0,0,0,0.372716,0.012926,19458,0.639566,0.098384,0.372716,0.012926,10239
10268,-3.76029e-12,0,-1.58997e-06,-3.89022e-12,0,0,-1.13709e-13,0,0,-3.36043,0.105799,-0.627793,0,0,0,0,0,0.639566,0.105799,238,52,238,52,372,44,243,185,-0.218028,-0.261799,0,-1.5,0,0,0,0,0.650747,0.0987718,0,0,0,0,0.372716,0.012926,19458,0.639566,0.098384,0.372716,0.012926,10239
10291,-3.76029e-12,0,-1.58997e-06,-3.89022e-12,0,-3.40903e-12,-1.13709e-13,0,0,-3.35523,0.0978049,-0.63722,0,0,0,0,0,0.644766,0.0978049,239,55,239,55,372,44,243,185,-0.213749,-0.261799,0,-1.5,0,0,0,0,0.65341,0.0980628,0,0,0,0,0.360124,0.0107457,19740,0.644766,0.0978049,0.360124,0.0107457,10280
10404,-3.76029e-12,0,-1.58997e-06,-3.89022e-12,0,0,-1.13715e-13,0,0,-3.31691,0.0962207,-0.659565,0,0,0,0,0,0.683085,0.0962207,238,52,238,52,372,45,245,189,-0.216429,-0.261799,0,-1.5,0,0,0,0,0.697278,0.0992947,0,0,0,0,0.365601,0.0108764,20160,0.656331,0.0980765,0.365601,0.0108764,10392
10449,-3.76029e-12,0,-1.58997e-06,-3.89022e-12,0,-3.40903e-12,-1.13716e-13,0,0,-3.30662,0.0918844,-0.66241,0,0,0,0,0,0.693377,0.0918844,240,52,240,52,374,45,243,189,-0.217332,-0.261799,0,-1.5,0,0,0,0,0.69466,0.0997654,0,0,0,0,0.266853,0.010833,19872,0.691457,0.0996354,0.266853,0.010833,10439
10500,-3.76029e-12,0,-1.58997e-06,-3.89022e-12,0,0,-1.1371e-13,0,0,-3.35592,0.0958035,-0.64743,0,0,0,0,0,0.644078,0.0958035,241,55,241,55,372,45,243,189,-0.203186,-0.261799,0,-1.5,0,0,0,0,0.705686,0.0970725,0,0,0,0,0.263822,0.00417166,19728,0.692231,0.0968597,0.263822,0.00417166,10488
10720,-3.76029e-12,0,-1.58997e-06,-3.89022e-12,0,-3.40903e-12,-1.1371e-13,0,0,-3.31249,0.102738,-0.63427,0,0,0,0,0,0.687508,0.102738,236,52,236,52,373,41,243,185,-0.220097,-0.261799,0,-1.5,0,0,0,0,0.741915,0.101876,0,0,0,0,0.214699,0.00965365,20448,0.694681,0.0997517,0.214699,0.00965365,10708
10743,-3.76029e-12,0,-1.58997e-06,-3.89022e-12,0,0,-1.13712e-13,0,0,-3.32271,0.0990052,-0.631241,0,0,0,0,0,0.677288,0.0990052,236,52,236,52,372,41,245,185,-0.209017,-0.261799,0,-1.5,0,0,0,0,0.724599,0.0992509,0,0,0,0,0.173916,0.00524328,20592,0.723556,0.0992195,0.173916,0.00524328,10739
10759,-3.76029e-12,0,-1.58997e-06,-3.89022e-12,0,-3.40903e-12,-1.13715e-13,0,0,-3.32271,0.0990052,-0.631241,0,0,0,0,0,0.677288,0.0990052,236,52,236,52,372,41,245,185,-0.209188,-0.261799,0,-1.5,0,0,0,0,0.727382,0.0993348,0,0,0,0,0.173916,0.00524328,20592,0.723556,0.0992195,0.173916,0.00524328,10739
10878,-3.76029e-12,0,-1.58997e-06,-3.89022e-12,0,0,-1.13712e-13,0,0,-3.37734,0.0932035,-0.626615,0,0,0,0,0,0.622657,0.0932035,239,59,239,59,373,41,245,184,-0.193788,-0.261799,0,-1.5,0,0,0,0,0.699014,0.0956257,0,0,0,0,0.129749,-0.000789648,20020,0.698236,0.0956304,0.129749,-0.000789648,10874
10948,-3.76029e-12,0,-1.58997e-06,-3.89022e-12,0,-3.40903e-12,-1.13719e-13,0,0,-3.40367,0.0936465,-0.626691,0,0,0,0,0,0.596334,0.0936465,239,60,239,60,373,44,245,184,-0.190408,-0.261799,0,-1.5,0,0,0,0,0.657662,0.0948082,0,0,0,0,0.0261097,-0.00210851,19600,0.657401,0.0948293,0.0261097,-0.00210851,10939
10969,-3.76029e-12,0,-1.58997e-06,-3.89022e-12,0,0,-1.13711e-13,0,0,-3.40367,0.0936465,-0.626691,0,0,0,0,0,0.596334,0.0936465,239,60,239,60,373,44,245,184,-0.190314,-0.261799,0,-1.5,0,0,0,0,0.658237,0.0947618,0,0,0,0,0.0261097,-0.00210851,19600,0.657401,0.0948293,0.0261097,-0.00210851,10939
10990,-3.76029e-12,0,-1.58997e-06,-3.89022e-12,0,-3.40903e-12,-1.13722e-13,0,0,-3.47688,0.0957127,-0.641897,0,0,0,0,0,0.523123,0.0957127,239,60,239,60,375,60,243,186,-0.191508,-0.261799,0,-1.5,0,0,0,0,0.630137,0.0950557,0,0,0,0,-0.0107603,-0.00165049,17514,0.630363,0.0950904,-0.0107603,-0.00165049,10977
11104,-3.76029e-12,0,-1.58997e-06,-3.89022e-12,0,0,-1.13722e-13,0,0,-3.34953,0.0977884,-0.620784,0,0,0,0,0,0.650468,0.0977884,240,52,240,52,372,41,243,185,-0.19153,-0.261799,0,-1.5,0,0,0,0,0.632587,0.0949062,0,0,0,0,-0.00135481,-0.00139937,19872,0.632741,0.0950657,-0.00135481,-0.00139937,11092
11153,-3.76029e-12,0,-1.58997e-06,-3.89022e-12,0,-3.40903e-12,-1.13713e-13,0,0,-3.34953,0.0977884,-0.620784,0,0,0,0,0,0.650468,0.0977884,240,52,240,52,372,41,243,185,-0.19139,-0.261799,0,-1.5,0,0,0,0,0.63252,0.0948376,0,0,0,0,-0.00135481,-0.00139937,19872,0.632741,0.0950657,-0.00135481,-0.00139937,11092
11170,-3.76029e-12,0,-1.58997e-06,-3.89022e-12,0,0,-1.13713e-13,0,0,-3.34953,0.0977884,-0.620784,0,0,0,0,0,0.650468,0.0977884,240,52,240,52,372,41,243,185,-0.191342,-0.261799,0,-1.5,0,0,0,0,0.632497,0.0948139,0,0,0,0,-0.00135481,-0.00139937,19872,0.632741,0.0950657,-0.00135481,-0.00139937,11092
11191,-3.76029e-12,0,-1.58997e-06,-3.89022e-12,0,-3.40903e-12,-1.13714e-13,0,0,-3.34953,0.0977884,-0.620784,0,0,0,0,0,0.650468,0.0977884,240,52,240,52,372,41,243,185,-0.191282,-0.261799,0,-1.5,0,0,0,0,0.632469,0.0947845,0,0,0,0,-0.00135481,-0.00139937,19872,0.632741,0.0950657,-0.00135481,-0.00139937,11092
11309,-3.76029e-12,0,-1.58997e-06,-3.89022e-12,0,0,-1.13717e-13,0,0,-3.37954,0.101729,-0.628105,0,0,0,0,0,0.62046,0.101729,237,60,237,60,372,41,245,185,-0.203117,-0.261799,0,-1.5,0,0,0,0,0.620061,0.0983488,0,0,0,0,-0.00370549,0.00211903,20304,0.620094,0.0983297,-0.00370549,0.00211903,11302
11432,-3.76029e-12,0,-1.58997e-06,-3.89022e-12,0,-3.40903e-12,-1.13718e-13,0,0,-3.34986,0.0925478,-0.642815,0,0,0,0,0,0.650139,0.0925478,239,60,239,60,374,42,243,186,-0.196775,-0.261799,0,-1.5,0,0,0,0,0.625859,0.0963255,0,0,0,0,-0.00192659,0.000411052,20304,0.626096,0.0962749,-0.00192659,0.000411052,11419
11451,-3.76029e-12,0,-1.58997e-06,-3.89022e-12,0,0,-1.13717e-13,0,0,-3.34986,0.0925478,-0.642815,0,0,0,0,0,0.650139,0.0925478,239,60,239,60,374,42,243,186,-0.196791,-0.261799,0,-1.5,0,0,0,0,0.625823,0.0963333,0,0,0,0,-0.00192659,0.000411052,20304,0.626096,0.0962749,-0.00192659,0.000411052,11419
11464,-3.76029e-12,0,-1.58997e-06,-3.89022e-12,0,-3.40903e-12,-1.13718e-13,0,0,-3.34986,0.0925478,-0.642815,0,0,0,0,0,0.650139,0.0925478,239,60,239,60,374,42,243,186,-0.196802,-0.261799,0,-1.5,0,0,0,0,0.625798,0.0963386,0,0,0,0,-0.00192659,0.000411052,20304,0.626096,0.0962749,-0.00192659,0.000411052,11419
11614,-3.76029e-12,0,-1.58997e-06,-3.89022e-12,0,0,-1.13719e-13,0,0,-3.4022,0.0897754,-0.627309,0,0,0,0,0,0.597795,0.0897754,241,61,241,61,373,42,245,184,-0.191569,-0.261799,0,-1.5,0,0,0,0,0.614667,0.0947038,0,0,0,0,-0.0235248,-0.00105189,19596,0.618196,0.0948616,-0.0235248,-0.00105189,11602
11631,-3.76029e-12,0,-1.58997e-06,-3.89022e-12,0,-3.40903e-12,-1.1372e-13,0,0,-3.4022,0.0897754,-0.627309,0,0,0,0,0,0.597795,0.0897754,241,61,241,61,373,42,245,184,-0.191533,-0.261799,0,-1.5,0,0,0,0,0.614267,0.0946859,0,0,0,0,-0.0235248,-0.00105189,19596,0.618196,0.0948616,-0.0235248,-0.00105189,11602
11676,-3.76029e-12,0,-1.58997e-06,-3.89022e-12,0,0,-1.13721e-13,0,0,-3.28272,0.100961,-0.639611,0,0,0,0,0,0.717284,0.100961,236,47,236,47,373,42,243,185,-0.204211,-0.261799,0,-1.5,0,0,0,0,0.622172,0.0987063,0,0,0,0,-0.00993964,0.00239968,20306,0.622619,0.0985983,-0.00993964,0.00239968,11663
11729,-3.76029e-12,0,-1.58997e-06,-3.89022e-12,0,-3.40903e-12,-1.13723e-13,0,0,-3.48896,0.10021,-0.634069,0,0,0,0,0,0.511038,0.10021,238,60,238,60,374,60,243,184,-0.20824,-0.261799,0,-1.5,0,0,0,0,0.612949,0.100183,0,0,0,0,-0.0206341,0.00318496,17360,0.614022,0.100017,-0.0206341,0.00318496,11715
11849,-3.76029e-12,0,-1.58997e-06,-3.89022e-12,0,0,-1.13723e-13,0,0,-3.49895,0.0918314,-0.629258,0,0,0,0,0,0.501052,0.0918314,239,59,239,59,375,60,245,184,-0.200851,-0.261799,0,-1.5,0,0,0,0,0.595518,0.0979261,0,0,0,0,-0.0372349,0.00103834,17375,0.596002,0.0979126,-0.0372349,0.00103834,11839
11868,-3.76029e-12,0,-1.58997e-06,-3.89022e-12,0,-3.40903e-12,-1.13721e-13,0,0,-3.49895,0.0918314,-0.629258,0,0,0,0,0,0.501052,0.0918314,239,59,239,59,375,60,245,184,-0.200892,-0.261799,0,-1.5,0,0,0,0,0.59481,0.0979458,0,0,0,0,-0.0372349,0.00103834,17375,0.596002,0.0979126,-0.0372349,0.00103834,11839
11884,-3.76029e-12,0,-1.58997e-06,-3.89022e-12,0,0,-1.13724e-13,0,0,-3.49895,0.0918314,-0.629258,0,0,0,0,0,0.501052,0.0918314,239,59,239,59,375,60,245,184,-0.200925,-0.261799,0,-1.5,0,0,0,0,0.594215,0.0979624,0,0,0,0,-0.0372349,0.00103834,17375,0.596002,0.0979126,-0.0372349,0.00103834,11839
11905,-3.76029e-12,0,-1.58997e-06,-3.89022e-12,0,-3.40903e-12,-1.13725e-13,0,0,-3.49895,0.0918314,-0.629258,0,0,0,0,0,0.501052,0.0918314,239,59,239,59,375,60,245,184,-0.20097,-0.261799,0,-1.5,0,0,0,0,0.593433,0.0979842,0,0,0,0,-0.0372349,0.00103834,17375,0.596002,0.0979126,-0.0372349,0.00103834,11839
12015,-3.76029e-12,0,-1.58997e-06,-3.89022e-12,0,0,-1.13725e-13,0,0,-3.32863,0.0906299,-0.612965,0,0,0,0,0,0.671373,0.0906299,240,48,240,48,375,41,243,184,-0.19226,-0.261799,0,-1.5,0,0,0,0,0.612919,0.094874,0,0,0,0,-0.0193974,-0.000787235,19734,0.615053,0.0949606,-0.0193974,-0.000787235,12002
12150,-3.76029e-12,0,-1.58997e-06,-3.89022e-12,0,-3.40903e-12,-1.13726e-13,0,0,-3.72801,0.10254,-0.647674,0,0,0,0,0,0.271992,0.10254,239,78,239,78,372,77,246,184,-0.19211,-0.261799,0,-1.5,0,0,0,0,0.522057,0.094815,0,0,0,0,-0.0877435,-0.000810096,14873,0.523198,0.0948255,-0.0877435,-0.000810096,12139
12166,-3.76029e-12,0,-1.58997e-06,-3.89022e-12,0,0,-1.13726e-13,0,0,-3.72801,0.10254,-0.647674,0,0,0,0,0,0.271992,0.10254,239,78,239,78,372,77,246,184,-0.192084,-0.261799,0,-1.5,0,0,0,0,0.520653,0.094802,0,0,0,0,-0.0877435,-0.000810096,14873,0.523198,0.0948255,-0.0877435,-0.000810096,12139
12188,-3.76029e-12,0,-1.58997e-06,-3.89022e-12,0,-3.40903e-12,-1.13727e-13,0,0,-3.30462,0.104404,-0.645039,0,0,0,0,0,0.695378,0.104404,234,52,234,52,372,42,245,187,-0.202087,-0.261799,0,-1.5,0,0,0,0,0.549608,0.0984308,0,0,0,0,-0.0695594,0.00119791,20880,0.551138,0.0984044,-0.0695594,0.00119791,12175
12305,-3.76029e-12,0,-1.58997e-06,-3.89022e-12,0,0,-1.13727e-13,0,0,-3.34902,0.166564,-0.657639,0,0,0,0,0,0.65098,0.166564,227,63,227,63,361,43,238,190,-0.204471,-0.261799,0,-1.5,0,0,0,0,0.559292,0.0993493,0,0,0,0,-0.0607042,0.00159261,21609,0.566395,0.0991629,-0.0607042,0.00159261,12292
12356,-3.76029e-12,0,-1.58997e-06,-3.89022e-12,0,-3.40903e-12,-1.13728e-13,0,0,-3.39427,0.202246,-0.623713,0,0,0,0,0,0.60573,0.202246,224,63,224,63,356,40,235,186,-0.218252,-0.261799,0,-1.5,0,0,0,0,0.591461,0.103646,0,0,0,0,-0.0277832,0.00545876,21170,0.592878,0.103368,-0.0277832,0.00545876,12343
12378,-3.76029e-12,0,-1.58997e-06,-3.89022e-12,0,0,-1.13728e-13,0,0,-3.31258,0.204665,-0.626545,0,0,0,0,0,0.687418,0.204665,220,54,220,54,356,38,235,186,-0.217123,-0.261799,0,-1.5,0,0,0,0,0.59521,0.103694,0,0,0,0,-0.0245758,0.00451573,22052,0.595407,0.103658,-0.0245758,0.00451573,12372
12485,-3.76029e-12,0,-1.58997e-06,-3.89022e-12,0,-3.40903e-12,-1.13729e-13,0,0,-3.37871,0.20774,-0.642958,0,0,0,0,0,0.621288,0.20774,222,66,222,66,358,41,234,188,-0.221591,-0.261799,0,-1.5,0,0,0,0,0.60261,0.10528,0,0,0,0,-0.0189744,0.00546736,21315,0.604641,0.104695,-0.0189744,0.00546736,12472
12549,-3.76029e-12,0,-1.58997e-06,-3.89022e-12,0,0,-1.13729e-13,0,0,-3.3012,0.211762,-0.65228,0,0,0,0,0,0.698797,0.211762,220,55,220,55,356,41,233,190,-0.261799,-0.261799,0,-1.5,0,0,0,0,0.631274,0.137817,0,0,0,0,0.00865513,0.027235,21903,0.63117,0.13749,0.00865513,0.027235,12539
12566,-3.76029e-12,0,-1.58997e-06,-3.89022e-12,0,-3.40903e-12,-1.1373e-13,0,0,-3.3012,0.211762,-0.65228,0,0,0,0,0,0.698797,0.211762,220,55,220,55,356,41,233,190,-0.261799,-0.261799,0,-1.5,0,0,0,0,0.631421,0.13828,0,0,0,0,0.00865513,0.027235,21903,0.63117,0.13749,0.00865513,0.027235,12539
12588,-3.76029e-12,0,-1.58997e-06,-3.89022e-12,0,0,-1.13731e-13,0,0,-3.36075,0.233261,-0.666768,0,0,0,0,0,0.639247,0.233261,219,67,219,67,352,43,231,192,-0.261799,-0.261799,0,-1.5,0,0,0,0,0.63089,0.19227,0,0,0,0,0.00685303,0.0636532,21903,0.630739,0.190869,0.00685303,0.0636532,12575
12614,-3.76029e-12,0,-1.58997e-06,-3.89022e-12,0,-3.40903e-12,-1.13731e-13,0,0,-3.32668,0.231582,-0.66287,0,0,0,0,0,0.673324,0.231582,219,58,219,58,352,43,231,190,-0.261799,-0.261799,0,-1.5,0,0,0,0,0.641689,0.216071,0,0,0,0,0.0146522,0.0792457,21462,0.641528,0.215199,0.0146522,0.0792457,12605
12725,-3.76029e-12,0,-1.58997e-06,-3.89022e-12,0,0,-1.13732e-13,0,0,-3.39294,0.233061,-0.66423,0,0,0,0,0,0.607059,0.233061,218,67,218,67,353,44,235,192,-0.261799,-0.261799,0,-1.5,0,0,0,0,0.640442,0.227123,0,0,0,0,0.0134975,0.081075,21460,0.638943,0.218124,0.0134975,0.081075,12712
12794,-3.76029e-12,0,-1.58997e-06,-3.89022e-12,0,-3.40903e-12,-1.13732e-13,0,0,-3.35365,0.227306,-0.652796,0,0,0,0,0,0.646352,0.227306,219,58,219,58,350,44,234,190,-0.261799,-0.261799,0,-1.5,0,0,0,0,0.636675,0.232813,0,0,0,0,0.00996436,0.0809285,21608,0.635988,0.227229,0.00996436,0.0809285,12781
12816,-3.76029e-12,0,-1.58997e-06,-3.89022e-12,0,0,-1.13733e-13,0,0,-3.3323,0.269962,-0.648969,0,0,0,0,0,0.667701,0.269962,215,54,215,54,350,44,225,189,-0.261799,-0.261799,0,-1.5,0,0,0,0,0.648939,0.237111,0,0,0,0,0.0225417,0.0904607,20735,0.648691,0.236116,0.0225417,0.0904607,12807
12858,-3.76029e-12,0,-1.58997e-06,-3.89022e-12,0,-3.40903e-12,-1.13733e-13,0,0,-3.34136,0.278327,-0.656496,0,0,0,0,0,0.658642,0.278327,213,54,213,54,349,47,225,189,-0.261799,-0.261799,0,-1.5,0,0,0,0,0.6547,0.249958,0,0,0,0,0.0263711,0.0951525,20448,0.653593,0.245962,0.0263711,0.0951525,12845
12880,-3.76029e-12,0,-1.58997e-06,-3.89022e-12,0,0,-1.13734e-13,0,0,-3.35957,0.323905,-0.651328,0,0,0,0,0,0.640429,0.323905,208,58,208,58,342,44,221,190,-0.261799,-0.261799,0,-1.5,0,0,0,0,0.650242,0.256876,0,0,0,0,0.0235497,0.0984673,21024,0.65003,0.25599,0.0235497,0.0984673,12873
12995,-3.76029e-12,0,-1.58997e-06,-3.89022e-12,0,-3.40903e-12,-1.13734e-13,0,0,-3.37323,0.352337,-0.679841,0,0,0,0,0,0.626768,0.352337,205,66,205,66,340,47,216,191,-0.261799,-0.261799,0,-1.5,0,0,0,0,0.647711,0.280634,0,0,0,0,0.0160725,0.124338,20736,0.645863,0.266335,0.0160725,0.124338,12982
13038,-3.76029e-12,0,-1.58997e-06,-3.89022e-12,0,0,-1.13735e-13,0,0,-3.34674,0.343073,-0.65509,0,0,0,0,0,0.653255,0.343073,205,58,205,58,340,44,218,190,-0.261799,-0.261799,0,-1.5,0,0,0,0,0.65374,0.305596,0,0,0,0,0.0286854,0.150694,21170,0.652507,0.299116,0.0286854,0.150694,13025
13056,-3.76029e-12,0,-1.58997e-06,-3.89022e-12,0,-3.40903e-12,-1.13735e-13,0,0,-3.33562,0.335925,-0.654043,0,0,0,0,0,0.664383,0.335925,205,58,205,58,341,44,218,190,-0.261799,-0.261799,0,-1.5,0,0,0,0,0.654847,0.307636,0,0,0,0,0.0279068,0.152884,21462,0.654344,0.304884,0.0279068,0.152884,13043
13083,-3.76029e-12,0,-1.58997e-06,-3.89022e-12,0,0,-1.13736e-13,0,0,-3.2767,0.321535,-0.659751,0,0,0,0,0,0.723298,0.321535,206,53,206,53,345,42,217,189,-0.261799,-0.261799,0,-1.5,0,0,0,0,0.657868,0.313533,0,0,0,0,0.0324143,0.15283,21462,0.657512,0.311852,0.0324143,0.15283,13074
13195,-3.76029e-12,0,-1.58997e-06,-3.89022e-12,0,-3.40903e-12,-1.13736e-13,0,0,-3.3197,0.324639,-0.681024,0,0,0,0,0,0.680299,0.324639,209,54,209,54,346,50,216,191,-0.261799,-0.261799,0,-1.5,0,0,0,0,0.662671,0.341196,0,0,0,0,0.0346432,0.165311,19740,0.658791,0.322681,0.0346432,0.165311,13182
13216,-3.76029e-12,0,-1.58997e-06,-3.89022e-12,0,0,-1.13737e-13,0,0,-3.3197,0.324639,-0.681024,0,0,0,0,0,0.680299,0.324639,209,54,209,54,346,50,216,191,-0.261799,-0.261799,0,-1.5,0,0,0,0,0.663398,0.344668,0,0,0,0,0.0346432,0.165311,19740,0.658791,0.322681,0.0346432,0.165311,13182
13233,-3.76029e-12,0,-1.58997e-06,-3.89022e-12,0,-3.40903e-12,-1.13738e-13,0,0,-3.3197,0.324639,-0.681024,0,0,0,0,0,0.680299,0.324639,209,54,209,54,346,50,216,191,-0.261799,-0.261799,0,-1.5,0,0,0,0,0.663987,0.347478,0,0,0,0,0.0346432,0.165311,19740,0.658791,0.322681,0.0346432,0.165311,13182
13259,-3.76029e-12,0,-1.58997e-06,-3.89022e-12,0,0,-1.13738e-13,0,0,-3.28172,0.329634,-0.683643,0,0,0,0,0,0.718282,0.329634,206,56,206,56,342,47,214,190,-0.261799,-0.261799,0,-1.5,0,0,0,0,0.669619,0.348054,0,0,0,0,0.0400238,0.163618,21164,0.668579,0.3438,0.0400238,0.163618,13245
13318,-3.76029e-12,0,-1.58997e-06,-3.89022e-12,0,-3.40903e-12,-1.13739e-13,0,0,-3.49073,0.359373,-0.676421,0,0,0,0,0,0.509271,0.359373,207,64,207,64,343,66,213,189,-0.261799,-0.261799,0,-1.5,0,0,0,0,0.687287,0.361803,0,0,0,0,0.0613157,0.169489,17625,0.686429,0.35943,0.0613157,0.169489,13307
13392,-3.76029e-12,0,-1.58997e-06,-3.89022e-12,0,0,-1.13739e-13,0,0,-3.34133,0.343196,-0.670109,0,0,0,0,0,0.65867,0.343196,209,55,209,55,343,50,212,190,-0.261799,-0.261799,0,-1.5,0,0,0,0,0.684888,0.374362,0,0,0,0,0.0522086,0.171087,19460,0.681025,0.361702,0.0522086,0.171087,13378
13419,-3.76029e-12,0,-1.58997e-06,-3.89022e-12,0,-3.40903e-12,-1.1374e-13,0,0,-3.50429,0.362841,-0.677109,0,0,0,0,0,0.495706,0.362841,208,64,208,64,343,66,213,189,-0.261799,-0.261799,0,-1.5,0,0,0,0,0.686917,0.379649,0,0,0,0,0.0628206,0.173526,17250,0.685221,0.374964,0.0628206,0.173526,13405
13436,-3.76029e-12,0,-1.58997e-06,-3.89022e-12,0,0,-1.1374e-13,0,0,-3.50429,0.362841,-0.677109,0,0,0,0,0,0.495706,0.362841,208,64,208,64,343,66,213,189,-0.261799,-0.261799,0,-1.5,0,0,0,0,0.687922,0.382426,0,0,0,0,0.0628206,0.173526,17250,0.685221,0.374964,0.0628206,0.173526,13405
13574,-3.76029e-12,0,-1.58997e-06,-3.89022e-12,0,-3.40903e-12,-1.13741e-13,0,0,-3.44041,0.356415,-0.683893,0,0,0,0,0,0.55959,0.356415,205,63,205,63,341,65,212,189,-0.261799,-0.261799,0,-1.5,0,0,0,0,0.669409,0.40667,0,0,0,0,0.0305068,0.177736,18522,0.665168,0.381964,0.0305068,0.177736,13448
13597,-3.76029e-12,0,-1.58997e-06,-3.89022e-12,0,0,-1.13741e-13,0,0,-3.49513,0.368369,-0.628581,0,0,0,0,0,0.504869,0.368369,206,58,206,58,343,60,213,184,-0.261799,-0.261799,0,-1.5,0,0,0,0,0.661234,0.410729,0,0,0,0,0.0212417,0.180091,17514,0.660766,0.406767,0.0212417,0.180091,13582
13618,-3.76029e-12,0,-1.58997e-06,-3.89022e-12,0,-3.40903e-12,-1.13742e-13,0,0,-3.49513,0.368369,-0.628581,0,0,0,0,0,0.504869,0.368369,206,58,206,58,343,60,213,184,-0.261799,-0.261799,0,-1.5,0,0,0,0,0.661701,0.414691,0,0,0,0,0.0212417,0.180091,17514,0.660766,0.406767,0.0212417,0.180091,13582
13634,-3.76029e-12,0,-1.58997e-06,-3.89022e-12,0,0,-1.13742e-13,0,0,-3.49513,0.368369,-0.628581,0,0,0,0,0,0.504869,0.368369,206,58,206,58,343,60,213,184,-0.261799,-0.261799,0,-1.5,0,0,0,0,0.662041,0.417572,0,0,0,0,0.0212417,0.180091,17514,0.660766,0.406767,0.0212417,0.180091,13582
13650,-3.76029e-12,0,-1.58997e-06,-3.89022e-12,0,-3.40903e-12,-1.13743e-13,0,0,-3.49513,0.368369,-0.628581,0,0,0,0,0,0.504869,0.368369,206,58,206,58,343,60,213,184,-0.261799,-0.261799,0,-1.5,0,0,0,0,0.662381,0.420453,0,0,0,0,0.0212417,0.180091,17514,0.660766,0.406767,0.0212417,0.180091,13582
13664,-3.76029e-12,0,-1.58997e-06,-3.89022e-12,0,0,-1.13744e-13,0,0,-3.49513,0.368369,-0.628581,0,0,0,0,0,0.504869,0.368369,206,58,206,58,343,60,213,184,-0.261799,-0.261799,0,-1.5,0,0,0,0,0.662678,0.422974,0,0,0,0,0.0212417,0.180091,17514,0.660766,0.406767,0.0212417,0.180091,13582
13681,-3.76029e-12,0,-1.58997e-06,-3.89022e-12,0,-3.40903e-12,-1.13744e-13,0,0,-3.49513,0.368369,-0.628581,0,0,0,0,0,0.504869,0.368369,206,58,206,58,343,60,213,184,-0.261799,-0.261799,0,-1.5,0,0,0,0,0.663039,0.426036,0,0,0,0,0.0212417,0.180091,17514,0.660766,0.406767,0.0212417,0.180091,13582
13751,-3.76029e-12,0,-1.58997e-06,-3.89022e-12,0,0,-1.13745e-13,0,0,-3.49513,0.368369,-0.628581,0,0,0,0,0,0.504869,0.368369,206,58,206,58,343,60,213,184,-0.261799,-0.261799,0,-1.5,0,0,0,0,0.664505,0.438462,0,0,0,0,0.0212417,0.180091,17514,0.660766,0.406767,0.0212417,0.180091,13582
13767,-3.76029e-12,0,-1.58997e-06,-3.89022e-12,0,-3.40903e-12,-1.13745e-13,0,0,-3.49513,0.368369,-0.628581,0,0,0,0,0,0.504869,0.368369,206,58,206,58,343,60,213,184,-0.261799,-0.261799,0,-1.5,0,0,0,0,0.664866,0.441523,0,0,0,0,0.0212417,0.180091,17514,0.660766,0.406767,0.0212417,0.180091,13582
13795,-3.76029e-12,0,-1.58997e-06,-3.89022e-12,0,0,-1.13746e-13,0,0,-3.30639,0.421186,-0.700844,0,0,0,0,0,0.693613,0.421186,194,61,194,61,329,50,205,194,-0.261799,-0.261799,0,-1.5,0,0,0,0,0.653799,0.427909,0,0,0,0,0.00381149,0.162657,21600,0.653696,0.423517,0.00381149,0.162657,13780
13817,-3.76029e-12,0,-1.58997e-06,-3.89022e-12,0,-3.40903e-12,-1.13746e-13,0,0,-3.36772,0.435925,-0.710301,0,0,0,0,0,0.632277,0.435925,196,69,196,69,329,50,205,195,-0.261799,-0.261799,0,-1.5,0,0,0,0,0.659522,0.436022,0,0,0,0,0.0115405,0.164996,20735,0.659383,0.434043,0.0115405,0.164996,13807
13838,-3.76029e-12,0,-1.58997e-06,-3.89022e-12,0,0,-1.13747e-13,0,0,-3.36772,0.435925,-0.710301,0,0,0,0,0,0.632277,0.435925,196,69,196,69,329,50,205,195,-0.261799,-0.261799,0,-1.5,0,0,0,0,0.659764,0.439487,0,0,0,0,0.0115405,0.164996,20735,0.659383,0.434043,0.0115405,0.164996,13807
13861,-3.76029e-12,0,-1.58997e-06,-3.89022e-12,0,-3.40903e-12,-1.13747e-13,0,0,-3.34558,0.431704,-0.700059,0,0,0,0,0,0.654417,0.431704,195,60,195,60,330,53,205,195,-0.261799,-0.261799,0,-1.5,0,0,0,0,0.651592,0.439099,0,0,0,0,0.00123845,0.159038,20448,0.651564,0.435441,0.00123845,0.159038,13847
13883,-3.76029e-12,0,-1.58997e-06,-3.89022e-12,0,0,-1.13748e-13,0,0,-3.34481,0.425365,-0.696197,0,0,0,0,0,0.655191,0.425365,197,59,197,59,331,52,205,193,-0.261799,-0.261799,0,-1.5,0,0,0,0,0.652869,0.439923,0,0,0,0,-0.00151035,0.156655,20022,0.65289,0.43773,-0.00151035,0.156655,13871
13904,-3.76029e-12,0,-1.58997e-06,-3.89022e-12,0,-3.40903e-12,-1.13748e-13,0,0,-3.34481,0.425365,-0.696197,0,0,0,0,0,0.655191,0.425365,197,59,197,59,331,52,205,193,-0.261799,-0.261799,0,-1.5,0,0,0,0,0.652837,0.443213,0,0,0,0,-0.00151035,0.156655,20022,0.65289,0.43773,-0.00151035,0.156655,13871
13926,-3.76029e-12,0,-1.58997e-06,-3.89022e-12,0,0,-1.13749e-13,0,0,-3.29871,0.409701,-0.717349,0,0,0,0,0,0.701288,0.409701,198,59,198,59,334,52,205,198,-0.261799,-0.261799,0,-1.5,0,0,0,0,0.6555,0.445268,0,0,0,0,0.00375598,0.154979,20732,0.655418,0.441858,0.00375598,0.154979,13912
13954,-3.76029e-12,0,-1.58997e-06,-3.89022e-12,0,-3.40903e-12,-1.1375e-13,0,0,-3.42862,0.41,-0.679944,0,0,0,0,0,0.571378,0.41,201,53,201,53,337,67,206,189,-0.261799,-0.261799,0,-1.5,0,0,0,0,0.654311,0.438383,0,0,0,0,0.00686751,0.146916,18768,0.654126,0.434417,0.00686751,0.146916,13940
13970,-3.76029e-12,0,-1.58997e-06,-3.89022e-12,0,0,-1.1375e-13,0,0,-3.42862,0.41,-0.679944,0,0,0,0,0,0.571378,0.41,201,53,201,53,337,67,206,189,-0.261799,-0.261799,0,-1.5,0,0,0,0,0.654428,0.440881,0,0,0,0,0.00686751,0.146916,18768,0.654126,0.434417,0.00686751,0.146916,13940
13997,-3.76029e-12,0,-1.58997e-06,-3.89022e-12,0,-3.40903e-12,-1.13751e-13,0,0,-3.32658,0.392114,-0.67471,0,0,0,0,0,0.673416,0.392114,203,53,203,53,337,50,206,190,-0.261799,-0.261799,0,-1.5,0,0,0,0,0.654901,0.445901,0,0,0,0,0.000800922,0.147654,19320,0.65488,0.441914,0.000800922,0.147654,13983
14017,-3.76029e-12,0,-1.58997e-06,-3.89022e-12,0,0,-1.13751e-13,0,0,-3.51498,0.412822,-0.658695,0,0,0,0,0,0.485019,0.412822,204,62,204,62,338,66,205,186,-0.261799,-0.261799,0,-1.5,0,0,0,0,0.652327,0.445362,0,0,0,0,-0.000794268,0.145372,16864,0.652336,0.443617,-0.000794268,0.145372,14007
14035,-3.76029e-12,0,-1.58997e-06,-3.89022e-12,0,-3.40903e-12,-1.13752e-13,0,0,-3.51498,0.412822,-0.658695,0,0,0,0,0,0.485019,0.412822,204,62,204,62,338,66,205,186,-0.261799,-0.261799,0,-1.5,0,0,0,0,0.652312,0.447978,0,0,0,0,-0.000794268,0.145372,16864,0.652336,0.443617,-0.000794268,0.145372,14007
14081,-3.76029e-12,0,-1.58997e-06,-3.89022e-12,0,0,-1.13752e-13,0,0,-3.34112,0.390057,-0.647929,0,0,0,0,0,0.658878,0.390057,203,46,203,46,339,53,206,182,-0.261799,-0.261799,0,-1.5,0,0,0,0,0.650245,0.432055,0,0,0,0,-0.00717771,0.121444,19317,0.65031,0.430962,-0.00717771,0.121444,14074
14134,-3.76029e-12,0,-1.58997e-06,-3.89022e-12,0,-3.40903e-12,-1.13753e-13,0,0,-3.4964,0.412692,-0.642882,0,0,0,0,0,0.503597,0.412692,202,59,202,59,338,63,206,183,-0.261799,-0.261799,0,-1.5,0,0,0,0,0.647018,0.43675,0,0,0,0,-0.00612991,0.118396,17112,0.647343,0.430475,-0.00612991,0.118396,14120
14162,-3.76029e-12,0,-1.58997e-06,-3.89022e-12,0,0,-1.13753e-13,0,0,-3.47021,0.407284,-0.656847,0,0,0,0,0,0.529792,0.407284,202,59,202,59,338,63,206,182,-0.261799,-0.261799,0,-1.5,0,0,0,0,0.62429,0.428584,0,0,0,0,-0.0269663,0.101365,17792,0.625018,0.425847,-0.0269663,0.101365,14147
14184,-3.76029e-12,0,-1.58997e-06,-3.89022e-12,0,-3.40903e-12,-1.13754e-13,0,0,-3.40056,0.403562,-0.635932,0,0,0,0,0,0.599445,0.403562,204,58,204,58,338,47,205,183,-0.261799,-0.261799,0,-1.5,0,0,0,0,0.611632,0.427629,0,0,0,0,-0.0349088,0.0953823,18360,0.612435,0.425435,-0.0349088,0.0953823,14170
14227,-3.76029e-12,0,-1.58997e-06,-3.89022e-12,0,0,-1.13754e-13,0,0,-3.4803,0.414318,-0.651747,0,0,0,0,0,0.519699,0.414318,201,57,201,57,338,66,205,183,-0.261799,-0.261799,0,-1.5,0,0,0,0,0.597981,0.425673,0,0,0,0,-0.0452616,0.088162,17653,0.599927,0.421882,-0.0452616,0.088162,14213
14250,-3.76029e-12,0,-1.58997e-06,-3.89022e-12,0,-3.40903e-12,-1.13755e-13,0,0,-3.31825,0.3979,-0.658372,0,0,0,0,0,0.681745,0.3979,201,56,201,56,340,46,203,186,-0.261799,-0.261799,0,-1.5,0,0,0,0,0.595282,0.427231,0,0,0,0,-0.0473272,0.0846584,19460,0.59585,0.426215,-0.0473272,0.0846584,14240
14276,-3.76029e-12,0,-1.58997e-06,-3.89022e-12,0,0,-1.13755e-13,0,0,-3.44622,0.406369,-0.661828,0,0,0,0,0,0.553782,0.406369,201,57,201,57,339,63,206,183,-0.261799,-0.261799,0,-1.5,0,0,0,0,0.59437,0.420761,0,0,0,0,-0.0465365,0.0688649,18070,0.594696,0.420279,-0.0465365,0.0688649,14271
14317,-3.76029e-12,0,-1.58997e-06,-3.89022e-12,0,-3.40903e-12,-1.13756e-13,0,0,-3.30054,0.403245,-0.660057,0,0,0,0,0,0.69946,0.403245,201,50,201,50,337,47,203,189,-0.261799,-0.261799,0,-1.5,0,0,0,0,0.58846,0.4229,0,0,0,0,-0.059667,0.0681595,19596,0.589176,0.422082,-0.059667,0.0681595,14307
14333,-3.76029e-12,0,-1.58997e-06,-3.89022e-12,0,0,-1.13757e-13,0,0,-3.30054,0.403245,-0.660057,0,0,0,0,0,0.69946,0.403245,201,50,201,50,337,47,203,189,-0.261799,-0.261799,0,-1.5,0,0,0,0,0.587505,0.423991,0,0,0,0,-0.059667,0.0681595,19596,0.589176,0.422082,-0.059667,0.0681595,14307
14355,-3.76029e-12,0,-1.58997e-06,-3.89022e-12,0,-3.40903e-12,-1.13757e-13,0,0,-3.30054,0.403245,-0.660057,0,0,0,0,0,0.69946,0.403245,201,50,201,50,337,47,203,189,-0.261799,-0.261799,0,-1.5,0,0,0,0,0.586192,0.42549,0,0,0,0,-0.059667,0.0681595,19596,0.589176,0.422082,-0.059667,0.0681595,14307
14378,-3.76029e-12,0,-1.58997e-06,-3.89022e-12,0,0,-1.13758e-13,0,0,-3.30742,0.428113,-0.668305,0,0,0,0,0,0.692581,0.428113,198,50,198,50,334,49,201,191,-0.261799,-0.261799,0,-1.5,0,0,0,0,0.605292,0.427991,0,0,0,0,-0.0439055,0.068863,19454,0.605599,0.427509,-0.0439055,0.068863,14372
14434,-3.76029e-12,0,-1.58997e-06,-3.89022e-12,0,-3.40903e-12,-1.13758e-13,0,0,-3.32326,0.4629,-0.693867,0,0,0,0,0,0.676737,0.4629,194,56,194,56,329,52,197,194,-0.261799,-0.261799,0,-1.5,0,0,0,0,0.632761,0.43299,0,0,0,0,-0.023653,0.0739105,19596,0.634109,0.428777,-0.023653,0.0739105,14420
14448,-3.76029e-12,0,-1.58997e-06,-3.89022e-12,0,0,-1.13759e-13,0,0,-3.32326,0.4629,-0.693867,0,0,0,0,0,0.676737,0.4629,194,56,194,56,329,52,197,194,-0.261799,-0.261799,0,-1.5,0,0,0,0,0.63243,0.434024,0,0,0,0,-0.023653,0.0739105,19596,0.634109,0.428777,-0.023653,0.0739105,14420
14466,-3.76029e-12,0,-1.58997e-06,-3.89022e-12,0,-3.40903e-12,-1.13759e-13,0,0,-3.32326,0.4629,-0.693867,0,0,0,0,0,0.676737,0.4629,194,56,194,56,329,52,197,194,-0.261799,-0.261799,0,-1.5,0,0,0,0,0.632004,0.435355,0,0,0,0,-0.023653,0.0739105,19596,0.634109,0.428777,-0.023653,0.0739105,14420
14488,-3.76029e-12,0,-1.58997e-06,-3.89022e-12,0,0,-1.1376e-13,0,0,-3.30249,0.470913,-0.707571,0,0,0,0,0,0.697507,0.470913,190,63,190,63,326,50,195,192,-0.261799,-0.261799,0,-1.5,0,0,0,0,0.638121,0.447786,0,0,0,0,-0.0223837,0.0870108,20732,0.638613,0.445871,-0.0223837,0.0870108,14474
14515,-3.76029e-12,0,-1.58997e-06,-3.89022e-12,0,-3.40903e-12,-1.1376e-13,0,0,-3.28566,0.48766,-0.719126,0,0,0,0,0,0.714345,0.48766,190,55,190,55,323,53,194,198,-0.261799,-0.261799,0,-1.5,0,0,0,0,0.651873,0.452379,0,0,0,0,-0.0080404,0.0894961,20300,0.65197,0.451305,-0.0080404,0.0894961,14505
14532,-3.76029e-12,0,-1.58997e-06,-3.89022e-12,0,0,-1.13761e-13,0,0,-3.28566,0.48766,-0.719126,0,0,0,0,0,0.714345,0.48766,190,55,190,55,323,53,194,198,-0.261799,-0.261799,0,-1.5,0,0,0,0,0.651737,0.4539,0,0,0,0,-0.0080404,0.0894961,20300,0.65197,0.451305,-0.0080404,0.0894961,14505
14554,-3.76029e-12,0,-1.58997e-06,-3.89022e-12,0,-3.40903e-12,-1.13761e-13,0,0,-3.41652,0.505678,-0.704224,0,0,0,0,0,0.583483,0.505678,192,67,192,67,325,56,194,195,-0.261799,-0.261799,0,-1.5,0,0,0,0,0.642339,0.456902,0,0,0,0,-0.0115634,0.0901825,18765,0.642593,0.454918,-0.0115634,0.0901825,14540
14576,-3.76029e-12,0,-1.58997e-06,-3.89022e-12,0,0,-1.13762e-13,0,0,-3.41652,0.505678,-0.704224,0,0,0,0,0,0.583483,0.505678,192,67,192,67,325,56,194,195,-0.261799,-0.261799,0,-1.5,0,0,0,0,0.642085,0.458885,0,0,0,0,-0.0115634,0.0901825,18765,0.642593,0.454918,-0.0115634,0.0901825,14540
14592,-3.76029e-12,0,-1.58997e-06,-3.89022e-12,0,-3.40903e-12,-1.13763e-13,0,0,-3.41652,0.505678,-0.704224,0,0,0,0,0,0.583483,0.505678,192,67,192,67,325,56,194,195,-0.261799,-0.261799,0,-1.5,0,0,0,0,0.6419,0.460328,0,0,0,0,-0.0115634,0.0901825,18765,0.642593,0.454918,-0.0115634,0.0901825,14540
14619,-3.76029e-12,0,-1.58997e-06,-3.89022e-12,0,0,-1.13763e-13,0,0,-3.35857,0.494199,-0.687993,0,0,0,0,0,0.641434,0.494199,191,57,191,57,326,53,195,191,-0.261799,-0.261799,0,-1.5,0,0,0,0,0.685484,0.474991,0,0,0,0,0.065787,0.101312,18768,0.683708,0.472256,0.065787,0.101312,14605
14636,-3.76029e-12,0,-1.58997e-06,-3.89022e-12,0,-3.40903e-12,-1.13764e-13,0,0,-3.35857,0.494199,-0.687993,0,0,0,0,0,0.641434,0.494199,191,57,191,57,326,53,195,191,-0.261799,-0.261799,0,-1.5,0,0,0,0,0.686602,0.476714,0,0,0,0,0.065787,0.101312,18768,0.683708,0.472256,0.065787,0.101312,14605
14681,-3.76029e-12,0,-1.58997e-06,-3.89022e-12,0,0,-1.13764e-13,0,0,-3.34249,0.48978,-0.686159,0,0,0,0,0,0.657507,0.48978,191,56,191,56,325,53,194,192,-0.261799,-0.261799,0,-1.5,0,0,0,0,0.661282,0.489776,0,0,0,0,0.0427982,0.107987,19321,0.659356,0.484917,0.0427982,0.107987,14667
14698,-3.76029e-12,0,-1.58997e-06,-3.89022e-12,0,-3.40903e-12,-1.13765e-13,0,0,-3.34249,0.48978,-0.686159,0,0,0,0,0,0.657507,0.48978,191,56,191,56,325,53,194,192,-0.261799,-0.261799,0,-1.5,0,0,0,0,0.66201,0.491612,0,0,0,0,0.0427982,0.107987,19321,0.659356,0.484917,0.0427982,0.107987,14667
14715,-3.76029e-12,0,-1.58997e-06,-3.89022e-12,0,0,-1.13765e-13,0,0,-3.34249,0.48978,-0.686159,0,0,0,0,0,0.657507,0.48978,191,56,191,56,325,53,194,192,-0.261799,-0.261799,0,-1.5,0,0,0,0,0.662737,0.493447,0,0,0,0,0.0427982,0.107987,19321,0.659356,0.484917,0.0427982,0.107987,14667
14736,-3.76029e-12,0,-1.58997e-06,-3.89022e-12,0,-3.40903e-12,-1.13766e-13,0,0,-3.34249,0.48978,-0.686159,0,0,0,0,0,0.657507,0.48978,191,56,191,56,325,53,194,192,-0.261799,-0.261799,0,-1.5,0,0,0,0,0.663636,0.495715,0,0,0,0,0.0427982,0.107987,19321,0.659356,0.484917,0.0427982,0.107987,14667
14749,-3.76029e-12,0,-1.58997e-06,-3.89022e-12,0,0,-1.13766e-13,0,0,-3.34249,0.48978,-0.686159,0,0,0,0,0,0.657507,0.48978,191,56,191,56,325,53,194,192,-0.261799,-0.261799,0,-1.5,0,0,0,0,0.664192,0.497119,0,0,0,0,0.0427982,0.107987,19321,0.659356,0.484917,0.0427982,0.107987,14667
14767,-3.76029e-12,0,-1.58997e-06,-3.89022e-12,0,-3.40903e-12,-1.13767e-13,0,0,-3.34249,0.48978,-0.686159,0,0,0,0,0,0.657507,0.48978,191,56,191,56,325,53,194,192,-0.261799,-0.261799,0,-1.5,0,0,0,0,0.664963,0.499063,0,0,0,0,0.0427982,0.107987,19321,0.659356,0.484917,0.0427982,0.107987,14667
14812,-3.76029e-12,0,-1.58997e-06,-3.89022e-12,0,0,-1.13767e-13,0,0,-3.34542,0.493935,-0.677161,0,0,0,0,0,0.654583,0.493935,192,53,192,53,325,53,193,191,-0.261799,-0.261799,0,-1.5,0,0,0,0,0.665126,0.494742,0,0,0,0,0.0316259,0.10144,18768,0.664904,0.494032,0.0316259,0.10144,14807
14833,-3.76029e-12,0,-1.58997e-06,-3.89022e-12,0,-3.40903e-12,-1.13768e-13,0,0,-3.34542,0.493935,-0.677161,0,0,0,0,0,0.654583,0.493935,192,53,192,53,325,53,193,191,-0.261799,-0.261799,0,-1.5,0,0,0,0,0.66579,0.496872,0,0,0,0,0.0316259,0.10144,18768,0.664904,0.494032,0.0316259,0.10144,14807
14855,-3.76029e-12,0,-1.58997e-06,-3.89022e-12,0,0,-1.13768e-13,0,0,-3.35643,0.490684,-0.663665,0,0,0,0,0,0.643569,0.490684,190,58,190,58,326,49,195,191,-0.261799,-0.261799,0,-1.5,0,0,0,0,0.677924,0.498518,0,0,0,0,0.0831178,0.100021,19880,0.676096,0.496317,0.0831178,0.100021,14841
14882,-3.76029e-12,0,-1.58997e-06,-3.89022e-12,0,-3.40903e-12,-1.13769e-13,0,0,-3.3949,0.479221,-0.604337,0,0,0,0,0,0.605103,0.479221,196,51,196,51,328,45,195,183,-0.261799,-0.261799,0,-1.5,0,0,0,0,0.664061,0.498254,0,0,0,0,0.030737,0.0973421,18630,0.663692,0.497086,0.030737,0.0973421,14872
14899,-3.76029e-12,0,-1.58997e-06,-3.89022e-12,0,0,-1.1377e-13,0,0,-3.3949,0.479221,-0.604337,0,0,0,0,0,0.605103,0.479221,196,51,196,51,328,45,195,183,-0.261799,-0.261799,0,-1.5,0,0,0,0,0.664583,0.499908,0,0,0,0,0.030737,0.0973421,18630,0.663692,0.497086,0.030737,0.0973421,14872
14921,-3.76029e-12,0,-1.58997e-06,-3.89022e-12,0,-3.40903e-12,-1.1377e-13,0,0,-3.28124,0.475342,-0.598128,0,0,0,0,0,0.718763,0.475342,189,44,189,44,328,36,195,178,-0.261799,-0.261799,0,-1.5,0,0,0,0,0.657622,0.500564,0,0,0,0,0.0141283,0.096052,20164,0.657312,0.498451,0.0141283,0.096052,14907
14942,-3.76029e-12,0,-1.58997e-06,-3.89022e-12,0,0,-1.13771e-13,0,0,-3.28124,0.475342,-0.598128,0,0,0,0,0,0.718763,0.475342,189,44,189,44,328,36,195,178,-0.261799,-0.261799,0,-1.5,0,0,0,0,0.657919,0.502581,0,0,0,0,0.0141283,0.096052,20164,0.657312,0.498451,0.0141283,0.096052,14907
14983,-3.76029e-12,0,-1.58997e-06,-3.89022e-12,0,-3.40903e-12,-1.13771e-13,0,0,-3.30382,0.511597,-0.532195,0,0,0,0,0,0.696178,0.511597,187,39,187,39,324,28,190,173,-0.261799,-0.261799,0,-1.5,0,0,0,0,0.66574,0.507614,0,0,0,0,0.0170482,0.0957005,20155,0.665536,0.506466,0.0170482,0.0957005,14974
15005,-3.76029e-12,0,-1.58997e-06,-3.89022e-12,0,0,-1.13772e-13,0,0,-3.30382,0.511597,-0.532195,0,0,0,0,0,0.696178,0.511597,187,39,187,39,324,28,190,173,-0.261799,-0.261799,0,-1.5,0,0,0,0,0.666098,0.509624,0,0,0,0,0.0170482,0.0957005,20155,0.665536,0.506466,0.0170482,0.0957005,14974
15021,-3.76029e-12,0,-1.58997e-06,-3.89022e-12,0,-3.40903e-12,-1.13772e-13,0,0,-3.30382,0.511597,-0.532195,0,0,0,0,0,0.696178,0.511597,187,39,187,39,324,28,190,173,-0.261799,-0.261799,0,-1.5,0,0,0,0,0.666388,0.51125,0,0,0,0,0.0170482,0.0957005,20155,0.665536,0.506466,0.0170482,0.0957005,14974
15048,-3.76029e-12,0,-1.58997e-06,-3.89022e-12,0,0,-1.13773e-13,0,0,-3.45609,0.544556,-0.500749,0,0,0,0,0,0.54391,0.544556,184,39,184,39,322,45,190,166,-0.261799,-0.261799,0,-1.5,0,0,0,0,0.665457,0.519576,0,0,0,0,0.0179939,0.108002,17907,0.665241,0.51828,0.0179939,0.108002,15038
15084,-3.76029e-12,0,-1.58997e-06,-3.89022e-12,0,-3.40903e-12,-1.13773e-13,0,0,-3.45609,0.544556,-0.500749,0,0,0,0,0,0.54391,0.544556,184,39,184,39,322,45,190,166,-0.261799,-0.261799,0,-1.5,0,0,0,0,0.666105,0.523464,0,0,0,0,0.0179939,0.108002,17907,0.665241,0.51828,0.0179939,0.108002,15038
15121,-3.76029e-12,0,-1.58997e-06,-3.89022e-12,0,0,-1.13774e-13,0,0,-3.45609,0.544556,-0.500749,0,0,0,0,0,0.54391,0.544556,184,39,184,39,322,45,190,166,-0.261799,-0.261799,0,-1.5,0,0,0,0,0.666771,0.52746,0,0,0,0,0.0179939,0.108002,17907,0.665241,0.51828,0.0179939,0.108002,15038
15136,-3.76029e-12,0,-1.58997e-06,-3.89022e-12,0,-3.40903e-12,-1.13774e-13,0,0,-3.45609,0.544556,-0.500749,0,0,0,0,0,0.54391,0.544556,184,39,184,39,322,45,190,166,-0.261799,-0.261799,0,-1.5,0,0,0,0,0.667023,0.528972,0,0,0,0,0.0179939,0.108002,17907,0.665241,0.51828,0.0179939,0.108002,15038
15158,-3.76029e-12,0,-1.58997e-06,-3.89022e-12,0,0,-1.13775e-13,0,0,-3.23558,0.507507,-0.517925,0,0,0,0,0,0.764424,0.507507,185,26,185,26,324,27,188,171,-0.261799,-0.261799,0,-1.5,0,0,0,0,0.668255,0.529788,0,0,0,0,0.018589,0.10692,20445,0.668032,0.528505,0.018589,0.10692,15148
15185,-3.76029e-12,0,-1.58997e-06,-3.89022e-12,0,-3.40903e-12,-1.13776e-13,0,0,-3.41469,0.537882,-0.497576,0,0,0,0,0,0.58531,0.537882,184,36,184,36,324,43,188,165,-0.261799,-0.261799,0,-1.5,0,0,0,0,0.665355,0.534937,0,0,0,0,0.0203277,0.110203,18189,0.665131,0.533725,0.0203277,0.110203,15175
15201,-3.76029e-12,0,-1.58997e-06,-3.89022e-12,0,0,-1.13776e-13,0,0,-3.41469,0.537882,-0.497576,0,0,0,0,0,0.58531,0.537882,184,36,184,36,324,43,188,165,-0.261799,-0.261799,0,-1.5,0,0,0,0,0.6657,0.53681,0,0,0,0,0.0203277,0.110203,18189,0.665131,0.533725,0.0203277,0.110203,15175
15256,-3.76029e-12,0,-1.58997e-06,-3.89022e-12,0,-3.40903e-12,-1.13777e-13,0,0,-3.29756,0.518426,-0.515923,0,0,0,0,0,0.70244,0.518426,186,36,186,36,324,27,188,171,-0.261799,-0.261799,0,-1.5,0,0,0,0,0.706469,0.541466,0,0,0,0,0.0924207,0.109887,20016,0.701386,0.535423,0.0924207,0.109887,15242
15279,-3.76029e-12,0,-1.58997e-06,-3.89022e-12,0,0,-1.13777e-13,0,0,-3.19355,0.496738,-0.530679,0,0,0,0,0,0.806455,0.496738,184,24,184,24,322,27,188,171,-0.261799,-0.261799,0,-1.5,0,0,0,0,0.725261,0.538877,0,0,0,0,0.113012,0.10575,21609,0.724357,0.538031,0.113012,0.10575,15274
15300,-3.76029e-12,0,-1.58997e-06,-3.89022e-12,0,-3.40903e-12,-1.13778e-13,0,0,-3.19355,0.496738,-0.530679,0,0,0,0,0,0.806455,0.496738,184,24,184,24,322,27,188,171,-0.261799,-0.261799,0,-1.5,0,0,0,0,0.727634,0.541097,0,0,0,0,0.113012,0.10575,21609,0.724357,0.538031,0.113012,0.10575,15274
15317,-3.76029e-12,0,-1.58997e-06,-3.89022e-12,0,0,-1.13778e-13,0,0,-3.19355,0.496738,-0.530679,0,0,0,0,0,0.806455,0.496738,184,24,184,24,322,27,188,171,-0.261799,-0.261799,0,-1.5,0,0,0,0,0.729555,0.542895,0,0,0,0,0.113012,0.10575,21609,0.724357,0.538031,0.113012,0.10575,15274
15333,-3.76029e-12,0,-1.58997e-06,-3.89022e-12,0,-3.40903e-12,-1.13779e-13,0,0,-3.19355,0.496738,-0.530679,0,0,0,0,0,0.806455,0.496738,184,24,184,24,322,27,188,171,-0.261799,-0.261799,0,-1.5,0,0,0,0,0.731363,0.544587,0,0,0,0,0.113012,0.10575,21609,0.724357,0.538031,0.113012,0.10575,15274
15360,-3.76029e-12,0,-1.58997e-06,-3.89022e-12,0,0,-1.13779e-13,0,0,-3.2518,0.496022,-0.518357,0,0,0,0,0,0.7482,0.496022,188,27,188,27,326,27,190,169,-0.261799,-0.261799,0,-1.5,0,0,0,0,0.748713,0.549587,0,0,0,0,0.128255,0.111463,19596,0.745251,0.546578,0.128255,0.111463,15346
15383,-3.76029e-12,0,-1.58997e-06,-3.89022e-12,0,-3.40903e-12,-1.1378e-13,0,0,-3.42209,0.486705,-0.511747,0,0,0,0,0,0.577913,0.486705,191,38,191,38,330,45,194,165,-0.261799,-0.261799,0,-1.5,0,0,0,0,0.752714,0.536916,0,0,0,0,0.140227,0.0961311,18060,0.751031,0.535762,0.140227,0.0961311,15373
15404,-3.76029e-12,0,-1.58997e-06,-3.89022e-12,0,0,-1.1378e-13,0,0,-3.42209,0.486705,-0.511747,0,0,0,0,0,0.577913,0.486705,191,38,191,38,330,45,194,165,-0.261799,-0.261799,0,-1.5,0,0,0,0,0.755659,0.538935,0,0,0,0,0.140227,0.0961311,18060,0.751031,0.535762,0.140227,0.0961311,15373
15420,-3.76029e-12,0,-1.58997e-06,-3.89022e-12,0,-3.40903e-12,-1.13781e-13,0,0,-3.42209,0.486705,-0.511747,0,0,0,0,0,0.577913,0.486705,191,38,191,38,330,45,194,165,-0.261799,-0.261799,0,-1.5,0,0,0,0,0.757902,0.540473,0,0,0,0,0.140227,0.0961311,18060,0.751031,0.535762,0.140227,0.0961311,15373
15441,-3.76029e-12,0,-1.58997e-06,-3.89022e-12,0,0,-1.13781e-13,0,0,-3.42209,0.486705,-0.511747,0,0,0,0,0,0.577913,0.486705,191,38,191,38,330,45,194,165,-0.261799,-0.261799,0,-1.5,0,0,0,0,0.760847,0.542491,0,0,0,0,0.140227,0.0961311,18060,0.751031,0.535762,0.140227,0.0961311,15373
15477,-3.76029e-12,0,-1.58997e-06,-3.89022e-12,0,-3.40903e-12,-1.13782e-13,0,0,-3.42209,0.486705,-0.511747,0,0,0,0,0,0.577913,0.486705,191,38,191,38,330,45,194,165,-0.261799,-0.261799,0,-1.5,0,0,0,0,0.765895,0.545952,0,0,0,0,0.140227,0.0961311,18060,0.751031,0.535762,0.140227,0.0961311,15373
15494,-3.76029e-12,0,-1.58997e-06,-3.89022e-12,0,0,-1.13783e-13,0,0,-3.42209,0.486705,-0.511747,0,0,0,0,0,0.577913,0.486705,191,38,191,38,330,45,194,165,-0.261799,-0.261799,0,-1.5,0,0,0,0,0.768279,0.547586,0,0,0,0,0.140227,0.0961311,18060,0.751031,0.535762,0.140227,0.0961311,15373
15511,-3.76029e-12,0,-1.58997e-06,-3.89022e-12,0,-3.40903e-12,-1.13783e-13,0,0,-3.42209,0.486705,-0.511747,0,0,0,0,0,0.577913,0.486705,191,38,191,38,330,45,194,165,-0.261799,-0.261799,0,-1.5,0,0,0,0,0.770662,0.54922,0,0,0,0,0.140227,0.0961311,18060,0.751031,0.535762,0.140227,0.0961311,15373
15546,-3.76029e-12,0,-1.58997e-06,-3.89022e-12,0,0,-1.13784e-13,0,0,-3.42209,0.486705,-0.511747,0,0,0,0,0,0.577913,0.486705,191,38,191,38,330,45,194,165,-0.261799,-0.261799,0,-1.5,0,0,0,0,0.77557,0.552585,0,0,0,0,0.140227,0.0961311,18060,0.751031,0.535762,0.140227,0.0961311,15373
15567,-3.76029e-12,0,-1.58997e-06,-3.89022e-12,0,-3.40903e-12,-1.13784e-13,0,0,-3.42209,0.486705,-0.511747,0,0,0,0,0,0.577913,0.486705,191,38,191,38,330,45,194,165,-0.261799,-0.261799,0,-1.5,0,0,0,0,0.778515,0.554603,0,0,0,0,0.140227,0.0961311,18060,0.751031,0.535762,0.140227,0.0961311,15373
15584,-3.76029e-12,0,-1.58997e-06,-3.89022e-12,0,0,-1.13785e-13,0,0,-3.42209,0.486705,-0.511747,0,0,0,0,0,0.577913,0.486705,191,38,191,38,330,45,194,165,-0.261799,-0.261799,0,-1.5,0,0,0,0,0.780899,0.556238,0,0,0,0,0.140227,0.0961311,18060,0.751031,0.535762,0.140227,0.0961311,15373
15611,-3.76029e-12,0,-1.58997e-06,-3.89022e-12,0,-3.40903e-12,-1.13785e-13,0,0,-3.44814,-0.0796191,-0.482094,0,0,0,0,0,0.551862,-0.0796191,260,39,260,39,398,39,263,165,-0.261799,-0.261799,0,-1.5,0,0,0,0,0.74206,0.549144,0,0,0,0,0.0994613,0.0900417,17388,0.741265,0.548424,0.0994613,0.0900417,15605
15628,-3.76029e-12,0,-1.58997e-06,-3.89022e-12,0,0,-1.13786e-13,0,0,-3.44814,-0.0796191,-0.482094,0,0,0,0,0,0.551862,-0.0796191,260,39,260,39,398,39,263,165,-0.261799,-0.261799,0,-1.5,0,0,0,0,0.743751,0.550675,0,0,0,0,0.0994613,0.0900417,17388,0.741265,0.548424,0.0994613,0.0900417,15605
15655,-3.76029e-12,0,-1.58997e-06,-3.89022e-12,0,-3.40903e-12,-1.13786e-13,0,0,-3.44344,-0.0897537,-0.481392,0,0,0,0,0,0.55656,-0.0897537,260,39,260,39,398,39,265,166,-0.261799,-0.261799,0,-1.5,0,0,0,0,0.641227,0.556313,0,0,0,0,-0.0123389,0.0960199,17780,0.64156,0.55372,-0.0123389,0.0960199,15641
15672,-3.76029e-12,0,-1.58997e-06,-3.89022e-12,0,0,-1.13787e-13,0,0,-3.44344,-0.0897537,-0.481392,0,0,0,0,0,0.55656,-0.0897537,260,39,260,39,398,39,265,166,-0.261799,-0.261799,0,-1.5,0,0,0,0,0.641017,0.557945,0,0,0,0,-0.0123389,0.0960199,17780,0.64156,0.55372,-0.0123389,0.0960199,15641
15699,-3.76029e-12,0,-1.58997e-06,-3.89022e-12,0,-3.40903e-12,-1.13787e-13,0,0,-3.41118,-0.0929828,-0.491993,0,0,0,0,0,0.588821,-0.0929828,259,39,259,39,398,39,265,166,-0.261799,-0.261799,0,-1.5,0,0,0,0,0.600266,0.548167,0,0,0,0,-0.049789,0.0836843,18288,0.60161,0.545908,-0.049789,0.0836843,15685
15721,-3.76029e-12,0,-1.58997e-06,-3.89022e-12,0,0,-1.13788e-13,0,0,-3.46624,-0.0713654,-0.473782,0,0,0,0,0,0.533765,-0.0713653,259,39,259,39,395,39,263,166,-0.261799,-0.261799,0,-1.5,0,0,0,0,0.578262,0.537641,0,0,0,0,-0.0694146,0.0642947,17526,0.579789,0.536227,-0.0694146,0.0642947,15707
15739,-3.76029e-12,0,-1.58997e-06,-3.89022e-12,0,-3.40903e-12,-1.13789e-13,0,0,-3.46624,-0.0713654,-0.473782,0,0,0,0,0,0.533765,-0.0713653,259,39,259,39,395,39,263,166,-0.261799,-0.261799,0,-1.5,0,0,0,0,0.577013,0.538799,0,0,0,0,-0.0694146,0.0642947,17526,0.579789,0.536227,-0.0694146,0.0642947,15707
15760,-3.76029e-12,0,-1.58997e-06,-3.89022e-12,0,0,-1.13789e-13,0,0,-3.46624,-0.0713654,-0.473782,0,0,0,0,0,0.533765,-0.0713653,259,39,259,39,395,39,263,166,-0.261799,-0.261799,0,-1.5,0,0,0,0,0.575555,0.540149,0,0,0,0,-0.0694146,0.0642947,17526,0.579789,0.536227,-0.0694146,0.0642947,15707
15774,-3.76029e-12,0,-1.58997e-06,-3.89022e-12,0,-3.40903e-12,-1.1379e-13,0,0,-3.46624,-0.0713654,-0.473782,0,0,0,0,0,0.533765,-0.0713653,259,39,259,39,395,39,263,166,-0.261799,-0.261799,0,-1.5,0,0,0,0,0.574583,0.541049,0,0,0,0,-0.0694146,0.0642947,17526,0.579789,0.536227,-0.0694146,0.0642947,15707
15834,-3.76029e-12,0,-1.58997e-06,-3.89022e-12,0,0,-1.1379e-13,0,0,-3.46624,-0.0713654,-0.473782,0,0,0,0,0,0.533765,-0.0713653,259,39,259,39,395,39,263,166,-0.261799,-0.261799,0,-1.5,0,0,0,0,0.570419,0.544906,0,0,0,0,-0.0694146,0.0642947,17526,0.579789,0.536227,-0.0694146,0.0642947,15707
15869,-3.76029e-12,0,-1.58997e-06,-3.89022e-12,0,-3.40903e-12,-1.13791e-13,0,0,-3.46624,-0.0713654,-0.473782,0,0,0,0,0,0.533765,-0.0713653,259,39,259,39,395,39,263,166,-0.261799,-0.261799,0,-1.5,0,0,0,0,0.567989,0.547157,0,0,0,0,-0.0694146,0.0642947,17526,0.579789,0.536227,-0.0694146,0.0642947,15707
15891,-3.76029e-12,0,-1.58997e-06,-3.89022e-12,0,0,-1.13791e-13,0,0,-3.31698,-0.00671153,-0.503272,0,0,0,0,0,0.683019,-0.00671153,252,41,252,41,386,21,255,171,-0.261799,-0.261799,0,-1.5,0,0,0,0,0.564662,0.548066,0,0,0,0,-0.0740069,0.0540315,21000,0.56629,0.546877,-0.0740069,0.0540315,15877
15918,-3.76029e-12,0,-1.58997e-06,-3.89022e-12,0,-3.40903e-12,-1.13792e-13,0,0,-3.31072,-0.0146195,-0.507539,0,0,0,0,0,0.689277,-0.0146195,252,42,252,42,389,21,256,171,-0.261799,-0.261799,0,-1.5,0,0,0,0,0.57658,0.312919,0,0,0,0,-0.0629988,-0.135195,21000,0.577462,0.314812,-0.0629988,-0.135195,15906
15935,-3.76029e-12,0,-1.58997e-06,-3.89022e-12,0,0,-1.13792e-13,0,0,-3.31072,-0.0146195,-0.507539,0,0,0,0,0,0.689277,-0.0146195,252,42,252,42,389,21,256,171,-0.261799,-0.261799,0,-1.5,0,0,0,0,0.575572,0.310756,0,0,0,0,-0.0629988,-0.135195,21000,0.577462,0.314812,-0.0629988,-0.135195,15906
15956,-3.76029e-12,0,-1.58997e-06,-3.89022e-12,0,-3.40903e-12,-1.13793e-13,0,0,-3.31072,-0.0146195,-0.507539,0,0,0,0,0,0.689277,-0.0146195,252,42,252,42,389,21,256,171,-0.261799,-0.261799,0,-1.5,0,0,0,0,0.574249,0.307917,0,0,0,0,-0.0629988,-0.135195,21000,0.577462,0.314812,-0.0629988,-0.135195,15906
15972,-3.76029e-12,0,-1.58997e-06,-3.89022e-12,0,0,-1.13793e-13,0,0,-3.31072,-0.0146195,-0.507539,0,0,0,0,0,0.689277,-0.0146195,252,42,252,42,389,21,256,171,-0.261799,-0.261799,0,-1.5,0,0,0,0,0.573178,0.305619,0,0,0,0,-0.0629988,-0.135195,21000,0.577462,0.314812,-0.0629988,-0.135195,15906
16011,-3.76029e-12,0,-1.58997e-06,-3.89022e-12,0,-3.40903e-12,-1.13794e-13,0,0,-3.31072,-0.0146195,-0.507539,0,0,0,0,0,0.689277,-0.0146195,252,42,252,42,389,21,256,171,-0.261799,-0.261799,0,-1.5,0,0,0,0,0.570721,0.300346,0,0,0,0,-0.0629988,-0.135195,21000,0.577462,0.314812,-0.0629988,-0.135195,15906
16028,-3.76029e-12,0,-1.58997e-06,-3.89022e-12,0,0,-1.13794e-13,0,0,-3.31072,-0.0146195,-0.507539,0,0,0,0,0,0.689277,-0.0146195,252,42,252,42,389,21,256,171,-0.261799,-0.261799,0,-1.5,0,0,0,0,0.56965,0.298048,0,0,0,0,-0.0629988,-0.135195,21000,0.577462,0.314812,-0.0629988,-0.135195,15906
16050,-3.76029e-12,0,-1.58997e-06,-3.89022e-12,0,-3.40903e-12,-1.13795e-13,0,0,-3.27194,-0.0845386,-0.524703,0,0,0,0,0,0.728063,-0.0845386,260,41,260,41,397,21,264,171,0.261799,-0.261799,0,-1.5,0,0,0,0,0.670269,-0.0619048,0,0,0,0,-0.0035423,-0.377633,21450,0.670311,-0.0573733,-0.0035423,-0.377633,16041
16071,-3.76029e-12,0,-1.58997e-06,-3.89022e-12,0,0,-1.13796e-13,0,0,-3.27194,-0.0845386,-0.524703,0,0,0,0,0,0.728063,-0.0845386,260,41,260,41,397,21,264,171,0.261799,-0.261799,0,-1.5,0,0,0,0,0.670194,-0.0698349,0,0,0,0,-0.0035423,-0.377633,21450,0.670311,-0.0573733,-0.0035423,-0.377633,16041
16124,-3.76029e-12,0,-1.58997e-06,-3.89022e-12,0,-3.40903e-12,-1.13796e-13,0,0,-3.40186,-0.168911,-0.509698,0,0,0,0,0,0.598136,-0.168911,270,43,270,43,409,38,272,167,0.261799,-0.261799,0,-1.5,0,0,0,0,0.595577,-0.101165,0,0,0,0,-0.0447404,-0.386405,18189,0.597948,-0.0806856,-0.0447404,-0.386405,16110
16146,-3.76029e-12,0,-1.58997e-06,-3.89022e-12,0,0,-1.13797e-13,0,0,-3.40186,-0.168911,-0.509698,0,0,0,0,0,0.598136,-0.168911,270,43,270,43,409,38,272,167,0.261799,-0.261799,0,-1.5,0,0,0,0,0.594592,-0.109665,0,0,0,0,-0.0447404,-0.386405,18189,0.597948,-0.0806856,-0.0447404,-0.386405,16110
16159,-3.76029e-12,0,-1.58997e-06,-3.89022e-12,0,-3.40903e-12,-1.13797e-13,0,0,-3.40186,-0.168911,-0.509698,0,0,0,0,0,0.598136,-0.168911,270,43,270,43,409,38,272,167,0.261799,-0.261799,0,-1.5,0,0,0,0,0.594011,-0.114689,0,0,0,0,-0.0447404,-0.386405,18189,0.597948,-0.0806856,-0.0447404,-0.386405,16110
16178,-3.76029e-12,0,-1.58997e-06,-3.89022e-12,0,0,-1.13798e-13,0,0,-3.40186,-0.168911,-0.509698,0,0,0,0,0,0.598136,-0.168911,270,43,270,43,409,38,272,167,0.261799,-0.261799,0,-1.5,0,0,0,0,0.593161,-0.12203,0,0,0,0,-0.0447404,-0.386405,18189,0.597948,-0.0806856,-0.0447404,-0.386405,16110
16195,-3.76029e-12,0,-1.58997e-06,-3.89022e-12,0,-3.40903e-12,-1.13798e-13,0,0,-3.40186,-0.168911,-0.509698,0,0,0,0,0,0.598136,-0.168911,270,43,270,43,409,38,272,167,0.261799,-0.261799,0,-1.5,0,0,0,0,0.592445,-0.128212,0,0,0,0,-0.0447404,-0.386405,18189,0.597948,-0.0806856,-0.0447404,-0.386405,16110
16217,-3.76029e-12,0,-1.58997e-06,-3.89022e-12,0,0,-1.13799e-13,0,0,-3.44555,-0.194632,-0.480596,0,0,0,0,0,0.554452,-0.194632,274,40,274,40,411,38,276,165,0.261799,-0.261799,0,-1.5,0,0,0,0,0.588369,-0.145165,0,0,0,0,-0.0500621,-0.402174,17526,0.58907,-0.139534,-0.0500621,-0.402174,16205
16244,-3.76029e-12,0,-1.58997e-06,-3.89022e-12,0,-3.40903e-12,-1.13799e-13,0,0,-3.43096,-0.185685,-0.485596,0,0,0,0,0,0.569037,-0.185685,271,40,271,40,411,38,276,163,0.261799,-0.261799,0,-1.5,0,0,0,0,0.574386,-0.183596,0,0,0,0,-0.0554447,-0.448858,17500,0.57483,-0.180005,-0.0554447,-0.448858,16238
16261,-3.76029e-12,0,-1.58997e-06,-3.89022e-12,0,0,-1.138e-13,0,0,-3.43096,-0.185685,-0.485596,0,0,0,0,0,0.569037,-0.185685,271,40,271,40,411,38,276,163,0.261799,-0.261799,0,-1.5,0,0,0,0,0.573444,-0.191227,0,0,0,0,-0.0554447,-0.448858,17500,0.57483,-0.180005,-0.0554447,-0.448858,16238
16288,-3.76029e-12,0,-1.58997e-06,-3.89022e-12,0,-3.40903e-12,-1.138e-13,0,0,-3.44262,-0.196464,-0.479322,0,0,0,0,0,0.55738,-0.196464,274,40,274,40,411,38,276,165,0.261799,-0.261799,0,-1.5,0,0,0,0,0.56153,-0.200931,0,0,0,0,-0.0603429,-0.460719,17653,0.563159,-0.188491,-0.0603429,-0.460719,16274
16305,-3.76029e-12,0,-1.58997e-06,-3.89022e-12,0,0,-1.13801e-13,0,0,-3.44262,-0.196464,-0.479322,0,0,0,0,0,0.55738,-0.196464,274,40,274,40,411,38,276,165,0.261799,-0.261799,0,-1.5,0,0,0,0,0.560504,-0.208762,0,0,0,0,-0.0603429,-0.460719,17653,0.563159,-0.188491,-0.0603429,-0.460719,16274
16442,-3.76029e-12,0,-1.58997e-06,-3.89022e-12,0,-3.40903e-12,-1.13802e-13,0,0,-3.39839,-0.197989,-0.46827,0,0,0,0,0,0.601605,-0.197989,275,28,275,28,411,38,277,163,0.261799,-0.261799,0,-1.5,0,0,0,0,0.555149,-0.276368,0,0,0,0,-0.0614602,-0.469373,18495,0.563569,-0.212063,-0.0614602,-0.469373,16318
16459,-3.76029e-12,0,-1.58997e-06,-3.89022e-12,0,0,-1.13802e-13,0,0,-3.39839,-0.197989,-0.46827,0,0,0,0,0,0.601605,-0.197989,275,28,275,28,411,38,277,163,0.261799,-0.261799,0,-1.5,0,0,0,0,0.554104,-0.284347,0,0,0,0,-0.0614602,-0.469373,18495,0.563569,-0.212063,-0.0614602,-0.469373,16318
16481,-3.76029e-12,0,-1.58997e-06,-3.89022e-12,0,-3.40903e-12,-1.13803e-13,0,0,-3.44272,-0.19878,-0.477276,0,0,0,0,0,0.557278,-0.19878,274,40,274,40,413,38,276,163,0.261799,-0.261799,0,-1.5,0,0,0,0,0.558631,-0.29602,0,0,0,0,-0.0540538,-0.475642,17375,0.559118,-0.29174,-0.0540538,-0.475642,16474
16520,-3.76029e-12,0,-1.58997e-06,-3.89022e-12,0,0,-1.13803e-13,0,0,-3.44272,-0.19878,-0.477276,0,0,0,0,0,0.557278,-0.19878,274,40,274,40,413,38,276,163,0.261799,-0.261799,0,-1.5,0,0,0,0,0.556523,-0.31457,0,0,0,0,-0.0540538,-0.475642,17375,0.559118,-0.29174,-0.0540538,-0.475642,16474
16536,-3.76029e-12,0,-1.58997e-06,-3.89022e-12,0,-3.40903e-12,-1.13804e-13,0,0,-3.44272,-0.19878,-0.477276,0,0,0,0,0,0.557278,-0.19878,274,40,274,40,413,38,276,163,0.261799,-0.261799,0,-1.5,0,0,0,0,0.555659,-0.32218,0,0,0,0,-0.0540538,-0.475642,17375,0.559118,-0.29174,-0.0540538,-0.475642,16474
16553,-3.76029e-12,0,-1.58997e-06,-3.89022e-12,0,0,-1.13804e-13,0,0,-3.44272,-0.19878,-0.477276,0,0,0,0,0,0.557278,-0.19878,274,40,274,40,413,38,276,163,0.261799,-0.261799,0,-1.5,0,0,0,0,0.55474,-0.330266,0,0,0,0,-0.0540538,-0.475642,17375,0.559118,-0.29174,-0.0540538,-0.475642,16474
16567,-3.76029e-12,0,-1.58997e-06,-3.89022e-12,0,-3.40903e-12,-1.13805e-13,0,0,-3.44272,-0.19878,-0.477276,0,0,0,0,0,0.557278,-0.19878,274,40,274,40,413,38,276,163,0.261799,-0.261799,0,-1.5,0,0,0,0,0.553983,-0.336925,0,0,0,0,-0.0540538,-0.475642,17375,0.559118,-0.29174,-0.0540538,-0.475642,16474
16584,-3.76029e-12,0,-1.58997e-06,-3.89022e-12,0,0,-1.13805e-13,0,0,-3.44272,-0.19878,-0.477276,0,0,0,0,0,0.557278,-0.19878,274,40,274,40,413,38,276,163,0.261799,-0.261799,0,-1.5,0,0,0,0,0.553064,-0.345011,0,0,0,0,-0.0540538,-0.475642,17375,0.559118,-0.29174,-0.0540538,-0.475642,16474
16601,-3.76029e-12,0,-1.58997e-06,-3.89022e-12,0,-3.40903e-12,-1.13806e-13,0,0,-3.44272,-0.19878,-0.477276,0,0,0,0,0,0.557278,-0.19878,274,40,274,40,413,38,276,163,0.261799,-0.261799,0,-1.5,0,0,0,0,0.552145,-0.353096,0,0,0,0,-0.0540538,-0.475642,17375,0.559118,-0.29174,-0.0540538,-0.475642,16474
16618,-3.76029e-12,0,-1.58997e-06,-3.89022e-12,0,0,-1.13806e-13,0,0,-3.44272,-0.19878,-0.477276,0,0,0,0,0,0.557278,-0.19878,274,40,274,40,413,38,276,163,0.261799,-0.261799,0,-1.5,0,0,0,0,0.551226,-0.361182,0,0,0,0,-0.0540538,-0.475642,17375,0.559118,-0.29174,-0.0540538,-0.475642,16474
16639,-3.76029e-12,0,-1.58997e-06,-3.89022e-12,0,-3.40903e-12,-1.13807e-13,0,0,-3.44272,-0.19878,-0.477276,0,0,0,0,0,0.557278,-0.19878,274,40,274,40,413,38,276,163,0.261799,-0.261799,0,-1.5,0,0,0,0,0.550091,-0.37117,0,0,0,0,-0.0540538,-0.475642,17375,0.559118,-0.29174,-0.0540538,-0.475642,16474
16656,-3.76029e-12,0,-1.58997e-06,-3.89022e-12,0,0,-1.13808e-13,0,0,-3.44272,-0.19878,-0.477276,0,0,0,0,0,0.557278,-0.19878,274,40,274,40,413,38,276,163,0.261799,-0.261799,0,-1.5,0,0,0,0,0.549172,-0.379256,0,0,0,0,-0.0540538,-0.475642,17375,0.559118,-0.29174,-0.0540538,-0.475642,16474
16717,-3.76029e-12,0,-1.58997e-06,-3.89022e-12,0,-3.40903e-12,-1.13808e-13,0,0,-3.44272,-0.19878,-0.477276,0,0,0,0,0,0.557278,-0.19878,274,40,274,40,413,38,276,163,0.261799,-0.261799,0,-1.5,0,0,0,0,0.545929,-0.407794,0,0,0,0,-0.0540538,-0.475642,17375,0.559118,-0.29174,-0.0540538,-0.475642,16474
16733,-3.76029e-12,0,-1.58997e-06,-3.89022e-12,0,0,-1.13809e-13,0,0,-3.44272,-0.19878,-0.477276,0,0,0,0,0,0.557278,-0.19878,274,40,274,40,413,38,276,163,0.261799,-0.261799,0,-1.5,0,0,0,0,0.54501,-0.41588,0,0,0,0,-0.0540538,-0.475642,17375,0.559118,-0.29174,-0.0540538,-0.475642,16474
16785,-3.76029e-12,0,-1.58997e-06,-3.89022e-12,0,-3.40903e-12,-1.13809e-13,0,0,-3.44272,-0.19878,-0.477276,0,0,0,0,0,0.557278,-0.19878,274,40,274,40,413,38,276,163,0.261799,-0.261799,0,-1.5,0,0,0,0,0.542199,-0.440613,0,0,0,0,-0.0540538,-0.475642,17375,0.559118,-0.29174,-0.0540538,-0.475642,16474
16833,-3.76029e-12,0,-1.58997e-06,-3.89022e-12,0,0,-1.1381e-13,0,0,-3.44272,-0.19878,-0.477276,0,0,0,0,0,0.557278,-0.19878,274,40,274,40,413,38,276,163,0.261799,-0.261799,0,-1.5,0,0,0,0,0.539605,-0.463444,0,0,0,0,-0.0540538,-0.475642,17375,0.559118,-0.29174,-0.0540538,-0.475642,16474
16850,-3.76029e-12,0,-1.58997e-06,-3.89022e-12,0,-3.40903e-12,-1.1381e-13,0,0,-3.44272,-0.19878,-0.477276,0,0,0,0,0,0.557278,-0.19878,274,40,274,40,413,38,276,163,0.261799,-0.261799,0,-1.5,0,0,0,0,0.538686,-0.47153,0,0,0,0,-0.0540538,-0.475642,17375,0.559118,-0.29174,-0.0540538,-0.475642,16474
16871,-3.76029e-12,0,-1.58997e-06,-3.89022e-12,0,0,-1.13811e-13,0,0,-3.44272,-0.19878,-0.477276,0,0,0,0,0,0.557278,-0.19878,274,40,274,40,413,38,276,163,0.261799,-0.261799,0,-1.5,0,0,0,0,0.537605,-0.481043,0,0,0,0,-0.0540538,-0.475642,17375,0.559118,-0.29174,-0.0540538,-0.475642,16474
16887,-3.76029e-12,0,-1.58997e-06,-3.89022e-12,0,-3.40903e-12,-1.13811e-13,0,0,-3.44272,-0.19878,-0.477276,0,0,0,0,0,0.557278,-0.19878,274,40,274,40,413,38,276,163,0.261799,-0.261799,0,-1.5,0,0,0,0,0.536686,-0.489128,0,0,0,0,-0.0540538,-0.475642,17375,0.559118,-0.29174,-0.0540538,-0.475642,16474
16909,-3.76029e-12,0,-1.58997e-06,-3.89022e-12,0,0,-1.13812e-13,0,0,-3.44272,-0.19878,-0.477276,0,0,0,0,0,0.557278,-0.19878,274,40,274,40,413,38,276,163,0.261799,-0.261799,0,-1.5,0,0,0,0,0.535497,-0.499592,0,0,0,0,-0.0540538,-0.475642,17375,0.559118,-0.29174,-0.0540538,-0.475642,16474
16933,-3.76029e-12,0,-1.58997e-06,-3.89022e-12,0,-3.40903e-12,-1.13812e-13,0,0,-3.44272,-0.19878,-0.477276,0,0,0,0,0,0.557278,-0.19878,274,40,274,40,413,38,276,163,0.261799,-0.261799,0,-1.5,0,0,0,0,0.5342,-0.511007,0,0,0,0,-0.0540538,-0.475642,17375,0.559118,-0.29174,-0.0540538,-0.475642,16474
16950,-3.76029e-12,0,-1.58997e-06,-3.89022e-12,0,0,-1.13813e-13,0,0,-3.44272,-0.19878,-0.477276,0,0,0,0,0,0.557278,-0.19878,274,40,274,40,413,38,276,163,0.261799,-0.261799,0,-1.5,0,0,0,0,0.533281,-0.519093,0,0,0,0,-0.0540538,-0.475642,17375,0.559118,-0.29174,-0.0540538,-0.475642,16474
16967,-3.76029e-12,0,-1.58997e-06,-3.89022e-12,0,-3.40903e-12,-1.13813e-13,0,0,-3.44272,-0.19878,-0.477276,0,0,0,0,0,0.557278,-0.19878,274,40,274,40,413,38,276,163,0.261799,-0.261799,0,-1.5,0,0,0,0,0.532362,-0.527179,0,0,0,0,-0.0540538,-0.475642,17375,0.559118,-0.29174,-0.0540538,-0.475642,16474
16984,-3.76029e-12,0,-1.58997e-06,-3.89022e-12,0,0,-1.13814e-13,0,0,-3.44272,-0.19878,-0.477276,0.531444,-0.535255,-0.0538379,-0.473743,0,0.557278,-0.19878,274,40,274,40,413,38,276,163,0.261799,-0.261799,0,-1.5,0,0,0,0,0.531444,-0.535255,0,0,0,0,-0.0538379,-0.473743,17375,0,0,0,0,16474
17005,-3.76029e-12,0,-1.58997e-06,-3.89022e-12,0,-3.40903e-12,-1.13815e-13,0,0,-3.44272,-0.19878,-0.477276,0.530322,-0.545129,-0.0532743,-0.468784,0,0.557278,-0.19878,274,40,274,40,413,38,276,163,0.261799,-0.261799,0,-1.5,0,0,0,0,0.530322,-0.545129,0,0,0,0,-0.0532743,-0.468784,17375,0,0,0,0,16474
17022,-3.76029e-12,0,-1.58997e-06,-3.89022e-12,0,0,-1.13815e-13,0,0,-3.44272,-0.19878,-0.477276,0.529421,-0.553055,-0.0528228,-0.464811,0,0.557278,-0.19878,274,40,274,40,413,38,276,163,0.261799,-0.261799,0,-1.5,0,0,0,0,0.529421,-0.553055,0,0,0,0,-0.0528228,-0.464811,17375,0,0,0,0,16474
17044,-3.76029e-12,0,-1.58997e-06,-3.89022e-12,0,-3.40903e-12,-1.13816e-13,0,0,-3.44272,-0.19878,-0.477276,0.528268,-0.563203,-0.0522437,-0.459715,0,0.557278,-0.19878,274,40,274,40,413,38,276,163,0.261799,-0.261799,0,-1.5,0,0,0,0,0.528268,-0.563203,0,0,0,0,-0.0522437,-0.459715,17375,0,0,0,0,16474
