timestamp,A_x,A_y,A_z,P,Q,R,Phi,Theta,Psi,poseX,poseY,poseZ,state_X,state_Y,state_Z,state_VzB,state_Bx,state_By,state_Bz,p1_x,p1_y,p2_x,p2_y,p3_x,p3_y,p4_x,p4_y,roll,pitch,yaw,alt,targetHeading,highLevelState,lowLevelState,gateNumber,filtered_x,filtered_y
10,0,0,0,0,0,0,0,0,0,0,0,0,0,0,0,0,0,0,0,0,0,0,0,0,0,0,0,0,-0.261799,-0.00779127,-1.5,3.94113e+12,0,0,3,0,0
20,-3.21065e-12,0,-1.5327e-06,-3.27738e-12,0,0,-1.06589e-13,0,0,0,0,0,0,0,0,0,0,0,0,0,0,0,0,0,0,0,0,0,-0.261799,0.000107343,-1.5,3.94113e+12,0,0,3,0,0
30,-3.21065e-12,0,-1.5327e-06,-3.27738e-12,0,-3.40903e-12,-1.0659e-13,0,0,0,0,0,0,0,0,0,0,0,0,0,0,0,0,0,0,0,0,0,-0.261799,9.36166e-05,-1.5,3.94113e+12,0,0,3,0,0
40,-3.21065e-12,0,-1.5327e-06,-3.27738e-12,0,0,-1.0659e-13,0,0,0,0,0,0,0,0,0,0,0,0,0,0,0,0,0,0,0,0,0,-0.261799,-0.000100034,-1.5,3.94113e+12,0,0,3,0,0
50,-3.21065e-12,0,-1.5327e-06,-3.27738e-12,0,-3.40903e-12,-1.0659e-13,0,0,0,0,0,0,0,0,0,0,0,0,0,0,0,0,0,0,0,0,0,-0.261799,-9.58871e-05,-1.5,3.94113e+12,0,0,3,0,0
60,-3.21065e-12,0,-1.5327e-06,-3.27738e-12,0,0,-1.0659e-13,0,0,0,0,0,0,0,0,0,0,0,0,0,0,0,0,0,0,0,0,0,-0.261799,-9.19125e-05,-1.5,3.94113e+12,0,0,3,0,0
70,-3.21065e-12,0,-1.5327e-06,-3.27738e-12,0,-3.40903e-12,-1.06591e-13,0,0,0,0,0,0,0,0,0,0,0,0,0,0,0,0,0,0,0,0,0,-0.261799,-8.8099e-05,-1.5,3.94113e+12,0,0,3,0,0
80,-3.21065e-12,0,-1.5327e-06,-3.27738e-12,0,0,-1.06591e-13,0,0,0,0,0,0,0,0,0,0,0,0,0,0,0,0,0,0,0,0,0,-0.261799,-8.44437e-05,-1.5,3.94113e+12,0,0,3,0,0
90,-3.21065e-12,0,-1.5327e-06,-3.27738e-12,0,-3.40903e-12,-1.06591e-13,0,0,0,0,0,0,0,0,0,0,0,0,0,0,0,0,0,0,0,0,0,-0.261799,-8.094e-05,-1.5,3.94113e+12,0,0,3,0,0
100,-3.21065e-12,0,-1.5327e-06,-3.27738e-12,0,0,-1.06591e-13,0,0,0,0,0,0,0,0,0,0,0,0,0,0,0,0,0,0,0,0,0,-0.261799,-7.75818e-05,-1.5,3.94113e+12,0,0,3,0,0
110,-3.21065e-12,0,-1.5327e-06,-3.27738e-12,0,-3.40903e-12,-1.06592e-13,0,0,0,0,0,0,0,0,0,0,0,0,0,0,0,0,0,0,0,0,0,-0.261799,-7.43629e-05,-1.5,3.94113e+12,0,0,3,0,0
120,-3.21065e-12,0,-1.5327e-06,-3.27738e-12,0,0,-1.06592e-13,0,0,0,0,0,0,0,0,0,0,0,0,0,0,0,0,0,0,0,0,0,-0.261799,-7.12775e-05,-1.5,3.94113e+12,0,0,3,0,0
130,-3.21065e-12,0,-1.5327e-06,-3.27738e-12,0,-3.40903e-12,-1.06592e-13,0,0,0,0,0,0,0,0,0,0,0,0,0,0,0,0,0,0,0,0,0,-0.261799,-6.83201e-05,-1.5,3.94113e+12,0,0,3,0,0
140,-3.21065e-12,0,-1.5327e-06,-3.27738e-12,0,0,-1.06593e-13,0,0,0,0,0,0,0,0,0,0,0,0,0,0,0,0,0,0,0,0,0,-0.261799,-6.5354e-05,-1.5,3.94113e+12,0,0,3,0,0
150,-3.21065e-12,0,-1.5327e-06,-3.27738e-12,0,-3.40903e-12,-1.06593e-13,0,0,0,0,0,0,0,0,0,0,0,0,0,0,0,0,0,0,0,0,0,-0.261799,-6.00776e-05,-1.5,3.94113e+12,0,0,3,0,0
160,-3.21065e-12,0,-1.5327e-06,-3.27738e-12,0,0,-1.06593e-13,0,0,0,0,0,0,0,0,0,0,0,0,0,0,0,0,0,0,0,0,0,-0.261799,-5.80579e-05,-1.5,3.94113e+12,0,0,3,0,0
170,-3.21065e-12,0,-1.5327e-06,-3.27738e-12,0,-3.40903e-12,-1.06593e-13,0,0,0,0,0,0,0,0,0,0,0,0,0,0,0,0,0,0,0,0,0,-0.261799,-5.67917e-05,-1.5,3.94113e+12,0,0,3,0,0
180,-3.21065e-12,0,-1.5327e-06,-3.27738e-12,0,0,-1.06594e-13,0,0,0,0,0,0,0,0,0,0,0,0,0,0,0,0,0,0,0,0,0,-0.261799,-5.54414e-05,-1.5,3.94113e+12,0,0,3,0,0
190,-3.21065e-12,0,-1.5327e-06,-3.27738e-12,0,-3.40903e-12,-1.06594e-13,0,0,0,0,0,0,0,0,0,0,0,0,0,0,0,0,0,0,0,0,0,-0.261799,-5.4014e-05,-1.5,3.94113e+12,0,0,3,0,0
200,-3.21065e-12,0,-1.5327e-06,-3.27738e-12,0,0,-1.06594e-13,0,0,0,0,0,0,0,0,0,0,0,0,0,0,0,0,0,0,0,0,0,-0.261799,-5.25171e-05,-1.5,3.94113e+12,0,0,3,0,0
210,-3.21065e-12,0,-1.5327e-06,-3.27738e-12,0,-3.40903e-12,-1.06594e-13,0,0,0,0,0,0,0,0,0,0,0,0,0,0,0,0,0,0,0,0,0,-0.261799,-5.03381e-05,-1.5,3.94113e+12,0,0,3,0,0
220,-3.21065e-12,0,-1.5327e-06,-3.27738e-12,0,0,-1.06595e-13,0,0,0,0,0,0,0,0,0,0,0,0,0,0,0,0,0,0,0,0,0,-0.261799,-4.83504e-05,-1.5,3.94113e+12,0,0,3,0,0
230,-3.21065e-12,0,-1.5327e-06,-3.27738e-12,0,-3.40903e-12,-1.06595e-13,0,0,0,0,0,0,0,0,0,0,0,0,0,0,0,0,0,0,0,0,0,-0.261799,-4.64395e-05,-1.5,3.94113e+12,0,0,3,0,0
240,-3.21065e-12,0,-1.5327e-06,-3.27738e-12,0,0,-1.06595e-13,0,0,0,0,0,0,0,0,0,0,0,0,0,0,0,0,0,0,0,0,0,-0.261799,-4.44213e-05,-1.5,3.94113e+12,0,0,3,0,0
250,-3.21065e-12,0,-1.5327e-06,-3.27738e-12,0,-3.40903e-12,-1.06596e-13,0,0,0,0,0,0,0,0,0,0,0,0,0,0,0,0,0,0,0,0,0,-0.261799,-4.258e-05,-1.5,3.94113e+12,0,0,3,0,0
260,-3.21065e-12,0,-1.5327e-06,-3.27738e-12,0,0,-1.06596e-13,0,0,0,0,0,0,0,0,0,0,0,0,0,0,0,0,0,0,0,0,0,-0.261799,-4.08971e-05,-1.5,3.94113e+12,0,0,3,0,0
270,-3.21065e-12,0,-1.5327e-06,-3.27738e-12,0,-3.40903e-12,-1.06596e-13,0,0,0,0,0,0,0,0,0,0,0,0,0,0,0,0,0,0,0,0,0,-0.261799,-3.97642e-05,-1.5,3.94113e+12,0,0,3,0,0
280,-3.21065e-12,0,-1.5327e-06,-3.27738e-12,0,0,-1.06596e-13,0,0,0,0,0,0,0,0,0,0,0,0,0,0,0,0,0,0,0,0,0,-0.261799,-3.87404e-05,-1.5,3.94113e+12,0,0,3,0,0
290,-3.21065e-12,0,-1.5327e-06,-3.27738e-12,0,-3.40903e-12,-1.06597e-13,0,0,0,0,0,0,0,0,0,0,0,0,0,0,0,0,0,0,0,0,0,-0.261799,-3.74381e-05,-1.5,3.94113e+12,0,0,3,0,0
300,-3.21065e-12,0,-1.5327e-06,-3.27738e-12,0,0,-1.06597e-13,0,0,0,0,0,0,0,0,0,0,0,0,0,0,0,0,0,0,0,0,0,-0.261799,-3.59584e-05,-1.5,3.94113e+12,0,0,3,0,0
310,-3.21065e-12,0,-1.5327e-06,-3.27738e-12,0,-3.40903e-12,-1.06597e-13,0,0,0,0,0,0,0,0,0,0,0,0,0,0,0,0,0,0,0,0,0,-0.261799,-3.43957e-05,-1.5,3.94113e+12,0,0,3,0,0
320,-3.21065e-12,0,-1.5327e-06,-3.27738e-12,0,0,-1.06597e-13,0,0,0,0,0,0,0,0,0,0,0,0,0,0,0,0,0,0,0,0,0,-0.261799,-3.297e-05,-1.5,3.94113e+12,0,0,3,0,0
330,-3.21065e-12,0,-1.5327e-06,-3.27738e-12,0,-3.40903e-12,-1.06598e-13,0,0,0,0,0,0,0,0,0,0,0,0,0,0,0,0,0,0,0,0,0,-0.261799,-3.15371e-05,-1.5,3.94113e+12,0,0,3,0,0
340,-3.21065e-12,0,-1.5327e-06,-3.27738e-12,0,0,-1.06598e-13,0,0,0,0,0,0,0,0,0,0,0,0,0,0,0,0,0,0,0,0,0,-0.261799,-3.02907e-05,-1.5,3.94113e+12,0,0,3,0,0
350,-3.21065e-12,0,-1.5327e-06,-3.27738e-12,0,-3.40903e-12,-1.06598e-13,0,0,0,0,0,0,0,0,0,0,0,0,0,0,0,0,0,0,0,0,0,-0.261799,-2.89161e-05,-1.5,3.94113e+12,0,0,3,0,0
360,-3.21065e-12,0,-1.5327e-06,-3.27738e-12,0,0,-1.06599e-13,0,0,0,0,0,0,0,0,0,0,0,0,0,0,0,0,0,0,0,0,0,-0.261799,-2.77743e-05,-1.5,3.94113e+12,0,0,3,0,0
370,-3.21065e-12,0,-1.5327e-06,-3.27738e-12,0,-3.40903e-12,-1.06599e-13,0,0,0,0,0,0,0,0,0,0,0,0,0,0,0,0,0,0,0,0,0,-0.261799,-2.65672e-05,-1.5,3.94113e+12,0,0,3,0,0
380,-3.21065e-12,0,-1.5327e-06,-3.27738e-12,0,0,-1.06599e-13,0,0,0,0,0,0,0,0,0,0,0,0,0,0,0,0,0,0,0,0,0,-0.261799,-2.5465e-05,-1.5,3.94113e+12,0,0,3,0,0
390,-3.21065e-12,0,-1.5327e-06,-3.27738e-12,0,-3.40903e-12,-1.06599e-13,0,0,0,0,0,0,0,0,0,0,0,0,0,0,0,0,0,0,0,0,0,-0.261799,-2.43583e-05,-1.5,3.94113e+12,0,0,3,0,0
400,-3.21065e-12,0,-1.5327e-06,-3.27738e-12,0,0,-1.066e-13,0,0,0,0,0,0,0,0,0,0,0,0,0,0,0,0,0,0,0,0,0,-0.261799,-2.33486e-05,-1.5,3.94113e+12,0,0,3,0,0
410,-3.21065e-12,0,-1.5327e-06,-3.27738e-12,0,-3.40903e-12,-1.066e-13,0,0,0,0,0,0,0,0,0,0,0,0,0,0,0,0,0,0,0,0,0,-0.261799,-2.23339e-05,-1.5,3.94113e+12,0,0,3,0,0
420,-3.21065e-12,0,-1.5327e-06,-3.27738e-12,0,0,-1.066e-13,0,0,0,0,0,0,0,0,0,0,0,0,0,0,0,0,0,0,0,0,0,-0.261799,-2.14512e-05,-1.5,3.94113e+12,0,0,3,0,0
430,-3.21065e-12,0,-1.5327e-06,-3.27738e-12,0,-3.40903e-12,-1.066e-13,0,0,0,0,0,0,0,0,0,0,0,0,0,0,0,0,0,0,0,0,0,-0.261799,-2.04778e-05,-1.5,3.94113e+12,0,0,3,0,0
440,-3.21065e-12,0,-1.5327e-06,-3.27738e-12,0,0,-1.06601e-13,0,0,0,0,0,0,0,0,0,0,0,0,0,0,0,0,0,0,0,0,0,-0.261799,-1.96691e-05,-1.5,3.94113e+12,0,0,3,0,0
450,-3.21065e-12,0,-1.5327e-06,-3.27738e-12,0,-3.40903e-12,-1.06601e-13,0,0,0,0,0,0,0,0,0,0,0,0,0,0,0,0,0,0,0,0,0,-0.261799,-1.88152e-05,-1.5,3.94113e+12,0,0,3,0,0
460,-3.21065e-12,0,-1.5327e-06,-3.27738e-12,0,0,-1.06601e-13,0,0,0,0,0,0,0,0,0,0,0,0,0,0,0,0,0,0,0,0,0,-0.261799,-1.80716e-05,-1.5,3.94113e+12,0,0,3,0,0
470,-3.21065e-12,0,-1.5327e-06,-3.27738e-12,0,-3.40903e-12,-1.06602e-13,0,0,0,0,0,0,0,0,0,0,0,0,0,0,0,0,0,0,0,0,0,-0.261799,-1.72515e-05,-1.5,3.94113e+12,0,0,3,0,0
480,-3.21065e-12,0,-1.5327e-06,-3.27738e-12,0,0,-1.06602e-13,0,0,0,0,0,0,0,0,0,0,0,0,0,0,0,0,0,0,0,0,0,-0.261799,-1.65697e-05,-1.5,3.94113e+12,0,0,3,0,0
490,-3.21065e-12,0,-1.5327e-06,-3.27738e-12,0,-3.40903e-12,-1.06602e-13,0,0,0,0,0,0,0,0,0,0,0,0,0,0,0,0,0,0,0,0,0,-0.261799,-1.58177e-05,-1.5,3.94113e+12,0,0,3,0,0
500,-3.21065e-12,0,-1.5327e-06,-3.27738e-12,0,0,-1.06602e-13,0,0,0,0,0,0,0,0,0,0,0,0,0,0,0,0,0,0,0,0,0,-0.261799,-1.52237e-05,-1.5,3.94113e+12,0,0,3,0,0
510,-3.21065e-12,0,-1.5327e-06,-3.27738e-12,0,-3.40903e-12,-1.06603e-13,0,0,0,0,0,0,0,0,0,0,0,0,0,0,0,0,0,0,0,0,0,-0.261799,-1.45321e-05,-1.5,3.94113e+12,0,0,3,0,0
520,-3.21065e-12,0,-1.5327e-06,-3.27738e-12,0,0,-1.06603e-13,0,0,0,0,0,0,0,0,0,0,0,0,0,0,0,0,0,0,0,0,0,-0.261799,-1.3872e-05,-1.5,3.94113e+12,0,0,3,0,0
530,-3.21065e-12,0,-1.5327e-06,-3.27738e-12,0,-3.40903e-12,-1.06603e-13,0,0,0,0,0,0,0,0,0,0,0,0,0,0,0,0,0,0,0,0,0,-0.261799,-1.34332e-05,-1.5,3.94113e+12,0,0,3,0,0
540,-3.21065e-12,0,-1.5327e-06,-3.27738e-12,0,0,-1.06603e-13,0,0,0,0,0,0,0,0,0,0,0,0,0,0,0,0,0,0,0,0,0,-0.261799,-1.29816e-05,-1.5,3.94113e+12,0,0,3,0,0
550,-3.21065e-12,0,-1.5327e-06,-3.27738e-12,0,-3.40903e-12,-1.06604e-13,0,0,0,0,0,0,0,0,0,0,0,0,0,0,0,0,0,0,0,0,0,-0.261799,-1.25963e-05,-1.5,3.94113e+12,0,0,3,0,0
560,-3.21065e-12,0,-1.5327e-06,-3.27738e-12,0,0,-1.06604e-13,0,0,0,0,0,0,0,0,0,0,0,0,0,0,0,0,0,0,0,0,0,-0.261799,-1.20489e-05,-1.5,3.94113e+12,0,0,3,0,0
570,-3.21065e-12,0,-1.5327e-06,-3.27738e-12,0,-3.40903e-12,-1.06604e-13,0,0,0,0,0,0,0,0,0,0,0,0,0,0,0,0,0,0,0,0,0,-0.261799,-1.1549e-05,-1.5,3.94113e+12,0,0,3,0,0
580,-3.21065e-12,0,-1.5327e-06,-3.27738e-12,0,0,-1.06605e-13,0,0,0,0,0,0,0,0,0,0,0,0,0,0,0,0,0,0,0,0,0,-0.261799,-1.10476e-05,-1.5,3.94113e+12,0,0,3,0,0
590,-3.21065e-12,0,-1.5327e-06,-3.27738e-12,0,-3.40903e-12,-1.06605e-13,0,0,0,0,0,0,0,0,0,0,0,0,0,0,0,0,0,0,0,0,0,-0.261799,-1.05892e-05,-1.5,3.94113e+12,0,0,3,0,0
600,-3.21065e-12,0,-1.5327e-06,-3.27738e-12,0,0,-1.06605e-13,0,0,0,0,0,0,0,0,0,0,0,0,0,0,0,0,0,0,0,0,0,-0.261799,-1.01498e-05,-1.5,3.94113e+12,0,0,3,0,0
610,-3.21065e-12,0,-1.5327e-06,-3.27738e-12,0,-3.40903e-12,-1.06605e-13,0,0,0,0,0,0,0,0,0,0,0,0,-1368079968,1209867103,-1368079968,1209867103,2073741009,-1368079968,-1368079920,-1368079920,0,-0.261799,-9.70874e-06,-1.5,3.94113e+12,0,0,3,0,0
620,-3.21065e-12,0,-1.5327e-06,-3.27738e-12,0,0,-1.06606e-13,0,0,0,0,0,0,0,0,0,0,0,0,-1368079968,1209867103,-1368079968,1209867103,2073741009,-1368079968,-1368079920,-1368079920,0,-0.261799,-9.2677e-06,-1.5,3.94113e+12,0,0,3,0,0
630,-3.21065e-12,0,-1.5327e-06,-3.27738e-12,0,-3.40903e-12,-1.06606e-13,0,0,-2.89316,0.814147,0.432729,0,0,0,0,0,1.10684,0.814147,-1368079968,1209867103,-1368079968,1209867103,2073741009,-1368079968,-1368079920,-1368079920,0,-0.261799,-8.88318e-06,-1.5,3.94113e+12,0,0,3,0,0
640,-3.21065e-12,0,-1.5327e-06,-3.27738e-12,0,0,-1.06606e-13,0,0,-2.84841,0.799394,0.399717,0,0,0,0,0,1.15159,0.799394,-1368079968,1209867103,-1368079968,1209867103,2073741009,-1368079968,-1368079920,-1368079920,0,-0.261799,-8.49712e-06,-1.5,3.94113e+12,0,0,3,0,0
650,-3.21065e-12,0,-1.5327e-06,-3.27738e-12,0,-3.40903e-12,-1.06606e-13,0,0,-2.88194,0.813174,0.422737,0,0,0,0,0,1.11806,0.813174,-1368079968,1209867103,-1368079968,1209867103,2073741009,-1368079968,-1368079920,-1368079920,0,-0.261799,-8.12822e-06,-1.5,3.94113e+12,0,0,3,0,0
660,-3.21065e-12,0,-1.5327e-06,-3.27738e-12,0,0,-1.06607e-13,0,0,-2.88194,0.813174,0.422737,0,0,0,0,0,1.11806,0.813174,-1368079968,1209867103,-1368079968,1209867103,2073741009,-1368079968,-1368079920,-1368079920,0,-0.261799,-7.79129e-06,-1.5,3.94113e+12,0,0,3,0,0
670,-3.21065e-12,0,-1.5327e-06,-3.27738e-12,0,-3.40903e-12,-1.06607e-13,0,0,-2.90386,0.811553,0.43283,0,0,0,0,0,1.09614,0.811553,-1368079968,1209867103,-1368079968,1209867103,2073741009,-1368079968,-1368079920,-1368079920,-0.261799,-0.261799,-5.99915e-06,-1.5,3.94113e+12,0,0,3,1.00454,0.808023
680,-3.21065e-12,0,-1.5327e-06,-3.27738e-12,0,0,-1.06607e-13,0,0,-2.89223,0.81204,0.430194,0,0,0,0,0,1.10777,0.81204,-1368079968,1209867103,-1368079968,1209867103,2073741009,-1368079968,-1368079920,-1368079920,-0.261799,-0.261799,-4.61673e-06,-1.5,3.94113e+12,0,0,3,1.09946,0.811126
690,-3.21065e-12,0,-1.5327e-06,-3.27738e-12,0,-3.40903e-12,-1.06607e-13,0,0,-2.91855,0.820429,0.437411,0,0,0,0,0,1.08145,0.820429,-1368079968,1209867103,-1368079968,1209867103,2073741009,-1368079968,-1368079920,-1368079920,-0.261799,-0.261799,-3.5256e-06,-1.5,3.94113e+12,0,0,3,1.06468,0.824981
700,-3.21065e-12,0,-1.5327e-06,-3.27738e-12,0,0,-1.06608e-13,0,0,-2.88194,0.813174,0.422737,0,0,0,0,0,1.11806,0.813174,-1368079968,1209867103,-1368079968,1209867103,2073741009,-1368079968,-1368079920,-1368079920,-0.261799,-0.261799,-2.72011e-06,-1.5,3.94113e+12,0,0,3,1.10939,0.813705
710,-3.21065e-12,0,-1.5327e-06,-3.27738e-12,0,-3.40903e-12,-1.06608e-13,0,0,-2.86241,0.799341,0.398266,0,0,0,0,0,1.13759,0.799341,-1368079968,1209867103,-1368079968,1209867103,2073741009,-1368079968,-1368079920,-1368079920,-0.261799,-0.261799,-1.90592e-06,-1.5,3.94113e+12,0,0,3,1.12424,0.812832
720,-3.21065e-12,0,-1.5327e-06,-3.27738e-12,0,0,-1.06608e-13,0,0,-2.9068,0.818056,0.43248,0,0,0,0,0,1.0932,0.818056,-1368079968,1209867103,-1368079968,1209867103,2073741009,-1368079968,-1368079920,-1368079920,-0.261799,-0.261799,-1.48923e-06,-1.5,3.94113e+12,0,0,3,1.09073,0.814911
730,-3.21065e-12,0,-1.5327e-06,-3.27738e-12,0,-3.40903e-12,-1.06609e-13,0,0,-2.87151,0.809983,0.416193,0,0,0,0,0,1.12849,0.809983,-1368079968,1209867103,-1368079968,1209867103,2073741009,-1368079968,-1368079920,-1368079920,-0.261799,-0.261799,-1.16131e-06,-1.5,3.94113e+12,0,0,3,1.13099,0.810358
740,-3.21065e-12,0,-1.5327e-06,-3.27738e-12,0,0,-1.06609e-13,0,0,-2.88973,0.80851,0.426354,0,0,0,0,0,1.11027,0.80851,-1368079968,1209867103,-1368079968,1209867103,2073741009,-1368079968,-1368079920,-1368079920,-0.261799,-0.261799,-9.07343e-07,-1.5,3.94113e+12,0,0,3,1.1102,0.808944
750,-3.21065e-12,0,-1.5327e-06,-3.27738e-12,0,-3.40903e-12,-1.06609e-13,0,0,-2.90195,0.816955,0.435182,0,0,0,0,0,1.09805,0.816955,-1368079968,1209867103,-1368079968,1209867103,2073741009,-1368079968,-1368079920,-1368079920,-0.261799,-0.261799,-7.05401e-07,-1.5,3.94113e+12,0,0,3,1.10983,0.80935
760,-3.21065e-12,0,-1.5327e-06,-3.27738e-12,0,0,-1.06609e-13,0,0,-2.94397,0.819463,0.453705,0,0,0,0,0,1.05603,0.819463,-1368079968,1209867103,-1368079968,1209867103,2073741009,-1368079968,-1368079920,-1368079920,-0.261799,-0.261799,-5.61414e-07,-1.5,3.94113e+12,0,0,3,1.09432,0.81711
770,-3.21065e-12,0,-1.5327e-06,-3.27738e-12,0,-3.40903e-12,-1.0661e-13,0,0,-2.88194,0.813174,0.422737,0,0,0,0,0,1.11806,0.813174,-1368079968,1209867103,-1368079968,1209867103,2073741009,-1368079968,-1368079920,-1368079920,-0.261799,-0.261799,-4.37568e-07,-1.5,3.94113e+12,0,0,3,1.11062,0.813104
780,-3.21065e-12,0,-1.5327e-06,-3.27738e-12,0,0,-1.0661e-13,0,0,-2.86442,0.808343,0.41794,0,0,0,0,0,1.13558,0.808343,-1368079968,1209867103,-1368079968,1209867103,2073741009,-1368079968,-1368079920,-1368079920,-0.261799,-0.261799,-3.47932e-07,-1.5,3.94113e+12,0,0,3,1.11981,0.81308
790,-3.21065e-12,0,-1.5327e-06,-3.27738e-12,0,-3.40903e-12,-1.0661e-13,0,0,-2.93626,0.823726,0.441721,0,0,0,0,0,1.06374,0.823726,-1368079968,1209867103,-1368079968,1209867103,2073741009,-1368079968,-1368079920,-1368079920,-0.261799,-0.261799,-2.81685e-07,-1.5,3.94113e+12,0,0,3,1.11042,0.813484
800,-3.21065e-12,0,-1.5327e-06,-3.27738e-12,0,0,-1.0661e-13,0,0,-2.85491,0.792893,0.396302,0,0,0,0,0,1.14509,0.792893,-1368079968,1209867103,-1368079968,1209867103,2073741009,-1368079968,-1368079920,-1368079920,-0.261799,-0.261799,-2.17999e-07,-1.5,3.94113e+12,0,0,3,1.11538,0.813409
810,-3.21065e-12,0,-1.5327e-06,-3.27738e-12,0,-3.40903e-12,-1.06611e-13,0,0,-2.8994,0.817988,0.427387,0,0,0,0,0,1.1006,0.817988,-1368079968,1209867103,-1368079968,1209867103,2073741009,-1368079968,-1368079920,-1368079920,-0.261799,-0.261799,-1.74278e-07,-1.5,3.94113e+12,0,0,3,1.11154,0.818187
820,-3.21065e-12,0,-1.5327e-06,-3.27738e-12,0,0,-1.06611e-13,0,0,-2.88194,0.813174,0.422737,0,0,0,0,0,1.11806,0.813174,-1368079968,1209867103,-1368079968,1209867103,2073741009,-1368079968,-1368079920,-1368079920,-0.261799,-0.261799,-1.37205e-07,-1.5,3.94113e+12,0,0,3,1.11632,0.814425
830,-3.21065e-12,0,-1.5327e-06,-3.27738e-12,0,-3.40903e-12,-1.06611e-13,0,0,-2.90121,0.814892,0.432781,0,0,0,0,0,1.09879,0.814892,-1368079968,1209867103,-1368079968,1209867103,2073741009,-1368079968,-1368079920,-1368079920,-0.261799,-0.261799,-1.09419e-07,-1.5,3.94113e+12,0,0,3,1.11233,0.814792
840,-3.21065e-12,0,-1.5327e-06,-3.27738e-12,0,0,-1.06612e-13,0,0,-2.8684,0.815658,0.409822,0,0,0,0,0,1.1316,0.815658,-1368079968,1209867103,-1368079968,1209867103,2073741009,-1368079968,-1368079920,-1368079920,-0.261799,-0.261799,-8.67672e-08,-1.5,3.94113e+12,0,0,3,1.11983,0.815341
850,-3.21065e-12,0,-1.5327e-06,-3.27738e-12,0,-3.40903e-12,-1.06612e-13,0,0,-2.87167,0.797733,0.406277,0,0,0,0,0,1.12833,0.797733,-1368079968,1209867103,-1368079968,1209867103,2073741009,-1368079968,-1368079920,-1368079920,-0.261799,-0.261799,-6.61274e-08,-1.5,3.94113e+12,0,0,3,1.12516,0.814004
860,-3.21065e-12,0,-1.5327e-06,-3.27738e-12,0,0,-1.06612e-13,0,0,-2.87167,0.797733,0.406277,0,0,0,0,0,1.12833,0.797733,-1368079968,1209867103,-1368079968,1209867103,2073741009,-1368079968,-1368079920,-1368079920,-0.261799,-0.261799,-5.28885e-08,-1.5,3.94113e+12,0,0,3,1.12913,0.813497
870,-3.21065e-12,0,-1.5327e-06,-3.27738e-12,0,-3.40903e-12,-1.06612e-13,0,0,-2.87167,0.797733,0.406277,0,0,0,0,0,1.12833,0.797733,-1368079968,1209867103,-1368079968,1209867103,2073741009,-1368079968,-1368079920,-1368079920,-0.261799,-0.261799,-5.03913e-08,-1.5,3.94113e+12,0,0,3,1.12919,0.804386
880,-3.21065e-12,0,-1.5327e-06,-3.27738e-12,0,0,-1.06613e-13,0,0,-2.87167,0.797733,0.406277,0,0,0,0,0,1.12833,0.797733,-1368079968,1209867103,-1368079968,1209867103,2073741009,-1368079968,-1368079920,-1368079920,-0.261799,-0.261799,-4.91933e-08,-1.5,3.94113e+12,0,0,3,1.12937,0.804287
890,-3.21065e-12,0,-1.5327e-06,-3.27738e-12,0,-3.40903e-12,-1.06613e-13,0,0,-2.87055,0.795893,0.399617,0,0,0,0,0,1.12945,0.795893,-1368079968,1209867103,-1368079968,1209867103,2073741009,-1368079968,-1368079920,-1368079920,-0.261799,-0.261799,-3.94578e-08,-1.5,3.94113e+12,0,0,3,1.13117,0.796074
900,-3.21065e-12,0,-1.5327e-06,-3.27738e-12,0,0,-1.06613e-13,0,0,-2.86793,0.793654,0.392639,0,0,0,0,0,1.13207,0.793654,-1368079968,1209867103,-1368079968,1209867103,2073741009,-1368079968,-1368079920,-1368079920,-0.261799,-0.261799,-3.1354e-08,-1.5,3.94113e+12,0,0,3,1.13374,0.793844
910,-3.21065e-12,0,-1.5327e-06,-3.27738e-12,0,-3.40903e-12,-1.06613e-13,0,0,-2.86793,0.793654,0.392639,0,0,0,0,0,1.13207,0.793654,-1368079968,1209867103,-1368079968,1209867103,2073741009,-1368079968,-1368079920,-1368079920,-0.261799,-0.261799,-3.06085e-08,-1.5,3.94113e+12,0,0,3,1.13398,0.793677
920,-3.21065e-12,0,-1.5327e-06,-3.27738e-12,0,0,-1.06614e-13,0,0,-2.89694,0.808677,0.422417,0,0,0,0,0,1.10306,0.808677,-1368079968,1209867103,-1368079968,1209867103,2073741009,-1368079968,-1368079920,-1368079920,-0.261799,-0.261799,-2.45299e-08,-1.5,3.94113e+12,0,0,3,1.13354,0.792681
930,-3.21065e-12,0,-1.5327e-06,-3.27738e-12,0,-3.40903e-12,-1.06614e-13,0,0,-2.88821,0.806686,0.420187,0,0,0,0,0,1.11179,0.806686,-1368079968,1209867103,-1368079968,1209867103,2073741009,-1368079968,-1368079920,-1368079920,-0.261799,-0.261799,-1.94266e-08,-1.5,3.94113e+12,0,0,3,1.1356,0.806102
940,-3.21065e-12,0,-1.5327e-06,-3.27738e-12,0,0,-1.06614e-13,0,0,-2.90228,0.80344,0.419428,0,0,0,0,0,1.09772,0.803439,-1368079968,1209867103,-1368079968,1209867103,2073741009,-1368079968,-1368079920,-1368079920,-0.261799,-0.261799,-1.3241e-08,-1.5,3.94113e+12,0,0,3,1.13713,0.801982
950,-3.21065e-12,0,-1.5327e-06,-3.27738e-12,0,-3.40903e-12,-1.06615e-13,0,0,-2.87303,0.804796,0.405311,0,0,0,0,0,1.12697,0.804796,-1368079968,1209867103,-1368079968,1209867103,2073741009,-1368079968,-1368079920,-1368079920,-0.261799,-0.261799,-1.06984e-08,-1.5,3.94113e+12,0,0,3,1.12671,0.801132
960,-3.21065e-12,0,-1.5327e-06,-3.27738e-12,0,0,-1.06615e-13,0,0,-2.88072,0.804967,0.410598,0,0,0,0,0,1.11928,0.804967,-1368079968,1209867103,-1368079968,1209867103,2073741009,-1368079968,-1368079920,-1368079920,-0.261799,-0.261799,-8.54647e-09,-1.5,3.94113e+12,0,0,3,1.12685,0.80337
970,-3.21065e-12,0,-1.5327e-06,-3.27738e-12,0,-3.40903e-12,-1.06615e-13,0,0,-2.88703,0.796388,0.412393,0,0,0,0,0,1.11297,0.796388,-1368079968,1209867103,-1368079968,1209867103,2073741009,-1368079968,-1368079920,-1368079920,-0.261799,-0.261799,-6.79707e-09,-1.5,3.94113e+12,0,0,3,1.11595,0.799595
980,-3.21065e-12,0,-1.5327e-06,-3.27738e-12,0,0,-1.06615e-13,0,0,-2.88703,0.796388,0.412393,0,0,0,0,0,1.11297,0.796388,-1368079968,1209867103,-1368079968,1209867103,2073741009,-1368079968,-1368079920,-1368079920,-0.261799,-0.261799,-6.59543e-09,-1.5,3.94113e+12,0,0,3,1.1158,0.799466
990,-3.21065e-12,0,-1.5327e-06,-3.27738e-12,0,-3.40903e-12,-1.06616e-13,0,0,-2.85686,0.795958,0.391705,0,0,0,0,0,1.14314,0.795958,-1368079968,1209867103,-1368079968,1209867103,2073741009,-1368079968,-1368079920,-1368079920,-0.261799,-0.261799,-5.03965e-09,-1.5,3.94113e+12,0,0,3,1.12562,0.795234
1000,-3.21065e-12,0,-1.5327e-06,-3.27738e-12,0,0,-1.06616e-13,0,0,-2.88171,0.806781,0.407517,0,0,0,0,0,1.11829,0.806781,-1368079968,1209867103,-1368079968,1209867103,2073741009,-1368079968,-1368079920,-1368079920,-0.261799,-0.261799,-3.98668e-09,-1.5,3.94113e+12,0,0,3,1.11736,0.796944
1010,-3.21065e-12,0,-1.5327e-06,-3.27738e-12,0,-3.40903e-12,-1.06616e-13,0,0,-2.92955,0.808613,0.440481,0,0,0,0,0,1.07045,0.808613,-1368079968,1209867103,-1368079968,1209867103,2073741009,-1368079968,-1368079920,-1368079920,-0.261799,-0.261799,-3.18211e-09,-1.5,3.94113e+12,0,0,3,1.1145,0.800491
1020,-3.21065e-12,0,-1.5327e-06,-3.27738e-12,0,0,-1.06616e-13,0,0,-2.92955,0.808613,0.440481,0,0,0,0,0,1.07045,0.808613,-1368079968,1209867103,-1368079968,1209867103,2073741009,-1368079968,-1368079920,-1368079920,-0.261799,-0.261799,-3.03161e-09,-1.5,3.94113e+12,0,0,3,1.10617,0.806057
1030,-3.21065e-12,0,-1.5327e-06,-3.27738e-12,0,-3.40903e-12,-1.06617e-13,0,0,-2.92955,0.808613,0.440481,0,0,0,0,0,1.07045,0.808613,-1368079968,1209867103,-1368079968,1209867103,2073741009,-1368079968,-1368079920,-1368079920,-0.261799,-0.261799,-2.94162e-09,-1.5,3.94113e+12,0,0,3,1.10594,0.806092
1040,-3.21065e-12,0,-1.5327e-06,-3.27738e-12,0,0,-1.06617e-13,0,0,-2.87914,0.800585,0.408653,0,0,0,0,0,1.12086,0.800586,-1368079968,1209867103,-1368079968,1209867103,2073741009,-1368079968,-1368079920,-1368079920,-0.261799,-0.261799,-2.29389e-09,-1.5,3.94113e+12,0,0,3,1.11385,0.807028
1050,-3.21065e-12,0,-1.5327e-06,-3.27738e-12,0,-3.40903e-12,-1.06617e-13,0,0,-2.87914,0.800585,0.408653,0,0,0,0,0,1.12086,0.800586,-1368079968,1209867103,-1368079968,1209867103,2073741009,-1368079968,-1368079920,-1368079920,-0.261799,-0.261799,-2.23935e-09,-1.5,3.94113e+12,0,0,3,1.11374,0.807061
1060,-3.21065e-12,0,-1.5327e-06,-3.27738e-12,0,0,-1.06618e-13,0,0,-2.85097,0.803621,0.401025,0,0,0,0,0,1.14903,0.803621,-1368079968,1209867103,-1368079968,1209867103,2073741009,-1368079968,-1368079920,-1368079920,-0.261799,-0.261799,-2.13322e-09,-1.5,3.94113e+12,0,0,3,1.11422,0.80788
1070,-3.21065e-12,0,-1.5327e-06,-3.27738e-12,0,-3.40903e-12,-1.06618e-13,0,0,-2.88712,0.802438,0.418604,0,0,0,0,0,1.11288,0.802438,-1368079968,1209867103,-1368079968,1209867103,2073741009,-1368079968,-1368079920,-1368079920,-0.261799,-0.261799,-1.73192e-09,-1.5,3.94113e+12,0,0,3,1.11174,0.804026
1080,-3.21067e-12,0,0,-3.27738e-12,0,0,-1.06618e-13,0,0,-2.87167,0.797733,0.406277,0,0,0,0,0,1.12833,0.797733,-1368079968,1209867103,-1368079968,1209867103,2073741009,-1368079968,-1368079920,-1368079920,-0.261799,-0.261799,-1.3667e-09,-1.5,3.94113e+12,0,0,3,1.11287,0.804101
1090,-3.21065e-12,0,-1.5327e-06,-3.27738e-12,0,-3.40903e-12,-1.06618e-13,0,0,-2.88804,0.803388,0.411153,0,0,0,0,0,1.11196,0.803388,-1368079968,1209867103,-1368079968,1209867103,2073741009,-1368079968,-1368079920,-1368079920,-0.261799,-0.261799,-1.08693e-09,-1.5,3.94113e+12,0,0,3,1.11071,0.803386
1100,-3.21065e-12,0,-1.5327e-06,-3.27738e-12,0,0,-1.06619e-13,0,0,-2.87303,0.804796,0.405311,0,0,0,0,0,1.12697,0.804796,-1368079968,1209867103,-1368079968,1209867103,2073741009,-1368079968,-1368079920,-1368079920,-0.261799,-0.261799,-8.59827e-10,-1.5,3.94113e+12,0,0,3,1.11308,0.803864
1110,-3.21065e-12,0,-1.5327e-06,-3.27738e-12,0,-3.40903e-12,-1.06619e-13,0,0,-2.89502,0.796622,0.408159,0,0,0,0,0,1.10498,0.796622,-1368079968,1209867103,-1368079968,1209867103,2073741009,-1368079968,-1368079920,-1368079920,-0.261799,-0.261799,-6.80483e-10,-1.5,3.94113e+12,0,0,3,1.10909,0.803433
1120,-3.21065e-12,0,-1.5327e-06,-3.27738e-12,0,0,-1.06619e-13,0,0,-2.89502,0.796622,0.408159,0,0,0,0,0,1.10498,0.796622,-1368079968,1209867103,-1368079968,1209867103,2073741009,-1368079968,-1368079920,-1368079920,-0.261799,-0.261799,-6.61625e-10,-1.5,3.94113e+12,0,0,3,1.10897,0.803433
1130,-3.21065e-12,0,-1.5327e-06,-3.27738e-12,0,-3.40903e-12,-1.06619e-13,0,0,-2.89408,0.79468,0.412743,0,0,0,0,0,1.10592,0.79468,-1368079968,1209867103,-1368079968,1209867103,2073741009,-1368079968,-1368079920,-1368079920,-0.261799,-0.261799,-5.26091e-10,-1.5,3.94113e+12,0,0,3,1.10622,0.801091
1140,-3.21065e-12,0,-1.5327e-06,-3.27738e-12,0,0,-1.0662e-13,0,0,-2.85043,0.784707,0.388474,0,0,0,0,0,1.14957,0.784707,-1368079968,1209867103,-1368079968,1209867103,2073741009,-1368079968,-1368079920,-1368079920,-0.261799,-0.261799,-4.18396e-10,-1.5,3.94113e+12,0,0,3,1.12729,0.794771
1150,-3.21065e-12,0,-1.5327e-06,-3.27738e-12,0,-3.40903e-12,-1.0662e-13,0,0,-2.86804,0.791845,0.397423,0,0,0,0,0,1.13196,0.791845,-1368079968,1209867103,-1368079968,1209867103,2073741009,-1368079968,-1368079920,-1368079920,-0.261799,-0.261799,-3.30765e-10,-1.5,3.94113e+12,0,0,3,1.13042,0.793932
1160,-3.21065e-12,0,-1.5327e-06,-3.27738e-12,0,0,-1.0662e-13,0,0,-2.87691,0.800074,0.400292,0,0,0,0,0,1.12309,0.800074,-1368079968,1209867103,-1368079968,1209867103,2073741009,-1368079968,-1368079920,-1368079920,-0.261799,-0.261799,-2.48186e-10,-1.5,3.94113e+12,0,0,3,1.12408,0.794487
1170,-3.21065e-12,0,-1.5327e-06,-3.27738e-12,0,-3.40903e-12,-1.0662e-13,0,0,-2.85707,0.803549,0.383372,0,0,0,0,0,1.14293,0.803549,-1368079968,1209867103,-1368079968,1209867103,2073741009,-1368079968,-1368079920,-1368079920,-0.261799,-0.261799,-2.00446e-10,-1.5,3.94113e+12,0,0,3,1.12573,0.799461
1180,-3.21065e-12,0,-1.5327e-06,-3.27738e-12,0,0,-1.06621e-13,0,0,-2.82934,0.778553,0.366747,0,0,0,0,0,1.17066,0.778553,-1368079968,1209867103,-1368079968,1209867103,2073741009,-1368079968,-1368079920,-1368079920,-0.261799,-0.261799,-1.60245e-10,-1.5,3.94113e+12,0,0,3,1.13679,0.791575
1190,-3.21067e-12,0,0,-3.27738e-12,0,-3.40903e-12,-1.06621e-13,0,0,-2.82934,0.778553,0.366747,0,0,0,0,0,1.17066,0.778553,-1368079968,1209867103,-1368079968,1209867103,2073741009,-1368079968,-1368079920,-1368079920,-0.261799,-0.261799,-1.52679e-10,-1.5,3.94113e+12,0,0,3,1.1452,0.785649
1200,-3.21065e-12,0,-1.5327e-06,-3.27738e-12,0,0,-1.06621e-13,0,0,-2.82934,0.778553,0.366747,0,0,0,0,0,1.17066,0.778553,-1368079968,1209867103,-1368079968,1209867103,2073741009,-1368079968,-1368079920,-1368079920,-0.261799,-0.261799,-1.4755e-10,-1.5,3.94113e+12,0,0,3,1.14552,0.785419
1210,-3.21065e-12,0,-1.5327e-06,-3.27738e-12,0,-3.40903e-12,-1.06622e-13,0,0,-2.84934,0.796485,0.388359,0,0,0,0,0,1.15066,0.796485,-1368079968,1209867103,-1368079968,1209867103,2073741009,-1368079968,-1368079920,-1368079920,-0.261799,-0.261799,-1.06655e-10,-1.5,3.94113e+12,0,0,3,1.15106,0.788158
1220,-3.21065e-12,0,-1.5327e-06,-3.27738e-12,0,0,-1.06622e-13,0,0,-2.84372,0.792867,0.385352,0,0,0,0,0,1.15628,0.792867,-1368079968,1209867103,-1368079968,1209867103,2073741009,-1368079968,-1368079920,-1368079920,-0.261799,-0.261799,-8.49223e-11,-1.5,3.94113e+12,0,0,3,1.15826,0.78955
1230,-3.21065e-12,0,-1.5327e-06,-3.27738e-12,0,-3.40903e-12,-1.06622e-13,0,0,-2.86502,0.797568,0.39113,0,0,0,0,0,1.13498,0.797568,-1368079968,1209867103,-1368079968,1209867103,2073741009,-1368079968,-1368079920,-1368079920,-0.261799,-0.261799,-6.82536e-11,-1.5,3.94113e+12,0,0,3,1.16172,0.790576
1240,-3.21065e-12,0,-1.5327e-06,-3.27738e-12,0,0,-1.06622e-13,0,0,-2.86502,0.797568,0.39113,0,0,0,0,0,1.13498,0.797568,-1368079968,1209867103,-1368079968,1209867103,2073741009,-1368079968,-1368079920,-1368079920,-0.261799,-0.261799,-6.54244e-11,-1.5,3.94113e+12,0,0,3,1.16125,0.794183
1250,-3.21065e-12,0,-1.5327e-06,-3.27738e-12,0,-3.40903e-12,-1.06623e-13,0,0,-2.86502,0.797568,0.39113,0,0,0,0,0,1.13498,0.797568,-1368079968,1209867103,-1368079968,1209867103,2073741009,-1368079968,-1368079920,-1368079920,-0.261799,-0.261799,-6.33537e-11,-1.5,3.94113e+12,0,0,3,1.16173,0.794095
1260,-3.21065e-12,0,-1.5327e-06,-3.27738e-12,0,0,-1.06623e-13,0,0,-2.84092,0.796823,0.371972,0,0,0,0,0,1.15908,0.796824,-1368079968,1209867103,-1368079968,1209867103,2073741009,-1368079968,-1368079920,-1368079920,-0.261799,-0.261799,-5.03757e-11,-1.5,3.94113e+12,0,0,3,1.16266,0.794465
1270,-3.21065e-12,0,-1.5327e-06,-3.27738e-12,0,-3.40903e-12,-1.06623e-13,0,0,-2.86091,0.795377,0.39178,0,0,0,0,0,1.13909,0.795377,-1368079968,1209867103,-1368079968,1209867103,2073741009,-1368079968,-1368079920,-1368079920,-0.261799,-0.261799,-3.9481e-11,-1.5,3.94113e+12,0,0,3,1.16452,0.794983
1280,-3.21065e-12,0,-1.5327e-06,-3.27738e-12,0,0,-1.06623e-13,0,0,-2.88965,0.813629,0.413629,0,0,0,0,0,1.11035,0.81363,-1368079968,1209867103,-1368079968,1209867103,2073741009,-1368079968,-1368079920,-1368079920,-0.261799,-0.261799,-3.07099e-11,-1.5,3.94113e+12,0,0,3,1.14467,0.794938
1290,-3.21065e-12,0,-1.5327e-06,-3.27738e-12,0,-3.40903e-12,-1.06624e-13,0,0,-2.79859,0.780091,0.349669,0,0,0,0,0,1.20141,0.780091,-1368079968,1209867103,-1368079968,1209867103,2073741009,-1368079968,-1368079920,-1368079920,-0.261799,-0.261799,-2.41955e-11,-1.5,3.94113e+12,0,0,3,1.16993,0.795139
1300,-3.21065e-12,0,-1.5327e-06,-3.27738e-12,0,0,-1.06624e-13,0,0,-2.79859,0.780091,0.349669,0,0,0,0,0,1.20141,0.780091,-1368079968,1209867103,-1368079968,1209867103,2073741009,-1368079968,-1368079920,-1368079920,-0.261799,-0.261799,-2.31925e-11,-1.5,3.94113e+12,0,0,3,1.18152,0.794762
1310,-3.21065e-12,0,-1.5327e-06,-3.27738e-12,0,-3.40903e-12,-1.06624e-13,0,0,-2.79859,0.780091,0.349669,0,0,0,0,0,1.20141,0.780091,-1368079968,1209867103,-1368079968,1209867103,2073741009,-1368079968,-1368079920,-1368079920,-0.261799,-0.261799,-2.25045e-11,-1.5,3.94113e+12,0,0,3,1.18209,0.794732
1320,-3.21065e-12,0,-1.5327e-06,-3.27738e-12,0,0,-1.06625e-13,0,0,-2.82859,0.790734,0.370776,0,0,0,0,0,1.17141,0.790734,-1368079968,1209867103,-1368079968,1209867103,2073741009,-1368079968,-1368079920,-1368079920,-0.261799,-0.261799,-1.72301e-11,-1.5,3.94113e+12,0,0,3,1.17938,0.791084
1330,-3.21065e-12,0,-1.5327e-06,-3.27738e-12,0,-3.40903e-12,-1.06625e-13,0,0,-2.86666,0.802226,0.390257,0,0,0,0,0,1.13334,0.802226,-1368079968,1209867103,-1368079968,1209867103,2073741009,-1368079968,-1368079920,-1368079920,-0.261799,-0.261799,-1.35714e-11,-1.5,3.94113e+12,0,0,3,1.17741,0.795811
1340,-3.21065e-12,0,-1.5327e-06,-3.27738e-12,0,0,-1.06625e-13,0,0,-2.84411,0.797269,0.38178,0,0,0,0,0,1.15589,0.797269,-1368079968,1209867103,-1368079968,1209867103,2073741009,-1368079968,-1368079920,-1368079920,-0.261799,-0.261799,-1.07214e-11,-1.5,3.94113e+12,0,0,3,1.18052,0.796998
1350,-3.21065e-12,0,-1.5327e-06,-3.27738e-12,0,-3.40903e-12,-1.06625e-13,0,0,-2.83451,0.797386,0.38965,0,0,0,0,0,1.16549,0.797386,-1368079968,1209867103,-1368079968,1209867103,2073741009,-1368079968,-1368079920,-1368079920,-0.261799,-0.261799,-8.5577e-12,-1.5,3.94113e+12,0,0,3,1.16667,0.797267
1360,-3.21065e-12,0,-1.5327e-06,-3.27738e-12,0,0,-1.06626e-13,0,0,-2.82859,0.790734,0.370776,0,0,0,0,0,1.17141,0.790734,-1368079968,1209867103,-1368079968,1209867103,2073741009,-1368079968,-1368079920,-1368079920,-0.261799,-0.261799,-6.7667e-12,-1.5,3.94113e+12,0,0,3,1.16939,0.798223
1370,-3.21065e-12,0,-1.5327e-06,-3.27738e-12,0,-3.40903e-12,-1.06626e-13,0,0,-2.84668,0.783862,0.383712,0,0,0,0,0,1.15332,0.783862,-1368079968,1209867103,-1368079968,1209867103,2073741009,-1368079968,-1368079920,-1368079920,-0.261799,-0.261799,-5.35288e-12,-1.5,3.94113e+12,0,0,3,1.16968,0.79015
1380,-3.21065e-12,0,-1.5327e-06,-3.27738e-12,0,0,-1.06626e-13,0,0,-2.84668,0.783862,0.383712,0,0,0,0,0,1.15332,0.783862,-1368079968,1209867103,-1368079968,1209867103,2073741009,-1368079968,-1368079920,-1368079920,-0.261799,-0.261799,-4.99611e-12,-1.5,3.94113e+12,0,0,3,1.1592,0.789429
1390,-3.21065e-12,0,-1.5327e-06,-3.27738e-12,0,-3.40903e-12,-1.06626e-13,0,0,-2.85018,0.795595,0.379149,0,0,0,0,0,1.14982,0.795595,-1368079968,1209867103,-1368079968,1209867103,2073741009,-1368079968,-1368079920,-1368079920,-0.261799,-0.261799,-3.73081e-12,-1.5,3.94113e+12,0,0,3,1.15411,0.792448
1400,-3.21065e-12,0,-1.5327e-06,-3.27738e-12,0,0,-1.06627e-13,0,0,-2.89491,0.800849,0.41654,0,0,0,0,0,1.10509,0.800849,-1368079968,1209867103,-1368079968,1209867103,2073741009,-1368079968,-1368079920,-1368079920,-0.261799,-0.261799,-2.88731e-12,-1.5,3.94113e+12,0,0,3,1.15137,0.795855
1410,-3.21065e-12,0,-1.5327e-06,-3.27738e-12,0,-3.40903e-12,-1.06627e-13,0,0,-2.89491,0.800849,0.41654,0,0,0,0,0,1.10509,0.800849,-1368079968,1209867103,-1368079968,1209867103,2073741009,-1368079968,-1368079920,-1368079920,-0.261799,-0.261799,-2.79599e-12,-1.5,3.94113e+12,0,0,3,1.1513,0.795852
1420,-3.21065e-12,0,-1.5327e-06,-3.27738e-12,0,0,-1.06627e-13,0,0,-2.82759,0.794735,0.366236,0,0,0,0,0,1.17241,0.794735,-1368079968,1209867103,-1368079968,1209867103,2073741009,-1368079968,-1368079920,-1368079920,-0.261799,-0.261799,-2.19021e-12,-1.5,3.94113e+12,0,0,3,1.15431,0.794001
1430,-3.21065e-12,0,-1.5327e-06,-3.27738e-12,0,-3.40903e-12,-1.06628e-13,0,0,-2.84411,0.797269,0.38178,0,0,0,0,0,1.15589,0.797269,-1368079968,1209867103,-1368079968,1209867103,2073741009,-1368079968,-1368079920,-1368079920,-0.261799,-0.261799,-1.73744e-12,-1.5,3.94113e+12,0,0,3,1.15588,0.794842
1440,-3.21065e-12,0,-1.5327e-06,-3.27738e-12,0,0,-1.06628e-13,0,0,-2.8626,0.78462,0.389727,0,0,0,0,0,1.1374,0.78462,-1368079968,1209867103,-1368079968,1209867103,2073741009,-1368079968,-1368079920,-1368079920,-0.261799,-0.261799,-1.3593e-12,-1.5,3.94113e+12,0,0,3,1.15719,0.794111
1450,-3.21065e-12,0,-1.5327e-06,-3.27738e-12,0,-3.40903e-12,-1.06628e-13,0,0,-2.86685,0.800106,0.392339,0,0,0,0,0,1.13315,0.800106,-1368079968,1209867103,-1368079968,1209867103,2073741009,-1368079968,-1368079920,-1368079920,-0.261799,-0.261799,-1.06867e-12,-1.5,3.94113e+12,0,0,3,1.14787,0.795323
1460,-3.21065e-12,0,-1.5327e-06,-3.27738e-12,0,0,-1.06628e-13,0,0,-2.85393,0.80658,0.399513,0,0,0,0,0,1.14607,0.80658,-1368079968,1209867103,-1368079968,1209867103,2073741009,-1368079968,-1368079920,-1368079920,-0.261799,-0.261799,-8.29949e-13,-1.5,3.94113e+12,0,0,3,1.14569,0.79796
1470,-3.21065e-12,0,-1.5327e-06,-3.27738e-12,0,-3.40903e-12,-1.06629e-13,0,0,-2.86252,0.809342,0.401869,0,0,0,0,0,1.13748,0.809342,-1368079968,1209867103,-1368079968,1209867103,2073741009,-1368079968,-1368079920,-1368079920,-0.261799,-0.261799,-6.47977e-13,-1.5,3.94113e+12,0,0,3,1.1357,0.801181
1480,-3.21065e-12,0,-1.5327e-06,-3.27738e-12,0,0,-1.06629e-13,0,0,-2.82117,0.796424,0.369049,0,0,0,0,0,1.17883,0.796424,-1368079968,1209867103,-1368079968,1209867103,2073741009,-1368079968,-1368079920,-1368079920,-0.261799,-0.261799,-4.98882e-13,-1.5,3.94113e+12,0,0,3,1.13391,0.804601
1490,-3.21065e-12,0,-1.5327e-06,-3.27738e-12,0,-3.40903e-12,-1.06629e-13,0,0,-2.84837,0.800779,0.380994,0,0,0,0,0,1.15163,0.800779,-1368079968,1209867103,-1368079968,1209867103,2073741009,-1368079968,-1368079920,-1368079920,-0.261799,-0.261799,-3.89499e-13,-1.5,3.94113e+12,0,0,3,1.13954,0.801695
1500,-3.21065e-12,0,-1.5327e-06,-3.27738e-12,0,0,-1.06629e-13,0,0,-2.83867,0.802023,0.374022,0,0,0,0,0,1.16133,0.802023,-1368079968,1209867103,-1368079968,1209867103,2073741009,-1368079968,-1368079920,-1368079920,-0.261799,-0.261799,-3.03238e-13,-1.5,3.94113e+12,0,0,3,1.15158,0.802258
1510,-3.21065e-12,0,-1.5327e-06,-3.27738e-12,0,-3.40903e-12,-1.0663e-13,0,0,-2.82221,0.787647,0.366514,0,0,0,0,0,1.17779,0.787647,-1368079968,1209867103,-1368079968,1209867103,2073741009,-1368079968,-1368079920,-1368079920,-0.261799,-0.261799,-2.36751e-13,-1.5,3.94113e+12,0,0,3,1.15039,0.802336
1520,-3.21065e-12,0,-1.5327e-06,-3.27738e-12,0,0,-1.0663e-13,0,0,-2.82221,0.787647,0.366514,0,0,0,0,0,1.17779,0.787647,-1368079968,1209867103,-1368079968,1209867103,2073741009,-1368079968,-1368079920,-1368079920,-0.261799,-0.261799,-2.18736e-13,-1.5,3.94113e+12,0,0,3,1.16041,0.801463
1530,-3.21065e-12,0,-1.5327e-06,-3.27738e-12,0,-3.40903e-12,-1.0663e-13,0,0,-2.82221,0.787647,0.366514,0,0,0,0,0,1.17779,0.787647,-1368079968,1209867103,-1368079968,1209867103,2073741009,-1368079968,-1368079920,-1368079920,-0.261799,-0.261799,-2.12243e-13,-1.5,3.94113e+12,0,0,3,1.16047,0.801525
1540,-3.21065e-12,0,-1.5327e-06,-3.27738e-12,0,0,-1.06631e-13,0,0,-2.83493,0.78487,0.372196,0,0,0,0,0,1.16507,0.78487,-1368079968,1209867103,-1368079968,1209867103,2073741009,-1368079968,-1368079920,-1368079920,-0.261799,-0.261799,-1.67484e-13,-1.5,3.94113e+12,0,0,3,1.162,0.796558
1550,-3.21065e-12,0,-1.5327e-06,-3.27738e-12,0,-3.40903e-12,-1.06631e-13,0,0,-2.90877,0.805911,0.437649,0,0,0,0,0,1.09123,0.805911,-1368079968,1209867103,-1368079968,1209867103,2073741009,-1368079968,-1368079920,-1368079920,-0.261799,-0.261799,-1.29549e-13,-1.5,3.94113e+12,0,0,3,1.16613,0.804908
1560,-3.21065e-12,0,-1.5327e-06,-3.27738e-12,0,0,-1.06631e-13,0,0,-2.86032,0.802831,0.408188,0,0,0,0,0,1.13968,0.802831,-1368079968,1209867103,-1368079968,1209867103,2073741009,-1368079968,-1368079920,-1368079920,-0.261799,-0.261799,-1.01835e-13,-1.5,3.94113e+12,0,0,3,1.15806,0.803251
1570,-3.21065e-12,0,-1.5327e-06,-3.27738e-12,0,-3.40903e-12,-1.06631e-13,0,0,-2.86117,0.803667,0.380016,0,0,0,0,0,1.13883,0.803667,-1368079968,1209867103,-1368079968,1209867103,2073741009,-1368079968,-1368079920,-1368079920,-0.261799,-0.261799,-8.13863e-14,-1.5,3.94113e+12,0,0,3,1.14829,0.804346
1580,-3.21065e-12,0,-1.5327e-06,-3.27738e-12,0,0,-1.06632e-13,0,0,-2.86117,0.803667,0.380016,0,0,0,0,0,1.13883,0.803667,-1368079968,1209867103,-1368079968,1209867103,2073741009,-1368079968,-1368079920,-1368079920,-0.261799,-0.261799,-7.75447e-14,-1.5,3.94113e+12,0,0,3,1.13839,0.80426
1590,-3.21065e-12,0,-1.5327e-06,-3.27738e-12,0,-3.40903e-12,-1.06632e-13,0,0,-2.86117,0.803667,0.380016,0,0,0,0,0,1.13883,0.803667,-1368079968,1209867103,-1368079968,1209867103,2073741009,-1368079968,-1368079920,-1368079920,-0.261799,-0.261799,-7.55489e-14,-1.5,3.94113e+12,0,0,3,1.13831,0.80432
1600,-3.21065e-12,0,-1.5327e-06,-3.27738e-12,0,0,-1.06632e-13,0,0,-2.8646,0.803773,0.405164,0,0,0,0,0,1.1354,0.803773,-1368079968,1209867103,-1368079968,1209867103,2073741009,-1368079968,-1368079920,-1368079920,-0.261799,-0.261799,-6.06674e-14,-1.5,3.94113e+12,0,0,3,1.13758,0.804506
1610,-3.21065e-12,0,-1.5327e-06,-3.27738e-12,0,-3.40903e-12,-1.06632e-13,0,0,-2.84237,0.796508,0.383582,0,0,0,0,0,1.15763,0.796508,-1368079968,1209867103,-1368079968,1209867103,2073741009,-1368079968,-1368079920,-1368079920,-0.261799,-0.261799,-4.51917e-14,-1.5,3.94113e+12,0,0,3,1.13599,0.805918
1620,-3.21065e-12,0,-1.5327e-06,-3.27738e-12,0,0,-1.06633e-13,0,0,-2.87389,0.804948,0.414135,0,0,0,0,0,1.12611,0.804947,-1368079968,1209867103,-1368079968,1209867103,2073741009,-1368079968,-1368079920,-1368079920,-0.261799,-0.261799,-3.61749e-14,-1.5,3.94113e+12,0,0,3,1.13459,0.803792
1630,-3.21065e-12,0,-1.5327e-06,-3.27738e-12,0,-3.40903e-12,-1.06633e-13,0,0,-2.88413,0.796965,0.401463,0,0,0,0,0,1.11587,0.796965,-1368079968,1209867103,-1368079968,1209867103,2073741009,-1368079968,-1368079920,-1368079920,-0.261799,-0.261799,-2.88286e-14,-1.5,3.94113e+12,0,0,3,1.13587,0.802696
1640,-3.21065e-12,0,-1.5327e-06,-3.27738e-12,0,0,-1.06633e-13,0,0,-2.8235,0.775114,0.36958,0,0,0,0,0,1.1765,0.775114,-1368079968,1209867103,-1368079968,1209867103,2073741009,-1368079968,-1368079920,-1368079920,-0.261799,-0.261799,-2.30397e-14,-1.5,3.94113e+12,0,0,3,1.13523,0.802496
1650,-3.21065e-12,0,-1.5327e-06,-3.27738e-12,0,-3.40903e-12,-1.06634e-13,0,0,-2.8235,0.775114,0.36958,0,0,0,0,0,1.1765,0.775114,-1368079968,1209867103,-1368079968,1209867103,2073741009,-1368079968,-1368079920,-1368079920,-0.261799,-0.261799,-2.19522e-14,-1.5,3.94113e+12,0,0,3,1.13641,0.796964
1660,-3.21065e-12,0,-1.5327e-06,-3.27738e-12,0,0,-1.06634e-13,0,0,-2.8235,0.775114,0.36958,0,0,0,0,0,1.1765,0.775114,-1368079968,1209867103,-1368079968,1209867103,2073741009,-1368079968,-1368079920,-1368079920,-0.261799,-0.261799,-2.12574e-14,-1.5,3.94113e+12,0,0,3,1.13633,0.796921
1670,-3.21065e-12,0,-1.5327e-06,-3.27738e-12,0,-3.40903e-12,-1.06634e-13,0,0,-2.8388,0.795834,0.392574,0,0,0,0,0,1.1612,0.795834,-1368079968,1209867103,-1368079968,1209867103,2073741009,-1368079968,-1368079920,-1368079920,-0.261799,-0.261799,-1.66936e-14,-1.5,3.94113e+12,0,0,3,1.16088,0.795473
1680,-3.21065e-12,0,-1.5327e-06,-3.27738e-12,0,0,-1.06634e-13,0,0,-2.8388,0.795834,0.392574,0,0,0,0,0,1.1612,0.795834,-1368079968,1209867103,-1368079968,1209867103,2073741009,-1368079968,-1368079920,-1368079920,-0.261799,-0.261799,-1.58393e-14,-1.5,3.94113e+12,0,0,3,1.16025,0.795517
1690,-3.21065e-12,0,-1.5327e-06,-3.27738e-12,0,-3.40903e-12,-1.06635e-13,0,0,-2.8388,0.795834,0.392574,0,0,0,0,0,1.1612,0.795834,-1368079968,1209867103,-1368079968,1209867103,2073741009,-1368079968,-1368079920,-1368079920,-0.261799,-0.261799,-1.54627e-14,-1.5,3.94113e+12,0,0,3,1.16031,0.795468
1700,-3.21065e-12,0,-1.5327e-06,-3.27738e-12,0,0,-1.06635e-13,0,0,-2.84473,0.781246,0.381893,0,0,0,0,0,1.15527,0.781246,-1368079968,1209867103,-1368079968,1209867103,2073741009,-1368079968,-1368079920,-1368079920,-0.261799,-0.261799,-1.18995e-14,-1.5,3.94113e+12,0,0,3,1.15981,0.794575
1710,-3.21065e-12,0,-1.5327e-06,-3.27738e-12,0,-3.40903e-12,-1.06635e-13,0,0,-2.88488,0.809666,0.417245,0,0,0,0,0,1.11512,0.809666,-1368079968,1209867103,-1368079968,1209867103,2073741009,-1368079968,-1368079920,-1368079920,-0.261799,-0.261799,-9.45143e-15,-1.5,3.94113e+12,0,0,3,1.15587,0.795669
1720,-3.21065e-12,0,-1.5327e-06,-3.27738e-12,0,0,-1.06635e-13,0,0,-2.88488,0.809666,0.417245,0,0,0,0,0,1.11512,0.809666,-1368079968,1209867103,-1368079968,1209867103,2073741009,-1368079968,-1368079920,-1368079920,-0.261799,-0.261799,-9.04169e-15,-1.5,3.94113e+12,0,0,3,1.15363,0.795314
1730,-3.21065e-12,0,-1.5327e-06,-3.27738e-12,0,-3.40903e-12,-1.06636e-13,0,0,-2.88488,0.809666,0.417245,0,0,0,0,0,1.11512,0.809666,-1368079968,1209867103,-1368079968,1209867103,2073741009,-1368079968,-1368079920,-1368079920,-0.261799,-0.261799,-8.80891e-15,-1.5,3.94113e+12,0,0,3,1.15364,0.795281
1740,-3.21065e-12,0,-1.5327e-06,-3.27738e-12,0,0,-1.06636e-13,0,0,-2.84346,0.788683,0.384295,0,0,0,0,0,1.15654,0.788683,-1368079968,1209867103,-1368079968,1209867103,2073741009,-1368079968,-1368079920,-1368079920,-0.261799,-0.261799,-6.60564e-15,-1.5,3.94113e+12,0,0,3,1.15563,0.793503
1750,-3.21065e-12,0,-1.5327e-06,-3.27738e-12,0,-3.40903e-12,-1.06636e-13,0,0,-2.85949,0.801829,0.407401,0,0,0,0,0,1.14051,0.801829,-1368079968,1209867103,-1368079968,1209867103,2073741009,-1368079968,-1368079920,-1368079920,-0.261799,-0.261799,-5.28317e-15,-1.5,3.94113e+12,0,0,3,1.1396,0.794394
1760,-3.21065e-12,0,-1.5327e-06,-3.27738e-12,0,0,-1.06636e-13,0,0,-2.85493,0.794928,0.382557,0,0,0,0,0,1.14507,0.794928,-1368079968,1209867103,-1368079968,1209867103,2073741009,-1368079968,-1368079920,-1368079920,-0.261799,-0.261799,-4.22546e-15,-1.5,3.94113e+12,0,0,3,1.14383,0.795166
1770,-3.21065e-12,0,-1.5327e-06,-3.27738e-12,0,-3.40903e-12,-1.06637e-13,0,0,-2.85493,0.794928,0.382557,0,0,0,0,0,1.14507,0.794928,-1368079968,1209867103,-1368079968,1209867103,2073741009,-1368079968,-1368079920,-1368079920,-0.261799,-0.261799,-4.10004e-15,-1.5,3.94113e+12,0,0,3,1.14366,0.795147
1780,-3.21065e-12,0,-1.5327e-06,-3.27738e-12,0,0,-1.06637e-13,0,0,-2.8531,0.795798,0.388269,0,0,0,0,0,1.1469,0.795798,-1368079968,1209867103,-1368079968,1209867103,2073741009,-1368079968,-1368079920,-1368079920,-0.261799,-0.261799,-3.30066e-15,-1.5,3.94113e+12,0,0,3,1.1465,0.794498
1790,-3.21065e-12,0,-1.5327e-06,-3.27738e-12,0,-3.40903e-12,-1.06637e-13,0,0,-2.82805,0.785336,0.3709,0,0,0,0,0,1.17195,0.785336,-1368079968,1209867103,-1368079968,1209867103,2073741009,-1368079968,-1368079920,-1368079920,-0.261799,-0.261799,-2.63281e-15,-1.5,3.94113e+12,0,0,3,1.14767,0.789865
1800,-3.21065e-12,0,-1.5327e-06,-3.27738e-12,0,0,-1.06638e-13,0,0,-2.83949,0.797959,0.378448,0,0,0,0,0,1.16051,0.797959,-1368079968,1209867103,-1368079968,1209867103,2073741009,-1368079968,-1368079920,-1368079920,-0.261799,-0.261799,-2.03239e-15,-1.5,3.94113e+12,0,0,3,1.16185,0.792283
1810,-3.21065e-12,0,-1.5327e-06,-3.27738e-12,0,-3.40903e-12,-1.06638e-13,0,0,-2.82041,0.788887,0.368867,0,0,0,0,0,1.17959,0.788887,-1368079968,1209867103,-1368079968,1209867103,2073741009,-1368079968,-1368079920,-1368079920,-0.261799,-0.261799,-1.58486e-15,-1.5,3.94113e+12,0,0,3,1.16644,0.788349
1820,-3.21065e-12,0,-1.5327e-06,-3.27738e-12,0,0,-1.06638e-13,0,0,-2.88125,0.802072,0.403115,0,0,0,0,0,1.11875,0.802072,-1368079968,1209867103,-1368079968,1209867103,2073741009,-1368079968,-1368079920,-1368079920,-0.261799,-0.261799,-1.22654e-15,-1.5,3.94113e+12,0,0,3,1.16602,0.793242
1830,-3.21065e-12,0,-1.5327e-06,-3.27738e-12,0,-3.40903e-12,-1.06638e-13,0,0,-2.85751,0.790918,0.390576,0,0,0,0,0,1.14249,0.790918,-1368079968,1209867103,-1368079968,1209867103,2073741009,-1368079968,-1368079920,-1368079920,-0.261799,-0.261799,-9.31832e-16,-1.5,3.94113e+12,0,0,3,1.14205,0.792835
1840,-3.21065e-12,0,-1.5327e-06,-3.27738e-12,0,0,-1.06639e-13,0,0,-2.85664,0.802656,0.382898,0,0,0,0,0,1.14336,0.802656,-1368079968,1209867103,-1368079968,1209867103,2073741009,-1368079968,-1368079920,-1368079920,-0.261799,-0.261799,-6.20992e-16,-1.5,3.94113e+12,0,0,3,1.13993,0.796968
1850,-3.21065e-12,0,-1.5327e-06,-3.27738e-12,0,-3.40903e-12,-1.06639e-13,0,0,-2.85019,0.793872,0.385253,0,0,0,0,0,1.14981,0.793872,-1368079968,1209867103,-1368079968,1209867103,2073741009,-1368079968,-1368079920,-1368079920,-0.261799,-0.261799,-4.78153e-16,-1.5,3.94113e+12,0,0,3,1.14086,0.795339
1860,-3.21065e-12,0,-1.5327e-06,-3.27738e-12,0,0,-1.06639e-13,0,0,-2.87348,0.793236,0.405773,0,0,0,0,0,1.12652,0.793236,-1368079968,1209867103,-1368079968,1209867103,2073741009,-1368079968,-1368079920,-1368079920,-0.261799,-0.261799,-3.63263e-16,-1.5,3.94113e+12,0,0,3,1.13387,0.793676
1870,-3.21065e-12,0,-1.5327e-06,-3.27738e-12,0,-3.40903e-12,-1.06639e-13,0,0,-2.81203,0.786987,0.366786,0,0,0,0,0,1.18797,0.786987,-1368079968,1209867103,-1368079968,1209867103,2073741009,-1368079968,-1368079920,-1368079920,-0.261799,-0.261799,-2.8042e-16,-1.5,3.94113e+12,0,0,3,1.13816,0.793038
1880,-3.21065e-12,0,-1.5327e-06,-3.27738e-12,0,0,-1.0664e-13,0,0,-2.82412,0.792392,0.382451,0,0,0,0,0,1.17588,0.792392,-1368079968,1209867103,-1368079968,1209867103,2073741009,-1368079968,-1368079920,-1368079920,-0.261799,-0.261799,-2.19664e-16,-1.5,3.94113e+12,0,0,3,1.14605,0.792858
1890,-3.21065e-12,0,-1.5327e-06,-3.27738e-12,0,-3.40903e-12,-1.0664e-13,0,0,-2.85775,0.799412,0.387739,0,0,0,0,0,1.14225,0.799412,-1368079968,1209867103,-1368079968,1209867103,2073741009,-1368079968,-1368079920,-1368079920,-0.261799,-0.261799,-1.70775e-16,-1.5,3.94113e+12,0,0,3,1.15118,0.791881
1900,-3.21065e-12,0,-1.5327e-06,-3.27738e-12,0,0,-1.0664e-13,0,0,-2.82178,0.79737,0.369677,0,0,0,0,0,1.17822,0.79737,-1368079968,1209867103,-1368079968,1209867103,2073741009,-1368079968,-1368079920,-1368079920,-0.261799,-0.261799,-1.28474e-16,-1.5,3.94113e+12,0,0,3,1.1549,0.792583
1910,-3.21065e-12,0,-1.5327e-06,-3.27738e-12,0,-3.40903e-12,-1.06641e-13,0,0,-2.86247,0.790295,0.394143,0,0,0,0,0,1.13753,0.790295,-1368079968,1209867103,-1368079968,1209867103,2073741009,-1368079968,-1368079920,-1368079920,-0.261799,-0.261799,-1.00892e-16,-1.5,3.94113e+12,0,0,3,1.13974,0.792083
1920,-3.21065e-12,0,-1.5327e-06,-3.27738e-12,0,0,-1.06641e-13,0,0,-2.8829,0.805233,0.410398,0,0,0,0,0,1.1171,0.805233,-1368079968,1209867103,-1368079968,1209867103,2073741009,-1368079968,-1368079920,-1368079920,-0.261799,-0.261799,-7.88557e-17,-1.5,3.94113e+12,0,0,3,1.13959,0.793044
1930,-3.21065e-12,0,-1.5327e-06,-3.27738e-12,0,-3.40903e-12,-1.06641e-13,0,0,-2.86289,0.78756,0.40324,0,0,0,0,0,1.13711,0.78756,-1368079968,1209867103,-1368079968,1209867103,2073741009,-1368079968,-1368079920,-1368079920,-0.261799,-0.261799,-6.05292e-17,-1.5,3.94113e+12,0,0,3,1.13909,0.791145
1940,-3.21065e-12,0,-1.5327e-06,-3.27738e-12,0,0,-1.06641e-13,0,0,-2.9054,0.79786,0.417828,0,0,0,0,0,1.0946,0.79786,-1368079968,1209867103,-1368079968,1209867103,2073741009,-1368079968,-1368079920,-1368079920,-0.261799,-0.261799,-4.58662e-17,-1.5,3.94113e+12,0,0,3,1.13017,0.79743
1950,-3.21065e-12,0,-1.5327e-06,-3.27738e-12,0,-3.40903e-12,-1.06642e-13,0,0,-2.94542,0.81278,0.450636,0,0,0,0,0,1.05458,0.81278,-1368079968,1209867103,-1368079968,1209867103,2073741009,-1368079968,-1368079920,-1368079920,-0.261799,-0.261799,-3.5658e-17,-1.5,3.94113e+12,0,0,3,1.12446,0.799016
1960,-3.21065e-12,0,-1.5327e-06,-3.27738e-12,0,0,-1.06642e-13,0,0,-2.9182,0.806845,0.436878,0,0,0,0,0,1.0818,0.806845,-1368079968,1209867103,-1368079968,1209867103,2073741009,-1368079968,-1368079920,-1368079920,-0.261799,-0.261799,-2.70358e-17,-1.5,3.94113e+12,0,0,3,1.09365,0.802771
1970,-3.21065e-12,0,-1.5327e-06,-3.27738e-12,0,-3.40903e-12,-1.06642e-13,0,0,-2.9182,0.806845,0.436878,0,0,0,0,0,1.0818,0.806845,-1368079968,1209867103,-1368079968,1209867103,2073741009,-1368079968,-1368079920,-1368079920,-0.261799,-0.261799,-2.55434e-17,-1.5,3.94113e+12,0,0,3,1.0925,0.802965
1980,-3.21065e-12,0,-1.5327e-06,-3.27738e-12,0,0,-1.06642e-13,0,0,-2.9182,0.806845,0.436878,0,0,0,0,0,1.0818,0.806845,-1368079968,1209867103,-1368079968,1209867103,2073741009,-1368079968,-1368079920,-1368079920,-0.261799,-0.261799,-2.46344e-17,-1.5,3.94113e+12,0,0,3,1.09176,0.80309
1990,-3.21065e-12,0,-1.5327e-06,-3.27738e-12,0,-3.40903e-12,-1.06643e-13,0,0,-2.9182,0.806845,0.436878,0,0,0,0,0,1.0818,0.806845,-1368079968,1209867103,-1368079968,1209867103,2073741009,-1368079968,-1368079920,-1368079920,-0.261799,-0.261799,-2.3952e-17,-1.5,3.94113e+12,0,0,3,1.09119,0.803187
2000,-3.21065e-12,0,-1.5327e-06,-3.27738e-12,0,0,-1.06643e-13,0,0,-2.9182,0.806845,0.436878,0,0,0,0,0,1.0818,0.806845,-1368079968,1209867103,-1368079968,1209867103,2073741009,-1368079968,-1368079920,-1368079920,-0.261799,-0.261799,-2.32885e-17,-1.5,3.94113e+12,0,0,3,1.09061,0.803284
2010,-3.21065e-12,0,-1.5327e-06,-3.27738e-12,0,-3.40903e-12,-1.06643e-13,0,0,-2.9182,0.806845,0.436878,0,0,0,0,0,1.0818,0.806845,-1368079968,1209867103,-1368079968,1209867103,2073741009,-1368079968,-1368079920,-1368079920,-0.261799,-0.261799,-2.23222e-17,-1.5,3.94113e+12,0,0,3,1.08975,0.803429
2020,-3.21065e-12,0,-1.5327e-06,-3.27738e-12,0,0,-1.06644e-13,0,0,-2.9182,0.806845,0.436878,0,0,0,0,0,1.0818,0.806845,-1368079968,1209867103,-1368079968,1209867103,2073741009,-1368079968,-1368079920,-1368079920,-0.261799,-0.261799,-2.13531e-17,-1.5,3.94113e+12,0,0,3,1.08884,0.803582
2030,-3.21065e-12,0,-1.5327e-06,-3.27738e-12,0,-3.40903e-12,-1.06644e-13,0,0,-2.9182,0.806845,0.436878,0,0,0,0,0,1.0818,0.806845,-1368079968,1209867103,-1368079968,1209867103,2073741009,-1368079968,-1368079920,-1368079920,-0.261799,-0.261799,-2.04671e-17,-1.5,3.94113e+12,0,0,3,1.08798,0.803727
2040,-3.21065e-12,0,-1.5327e-06,-3.27738e-12,0,0,-1.06644e-13,0,0,-2.9182,0.806845,0.436878,0,0,0,0,0,1.0818,0.806845,-1368079968,1209867103,-1368079968,1209867103,2073741009,-1368079968,-1368079920,-1368079920,-0.261799,-0.261799,-1.9618e-17,-1.5,3.94113e+12,0,0,3,1.08712,0.803873
2050,-3.21065e-12,0,-1.5327e-06,-3.27738e-12,0,-3.40903e-12,-1.06644e-13,0,0,-2.9182,0.806845,0.436878,0,0,0,0,0,1.0818,0.806845,-1368079968,1209867103,-1368079968,1209867103,2073741009,-1368079968,-1368079920,-1368079920,-0.261799,-0.261799,-1.87662e-17,-1.5,3.94113e+12,0,0,3,1.08621,0.804025
2060,-3.21065e-12,0,-1.5327e-06,-3.27738e-12,0,0,-1.06645e-13,0,0,-2.9182,0.806845,0.436878,0,0,0,0,0,1.0818,0.806845,-1368079968,1209867103,-1368079968,1209867103,2073741009,-1368079968,-1368079920,-1368079920,-0.261799,-0.261799,-1.79876e-17,-1.5,3.94113e+12,0,0,3,1.08535,0.80417
2070,-3.21065e-12,0,-1.5327e-06,-3.27738e-12,0,-3.40903e-12,-1.06645e-13,0,0,-2.9182,0.806845,0.436878,0,0,0,0,0,1.0818,0.806845,-1368079968,1209867103,-1368079968,1209867103,2073741009,-1368079968,-1368079920,-1368079920,-0.261799,-0.261799,-1.72413e-17,-1.5,3.94113e+12,0,0,3,1.08449,0.804316
2080,-3.21065e-12,0,-1.5327e-06,-3.27738e-12,0,0,-1.06645e-13,0,0,-2.9182,0.806845,0.436878,0,0,0,0,0,1.0818,0.806845,-1368079968,1209867103,-1368079968,1209867103,2073741009,-1368079968,-1368079920,-1368079920,-0.261799,-0.261799,-1.65259e-17,-1.5,3.94113e+12,0,0,3,1.08362,0.804461
2090,-3.21065e-12,0,-1.5327e-06,-3.27738e-12,0,-3.40903e-12,-1.06645e-13,0,0,-2.9182,0.806845,0.436878,0,0,0,0,0,1.0818,0.806845,-1368079968,1209867103,-1368079968,1209867103,2073741009,-1368079968,-1368079920,-1368079920,-0.261799,-0.261799,-1.58403e-17,-1.5,3.94113e+12,0,0,3,1.08276,0.804607
2100,-3.21065e-12,0,-1.5327e-06,-3.27738e-12,0,0,-1.06646e-13,0,0,-2.9182,0.806845,0.436878,0,0,0,0,0,1.0818,0.806845,-1368079968,1209867103,-1368079968,1209867103,2073741009,-1368079968,-1368079920,-1368079920,-0.261799,-0.261799,-1.5183e-17,-1.5,3.94113e+12,0,0,3,1.0819,0.804752
2110,-3.21065e-12,0,-1.5327e-06,-3.27738e-12,0,-3.40903e-12,-1.06646e-13,0,0,-2.9182,0.806845,0.436878,0,0,0,0,0,1.0818,0.806845,-1368079968,1209867103,-1368079968,1209867103,2073741009,-1368079968,-1368079920,-1368079920,-0.261799,-0.261799,-1.45232e-17,-1.5,3.94113e+12,0,0,3,1.08099,0.804905
2120,-3.21065e-12,0,-1.5327e-06,-3.27738e-12,0,0,-1.06646e-13,0,0,-2.9182,0.806845,0.436878,0,0,0,0,0,1.0818,0.806845,-1368079968,1209867103,-1368079968,1209867103,2073741009,-1368079968,-1368079920,-1368079920,-0.261799,-0.261799,-1.32365e-17,-1.5,3.94113e+12,0,0,3,1.07914,0.805216
2130,-3.21065e-12,0,-1.5327e-06,-3.27738e-12,0,-3.40903e-12,-1.06647e-13,0,0,-2.9182,0.806845,0.436878,0,0,0,0,0,1.0818,0.806845,-1368079968,1209867103,-1368079968,1209867103,2073741009,-1368079968,-1368079920,-1368079920,-0.261799,-0.261799,-1.27916e-17,-1.5,3.94113e+12,0,0,3,1.07844,0.805334
2140,-3.21065e-12,0,-1.5327e-06,-3.27738e-12,0,0,-1.06647e-13,0,0,-2.9182,0.806845,0.436878,1.07779,0.805445,-0.0409647,0.00690211,0,1.0818,0.806845,-1368079968,1209867103,-1368079968,1209867103,2073741009,-1368079968,-1368079920,-1368079920,-0.261799,-0.261799,-1.24119e-17,-1.5,3.94113e+12,0,0,3,1.07779,0.805445
2150,-3.21065e-12,0,-1.5327e-06,-3.27738e-12,0,-3.40903e-12,-1.06647e-13,0,0,-2.9182,0.806845,0.436878,1.07693,0.805589,-0.0405359,0.00682986,0,1.0818,0.806845,-1368079968,1209867103,-1368079968,1209867103,2073741009,-1368079968,-1368079920,-1368079920,-0.261799,-0.261799,-1.18969e-17,-1.5,3.94113e+12,0,0,3,1.07693,0.805589
2160,-3.21065e-12,0,-1.5327e-06,-3.27738e-12,0,0,-1.06647e-13,0,0,-2.9182,0.806845,0.436878,1.07605,0.805738,-0.0400915,0.00675498,0,1.0818,0.806845,-1368079968,1209867103,-1368079968,1209867103,2073741009,-1368079968,-1368079920,-1368079920,-0.261799,-0.261799,-1.13804e-17,-1.5,3.94113e+12,0,0,3,1.07605,0.805738
2170,-3.21065e-12,0,-1.5327e-06,-3.27738e-12,0,-3.40903e-12,-1.06648e-13,0,0,-2.9182,0.806845,0.436878,1.07521,0.805879,-0.0396718,0.00668427,0,1.0818,0.806845,-1368079968,1209867103,-1368079968,1209867103,2073741009,-1368079968,-1368079920,-1368079920,-0.261799,-0.261799,-1.09082e-17,-1.5,3.94113e+12,0,0,3,1.07521,0.805879
2180,-3.21065e-12,0,-1.5327e-06,-3.27738e-12,0,0,-1.06648e-13,0,0,-2.9182,0.806845,0.436878,1.07435,0.806024,-0.0392368,0.00661098,0,1.0818,0.806845,-1368079968,1209867103,-1368079968,1209867103,2073741009,-1368079968,-1368079920,-1368079920,-0.261799,-0.261799,-1.04346e-17,-1.5,3.94113e+12,0,0,3,1.07435,0.806024
2190,-3.21065e-12,0,-1.5327e-06,-3.27738e-12,0,-3.40903e-12,-1.06648e-13,0,0,-2.9182,0.806845,0.436878,1.07353,0.806162,-0.0388261,0.00654178,0,1.0818,0.806845,-1368079968,1209867103,-1368079968,1209867103,2073741009,-1368079968,-1368079920,-1368079920,-0.261799,-0.261799,-1.00017e-17,-1.5,3.94113e+12,0,0,3,1.07353,0.806162
2200,-3.21065e-12,0,-1.5327e-06,-3.27738e-12,0,0,-1.06648e-13,0,0,-2.9182,0.806845,0.436878,1.07268,0.806305,-0.0384004,0.00647006,0,1.0818,0.806845,-1368079968,1209867103,-1368079968,1209867103,2073741009,-1368079968,-1368079920,-1368079920,-0.261799,-0.261799,-9.56746e-18,-1.5,3.94113e+12,0,0,3,1.07268,0.806305
2210,-3.21065e-12,0,-1.5327e-06,-3.27738e-12,0,-3.40903e-12,-1.06649e-13,0,0,-2.9182,0.806845,0.436878,1.07188,0.80644,-0.0379986,0.00640235,0,1.0818,0.806845,-1368079968,1209867103,-1368079968,1209867103,2073741009,-1368079968,-1368079920,-1368079920,-0.261799,-0.261799,-9.17088e-18,-1.5,3.94113e+12,0,0,3,1.07188,0.80644
2220,-3.21065e-12,0,-1.5327e-06,-3.27738e-12,0,0,-1.06649e-13,0,0,-2.9182,0.806845,0.436878,1.07109,0.806574,-0.0376008,0.00633533,0,1.0818,0.806845,-1368079968,1209867103,-1368079968,1209867103,2073741009,-1368079968,-1368079920,-1368079920,-0.261799,-0.261799,-8.79037e-18,-1.5,3.94113e+12,0,0,3,1.07109,0.806574
2230,-3.21065e-12,0,-1.5327e-06,-3.27738e-12,0,-3.40903e-12,-1.06649e-13,0,0,-2.9182,0.806845,0.436878,1.07027,0.806712,-0.0371886,0.00626587,0,1.0818,0.806845,-1368079968,1209867103,-1368079968,1209867103,2073741009,-1368079968,-1368079920,-1368079920,-0.261799,-0.261799,-8.40874e-18,-1.5,3.94113e+12,0,0,3,1.07027,0.806712
2240,-3.21065e-12,0,-1.5327e-06,-3.27738e-12,0,0,-1.06649e-13,0,0,-2.9182,0.806845,0.436878,1.06949,0.806842,-0.0367994,0.0062003,0,1.0818,0.806845,-1368079968,1209867103,-1368079968,1209867103,2073741009,-1368079968,-1368079920,-1368079920,-0.261799,-0.261799,-8.0764e-18,-1.5,3.94113e+12,0,0,3,1.06949,0.806842
2250,-3.21065e-12,0,-1.5327e-06,-3.27738e-12,0,-3.40903e-12,-1.0665e-13,0,0,-2.9182,0.806845,0.436878,1.06872,0.806972,-0.0364141,0.00613539,0,1.0818,0.806845,-1368079968,1209867103,-1368079968,1209867103,2073741009,-1368079968,-1368079920,-1368079920,-0.261799,-0.261799,-7.7413e-18,-1.5,3.94113e+12,0,0,3,1.06872,0.806972
2260,-3.21065e-12,0,-1.5327e-06,-3.27738e-12,0,0,-1.0665e-13,0,0,-2.9182,0.806845,0.436878,1.06811,0.807075,-0.0361055,0.00608339,0,1.0818,0.806845,-1368079968,1209867103,-1368079968,1209867103,2073741009,-1368079968,-1368079920,-1368079920,-0.261799,-0.261799,-7.48106e-18,-1.5,3.94113e+12,0,0,3,1.06811,0.807075
2270,-3.21065e-12,0,-1.5327e-06,-3.27738e-12,0,-3.40903e-12,-1.0665e-13,0,0,-2.9182,0.806845,0.436878,1.06753,0.807172,-0.0358174,0.00603485,0,1.0818,0.806845,-1368079968,1209867103,-1368079968,1209867103,2073741009,-1368079968,-1368079920,-1368079920,-0.261799,-0.261799,-7.24428e-18,-1.5,3.94113e+12,0,0,3,1.06753,0.807172
2280,-3.21065e-12,0,-1.5327e-06,-3.27738e-12,0,0,-1.06651e-13,0,0,-2.9182,0.806845,0.436878,1.06675,0.807304,-0.0354248,0.00596869,0,1.0818,0.806845,-1368079968,1209867103,-1368079968,1209867103,2073741009,-1368079968,-1368079920,-1368079920,-0.261799,-0.261799,-6.92977e-18,-1.5,3.94113e+12,0,0,3,1.06675,0.807304
2290,-3.21065e-12,0,-1.5327e-06,-3.27738e-12,0,-3.40903e-12,-1.06651e-13,0,0,-2.9182,0.806845,0.436878,1.06601,0.807428,-0.0350539,0.00590621,0,1.0818,0.806845,-1368079968,1209867103,-1368079968,1209867103,2073741009,-1368079968,-1368079920,-1368079920,-0.261799,-0.261799,-6.64225e-18,-1.5,3.94113e+12,0,0,3,1.06601,0.807428
2300,-3.21065e-12,0,-1.5327e-06,-3.27738e-12,0,0,-1.06651e-13,0,0,-2.9182,0.806845,0.436878,1.06525,0.807557,-0.0346696,0.00584146,0,1.0818,0.806845,-1368079968,1209867103,-1368079968,1209867103,2073741009,-1368079968,-1368079920,-1368079920,-0.261799,-0.261799,-6.35387e-18,-1.5,3.94113e+12,0,0,3,1.06525,0.807557
2310,-3.21065e-12,0,-1.5327e-06,-3.27738e-12,0,-3.40903e-12,-1.06651e-13,0,0,-2.9182,0.806845,0.436878,1.06453,0.807679,-0.0343067,0.00578031,0,1.0818,0.806845,-1368079968,1209867103,-1368079968,1209867103,2073741009,-1368079968,-1368079920,-1368079920,-0.261799,-0.261799,-6.09024e-18,-1.5,3.94113e+12,0,0,3,1.06453,0.807679
2320,-3.21065e-12,0,-1.5327e-06,-3.27738e-12,0,0,-1.06652e-13,0,0,-2.9182,0.806845,0.436878,1.06381,0.8078,-0.0339476,0.0057198,0,1.0818,0.806845,-1368079968,1209867103,-1368079968,1209867103,2073741009,-1368079968,-1368079920,-1368079920,-0.261799,-0.261799,-5.83756e-18,-1.5,3.94113e+12,0,0,3,1.06381,0.8078
