timestamp,A_x,A_y,A_z,P,Q,R,Phi,Theta,Psi,poseX,poseY,poseZ,state_X,state_Y,state_Z,state_VzB,state_Bx,state_By,state_Bz,p1_x,p1_y,p2_x,p2_y,p3_x,p3_y,p4_x,p4_y,roll,pitch,yaw,alt,targetHeading,highLevelState,lowLevelState,gateNumber,filtered_x,filtered_y,x_OT,y_OT,vx_OT,vy_OT,filtered_vx,filtered_vygateArearansac_corr_x,ransac_corr_y,ransac_corr_vx,ransac_corr_vy,detectionTimeStamp
8386,0,0,0,0,0,0,0,0,0,0,0,0,0,0,0,0,0,0,0,0,0,0,0,0,0,0,0,0,-0,0,-1.5,nan,0,0,0,0,0,0,0,0,0,0,0,1.9603e-19,0,0,0,0,0
8401,0,0,0,0,0,0,0,0,0,0,0,0,0,0,0,0,0,0,0,0,0,0,0,0,0,0,0,0,-0,0,-1.5,nan,0,0,0,0,0,0,0,0,0,0,0,1.9603e-19,0,0,0,0,0
9153,-3.34303e-12,3.41555e-38,-1.59789e-06,-3.40794e-12,3.41532e-38,-3.89419e-12,-1.13703e-13,0,0,0,0,0,0,0,0,0,0,0,0,0,0,0,0,0,0,0,0,0,-0,0,-1.5,nan,0,0,0,0,0,0,0,0,0,0,0,1.9603e-19,0,0,0,0,0
9193,-3.34303e-12,3.41555e-38,-1.59789e-06,-3.40794e-12,3.41532e-38,0,-1.13703e-13,0,0,0,0,0,0,0,0,0,0,0,0,0,0,0,0,0,0,0,0,0,-0,0,-1.5,nan,0,0,0,0,0,0,0,0,0,0,0,1.9603e-19,0,0,0,0,0
9430,-3.34303e-12,3.41555e-38,-1.59789e-06,-3.40794e-12,3.41532e-38,-3.89419e-12,-1.13704e-13,0,0,0,0,0,0,0,0,0,0,0,0,0,0,0,0,0,0,0,0,0,-0,0,-1.5,nan,0,0,0,0,0,0,0,0,0,0,0,1.9603e-19,0,0,0,0,0
9489,-3.34303e-12,3.41555e-38,-1.59789e-06,-3.40794e-12,3.41532e-38,0,-1.13704e-13,0,0,0,0,0,0,0,0,0,0,0,0,0,0,0,0,0,0,0,0,0,-0,0,-1.5,nan,0,0,0,0,0,0,0,0,0,0,0,1.9603e-19,0,0,0,0,0
9740,-3.34303e-12,3.41555e-38,-1.59789e-06,-3.40794e-12,3.41532e-38,-3.89419e-12,-1.13705e-13,0,0,0,0,0,0,0,0,0,0,0,0,0,0,0,0,0,0,0,0,0,-0,0,-1.5,nan,0,0,0,0,0,0,0,0,0,0,0,1.9603e-19,0,0,0,0,0
9835,-3.34303e-12,3.41555e-38,-1.59789e-06,-3.40794e-12,3.41532e-38,0,-1.13705e-13,0,0,0,0,0,0,0,0,0,0,0,0,0,0,0,0,0,0,0,0,0,-0,0,-1.5,nan,0,0,0,0,0,0,0,0,0,0,0,1.9603e-19,0,0,0,0,0
9940,-3.34303e-12,3.41555e-38,-1.59789e-06,-3.40794e-12,3.41532e-38,-3.89419e-12,-1.13706e-13,0,0,0,0,0,0,0,0,0,0,0,0,0,0,0,0,0,0,0,0,0,-0,0,-1.5,nan,0,0,0,0,0,0,0,0,0,0,0,1.9603e-19,0,0,0,0,0
10045,-3.34303e-12,3.41555e-38,-1.59789e-06,-3.40794e-12,3.41532e-38,0,-1.13706e-13,0,0,0,0,0,0,0,0,0,0,0,0,0,0,0,0,0,0,0,0,0,-0,0,-1.5,nan,0,0,0,0,0,0,0,0,0,0,0,1.9603e-19,0,0,0,0,0
10075,-3.34303e-12,3.41555e-38,-1.59789e-06,-3.40794e-12,3.41532e-38,-3.89419e-12,-1.13707e-13,0,0,0,0,0,0,0,0,0,0,0,0,0,0,0,0,0,0,0,0,0,-0,0,-1.5,nan,0,0,0,0,0,0,0,0,0,0,0,1.9603e-19,0,0,0,0,0
10180,-3.34303e-12,3.41555e-38,-1.59789e-06,-3.40794e-12,3.41532e-38,0,-1.13708e-13,0,0,0,0,0,0,0,0,0,0,0,0,0,0,0,0,0,0,0,0,0,-0,0,-1.5,nan,0,0,0,0,0,0,0,0,0,0,0,1.9603e-19,0,0,0,0,0
10231,-3.34303e-12,3.41555e-38,-1.59789e-06,-3.40794e-12,3.41532e-38,-3.89419e-12,-1.13708e-13,0,0,0,0,0,0,0,0,0,0,0,0,0,0,0,0,0,0,0,0,0,-0,0,-1.5,nan,0,0,0,0,0,0,0,0,0,0,0,1.9603e-19,0,0,0,0,0
10251,-3.34303e-12,3.41555e-38,-1.59789e-06,-3.40794e-12,3.41532e-38,0,-1.13709e-13,0,0,0,0,0,0,0,0,0,0,0,0,0,0,0,0,0,0,0,0,0,-0,0,-1.5,nan,0,0,0,0,0,0,0,0,0,0,0,1.9603e-19,0,0,0,0,0
10269,-3.34303e-12,3.41555e-38,-1.59789e-06,-3.40794e-12,3.41532e-38,-3.89419e-12,-1.13709e-13,0,0,0,0,0,0,0,0,0,0,0,0,0,0,0,0,0,0,0,0,0,-0,0,-1.5,nan,0,0,0,0,0,0,0,0,0,0,0,1.9603e-19,0,0,0,0,0
10370,-3.34303e-12,3.41555e-38,-1.59789e-06,-3.40794e-12,3.41532e-38,0,-1.1371e-13,0,0,0,0,0,0,0,0,0,0,0,0,0,0,0,0,0,0,0,0,0,-0,0,-1.5,nan,0,0,0,0,0,0,0,0,0,0,0,1.9603e-19,0,0,0,0,0
10411,-3.34303e-12,3.41555e-38,-1.59789e-06,-3.40794e-12,3.41532e-38,-3.89419e-12,-1.1371e-13,0,0,0,0,0,0,0,0,0,0,0,0,0,0,0,0,0,0,0,0,0,-0,0,-1.5,nan,0,0,0,0,0,0,0,0,0,0,0,1.9603e-19,0,0,0,0,0
10428,-3.34303e-12,3.41555e-38,-1.59789e-06,-3.40794e-12,3.41532e-38,0,-1.13711e-13,0,0,0,0,0,0,0,0,0,0,0,0,0,0,0,0,0,0,0,0,0,-0,0,-1.5,nan,0,0,0,0,0,0,0,0,0,0,0,1.9603e-19,0,0,0,0,0
10448,-3.34303e-12,3.41555e-38,-1.59789e-06,-3.40794e-12,3.41532e-38,-3.89419e-12,-1.13711e-13,0,0,0,0,0,0,0,0,0,0,0,0,0,0,0,0,0,0,0,0,0,-0,0,-1.5,nan,0,0,0,0,0,0,0,0,0,0,0,1.9603e-19,0,0,0,0,0
10466,-3.34303e-12,3.41555e-38,-1.59789e-06,-3.40794e-12,3.41532e-38,0,-1.13712e-13,0,0,0,0,0,0,0,0,0,0,0,0,0,0,0,0,0,0,0,0,0,-0,0,-1.5,nan,0,0,0,0,0,0,0,0,0,0,0,1.9603e-19,0,0,0,0,0
10570,-3.34303e-12,3.41555e-38,-1.59789e-06,-3.40794e-12,3.41532e-38,-3.89419e-12,-1.13712e-13,0,0,0,0,0,0,0,0,0,0,0,0,0,0,0,0,0,0,0,0,0,-0,0,-1.5,nan,0,0,0,0,0,0,0,0,0,0,0,1.9603e-19,0,0,0,0,0
10718,-3.34303e-12,3.41555e-38,-1.59789e-06,-3.40794e-12,3.41532e-38,0,-1.13713e-13,0,0,0,0,0,0,0,0,0,0,0,0,0,0,0,0,0,0,0,0,0,-0,0,-1.5,nan,0,0,0,0,0,0,0,0,0,0,0,1.9603e-19,0,0,0,0,0
10841,-3.34303e-12,3.41555e-38,-1.59789e-06,-3.40794e-12,3.41532e-38,-3.89419e-12,-1.13714e-13,0,0,-3.60159,0.0669359,0.517091,0,0,0,0,0,-0.534181,0.0669359,248,-68,248,-68,372,-72,253,58,0,-0,0,-1.5,nan,0,0,0,0,0,0,0,0,0,0,0,16770,0,0,0,0,10832
10882,-3.34303e-12,3.41555e-38,-1.59789e-06,-3.40794e-12,3.41532e-38,0,-1.13714e-13,0,0,-3.58388,0.0651805,0.508871,0,0,0,0,0,-0.509921,0.0651805,249,-66,249,-66,375,-74,251,58,0,-0,0,-1.5,nan,0,0,0,0,0,0,0,0,0,0,0,16764,0,0,0,0,10874
10899,-3.34303e-12,3.41555e-38,-1.59789e-06,-3.40794e-12,3.41532e-38,-3.89419e-12,-1.13715e-13,0,0,-3.61477,0.0634044,0.529471,0,0,0,0,0,-0.552234,0.0634044,249,-66,249,-66,374,-74,253,57,0,-0,0,-1.5,nan,0,0,0,0,0,0,0,0,0,0,0,16637,0,0,0,0,10891
10917,-3.34303e-12,3.41555e-38,-1.59789e-06,-3.40794e-12,3.41532e-38,0,-1.13715e-13,0,0,-3.61477,0.0634044,0.529471,0,0,0,0,0,-0.552234,0.0634044,249,-66,249,-66,374,-74,253,57,0,-0,0,-1.5,nan,0,0,0,0,0,0,0,0,0,0,0,16637,0,0,0,0,10891
11020,-3.34303e-12,3.41555e-38,-1.59789e-06,-3.40794e-12,3.41532e-38,-3.89419e-12,-1.13716e-13,0,0,-3.59132,0.067502,0.513306,0,0,0,0,0,-0.520108,0.067502,249,-66,249,-66,374,-74,251,58,0,-0,0,-1.5,nan,0,0,0,0,0,0,0,0,0,0,0,16764,0,0,0,0,11012
11119,-3.34303e-12,3.41555e-38,-1.59789e-06,-3.40794e-12,3.41532e-38,0,-1.13716e-13,0,0,-3.57174,0.0649596,0.497029,0,0,0,0,0,-0.493278,0.0649596,249,-66,249,-66,375,-74,251,59,0,-0,0,-1.5,nan,0,0,0,0,0,0,0,0,0,0,0,16891,0,0,0,0,11111
11139,-3.34303e-12,3.41555e-38,-1.59789e-06,-3.40794e-12,3.41532e-38,-3.89419e-12,-1.13717e-13,0,0,-3.59132,0.067502,0.513306,0,0,0,0,0,-0.520108,0.067502,249,-66,249,-66,374,-74,251,58,0,-0,0,-1.5,nan,0,0,0,0,0,0,0,0,0,0,0,16764,0,0,0,0,11131
11198,-3.34303e-12,3.41555e-38,-1.59789e-06,-3.40794e-12,3.41532e-38,0,-1.13717e-13,0,0,-3.58497,0.0631262,0.507215,0,0,0,0,0,-0.511407,0.0631262,250,-66,250,-66,375,-74,251,59,-0.0309572,-0.260054,0,-1.5,nan,0,0,0,-0.520108,0.0630852,0,0,0,0,3.58952e-08,-0.00585262,16758,-0.520108,0.0631262,3.58952e-08,-0.00585262,11193
11218,-3.34303e-12,3.41555e-38,-1.59789e-06,-3.40794e-12,3.41532e-38,-3.89419e-12,-1.13718e-13,0,0,-3.58497,0.0631262,0.507215,0,0,0,0,0,-0.511407,0.0631262,250,-66,250,-66,375,-74,251,59,-0.0308988,-0.260054,0,-1.5,nan,0,0,0,-0.520108,0.0629682,0,0,0,0,3.58952e-08,-0.00585262,16758,-0.520108,0.0631262,3.58952e-08,-0.00585262,11193
11324,-3.34303e-12,3.41555e-38,-1.59789e-06,-3.40794e-12,3.41532e-38,0,-1.13723e-13,0,0,-3.587,0.0699062,0.510203,0,0,0,0,0,-0.514185,0.0699062,250,-66,250,-66,372,-76,251,59,-0.0327317,-0.253043,0,-1.5,nan,0,0,0,-0.511058,0.0654224,0,0,0,0,0.0248655,0.000207143,17010,-0.513668,0.0654007,0.0248655,0.000207143,11312
11375,-3.34303e-12,3.41555e-38,-1.59789e-06,-3.40794e-12,3.41532e-38,-3.89419e-12,-1.13724e-13,0,0,-3.61252,0.0721758,0.528279,0,0,0,0,0,-0.549152,0.0721758,249,-66,249,-66,372,-74,251,57,-0.0382311,-0.261799,0,-1.5,nan,0,0,0,-0.528832,0.0726676,0,0,0,0,-0.0291108,0.0189734,16637,-0.527318,0.0716809,-0.0291108,0.0189734,11363
11398,-3.34303e-12,3.41555e-38,-1.59789e-06,-3.40794e-12,3.41532e-38,0,-1.13719e-13,0,0,-3.59132,0.067502,0.513306,0,0,0,0,0,-0.520108,0.067502,249,-66,249,-66,374,-74,251,58,-0.034298,-0.258673,0,-1.5,nan,0,0,0,-0.51793,0.0676833,0,0,0,0,0.00293393,0.00456504,16764,-0.51796,0.0676377,0.00293393,0.00456504,11391
11416,-3.34303e-12,3.41555e-38,-1.59789e-06,-3.40794e-12,3.41532e-38,-3.89419e-12,-1.13718e-13,0,0,-3.59132,0.067502,0.513306,0,0,0,0,0,-0.520108,0.067502,249,-66,249,-66,374,-74,251,58,-0.0343391,-0.258647,0,-1.5,nan,0,0,0,-0.517877,0.0677655,0,0,0,0,0.00293393,0.00456504,16764,-0.51796,0.0676377,0.00293393,0.00456504,11391
11437,-3.34303e-12,3.41555e-38,-1.59789e-06,-3.40794e-12,3.41532e-38,0,-1.1372e-13,0,0,-3.59235,0.0654427,0.51161,0,0,0,0,0,-0.521515,0.0654427,250,-66,250,-66,374,-74,251,59,-0.0343333,-0.261799,0,-1.5,nan,0,0,0,-0.521541,0.0677298,0,0,0,0,-0.0123184,0.00468449,16758,-0.521393,0.0676736,-0.0123184,0.00468449,11427
11544,-3.34303e-12,3.41555e-38,-1.59789e-06,-3.40794e-12,3.41532e-38,-3.89419e-12,-1.13721e-13,0,0,-3.59334,0.0719152,0.509887,0,0,0,0,0,-0.522877,0.0719152,249,-66,249,-66,372,-74,251,59,-0.0345839,-0.260691,0,-1.5,nan,0,0,0,-0.521037,0.0682311,0,0,0,0,-0.00174096,0.00468447,16891,-0.520851,0.0677298,-0.00174096,0.00468447,11532
11605,-3.34303e-12,3.41555e-38,-1.59789e-06,-3.40794e-12,3.41532e-38,0,-1.13722e-13,0,0,-3.6294,0.0680795,0.538207,0,0,0,0,0,-0.57228,0.0680795,249,-66,249,-66,372,-74,253,57,-0.034696,-0.261799,0,-1.5,nan,0,0,0,-0.525302,0.0685018,0,0,0,0,-0.0139837,0.00444977,16637,-0.524449,0.0682304,-0.0139837,0.00444977,11593
11622,-3.34303e-12,3.41555e-38,-1.59789e-06,-3.40794e-12,3.41532e-38,-3.89419e-12,-1.13723e-13,0,0,-3.6294,0.0680795,0.538207,0,0,0,0,0,-0.57228,0.0680795,249,-66,249,-66,372,-74,253,57,-0.0347317,-0.261799,0,-1.5,nan,0,0,0,-0.525526,0.068573,0,0,0,0,-0.0139837,0.00444977,16637,-0.524449,0.0682304,-0.0139837,0.00444977,11593
11644,-3.34303e-12,3.41555e-38,-1.59789e-06,-3.40794e-12,3.41532e-38,0,-1.1372e-13,0,0,-3.59041,0.0651743,0.515078,0,0,0,0,0,-0.518865,0.0651743,249,-66,249,-66,375,-74,251,57,-0.0345781,-0.261799,0,-1.5,nan,0,0,0,-0.523216,0.0683889,0,0,0,0,-0.00755272,0.00383605,16637,-0.523042,0.0683006,-0.00755272,0.00383605,11632
11755,-3.34303e-12,3.41555e-38,-1.59789e-06,-3.40794e-12,3.41532e-38,-3.89419e-12,-1.13729e-13,0,0,-3.59132,0.067502,0.513306,0,0,0,0,0,-0.520108,0.067502,249,-66,249,-66,374,-74,251,58,-0.0346398,-0.261799,0,-1.5,nan,0,0,0,-0.52332,0.0685562,0,0,0,0,-0.00388028,0.00361444,16764,-0.522889,0.068155,-0.00388028,0.00361444,11742
11806,-3.34303e-12,3.41555e-38,-1.59789e-06,-3.40794e-12,3.41532e-38,0,-1.1373e-13,0,0,-3.62591,0.0550746,0.528813,0,0,0,0,0,-0.567499,0.0550746,249,-66,249,-66,374,-74,257,60,-0.0342722,-0.261799,0,-1.5,nan,0,0,0,-0.525753,0.0679773,0,0,0,0,-0.00989202,0.00283528,17018,-0.525248,0.0678327,-0.00989202,0.00283528,11794
11835,-3.34303e-12,3.41555e-38,-1.59789e-06,-3.40794e-12,3.41532e-38,-3.89419e-12,-1.1373e-13,0,0,-3.62591,0.0550746,0.528813,0,0,0,0,0,-0.567499,0.0550746,249,-66,249,-66,374,-74,257,60,-0.0330779,-0.261799,0,-1.5,nan,0,0,0,-0.52539,0.0659636,0,0,0,0,-0.00916933,0.000962092,17018,-0.525124,0.0659357,-0.00916933,0.000962092,11823
11852,-3.34303e-12,3.41555e-38,-1.59789e-06,-3.40794e-12,3.41532e-38,0,-1.13722e-13,0,0,-3.62591,0.0550746,0.528813,0,0,0,0,0,-0.567499,0.0550746,249,-66,249,-66,374,-74,257,60,-0.0330861,-0.261799,0,-1.5,nan,0,0,0,-0.525546,0.06598,0,0,0,0,-0.00916933,0.000962092,17018,-0.525124,0.0659357,-0.00916933,0.000962092,11823
11878,-3.34303e-12,3.41555e-38,-1.59789e-06,-3.40794e-12,3.41532e-38,-3.89419e-12,-1.13732e-13,0,0,-3.60582,0.0721665,0.521957,0,0,0,0,0,-0.539979,0.0721665,249,-66,249,-66,372,-74,251,58,-0.0344488,-0.261799,0,-1.5,nan,0,0,0,-0.539079,0.0683038,0,0,0,0,-0.028232,0.00296997,16764,-0.538345,0.0682266,-0.028232,0.00296997,11865
11902,-3.34303e-12,3.41555e-38,-1.59789e-06,-3.40794e-12,3.41532e-38,0,-1.13733e-13,0,0,-3.58566,0.0672713,0.507628,0,0,0,0,0,-0.512354,0.0672713,249,-66,249,-66,374,-74,251,58,-0.0339683,-0.261799,0,-1.5,nan,0,0,0,-0.528211,0.0675135,0,0,0,0,-0.0123783,0.00211327,16764,-0.528062,0.0674881,-0.0123783,0.00211327,11892
11923,-3.34303e-12,3.41555e-38,-1.59789e-06,-3.40794e-12,3.41532e-38,-3.89419e-12,-1.13731e-13,0,0,-3.58566,0.0672713,0.507628,0,0,0,0,0,-0.512354,0.0672713,249,-66,249,-66,374,-74,251,58,-0.0339901,-0.261799,0,-1.5,nan,0,0,0,-0.528471,0.0675578,0,0,0,0,-0.0123783,0.00211327,16764,-0.528062,0.0674881,-0.0123783,0.00211327,11892
11945,-3.34303e-12,3.41555e-38,-1.59789e-06,-3.40794e-12,3.41532e-38,0,-1.13729e-13,0,0,-3.58461,0.0674997,0.506991,0,0,0,0,0,-0.510911,0.0674997,249,-66,249,-66,374,-74,251,59,-0.0339198,-0.26129,0,-1.5,nan,0,0,0,-0.521979,0.0675266,0,0,0,0,-0.00303551,0.00156497,16891,-0.521915,0.0674937,-0.00303551,0.00156497,11932
11966,-3.34303e-12,3.41555e-38,-1.59789e-06,-3.40794e-12,3.41532e-38,-3.89419e-12,-1.13732e-13,0,0,-3.5979,0.0675009,0.519552,0,0,0,0,0,-0.529129,0.0675009,249,-66,249,-66,374,-74,251,57,-0.0339294,-0.261799,0,-1.5,nan,0,0,0,-0.527568,0.0675205,0,0,0,0,-0.00921454,0.00169207,16637,-0.527485,0.0675053,-0.00921454,0.00169207,11960
11990,-3.34303e-12,3.41555e-38,-1.59789e-06,-3.40794e-12,3.41532e-38,0,-1.13725e-13,0,0,-3.5979,0.0675009,0.519552,0,0,0,0,0,-0.529129,0.0675009,249,-66,249,-66,374,-74,251,57,-0.0339501,-0.261799,0,-1.5,nan,0,0,0,-0.527789,0.0675611,0,0,0,0,-0.00921454,0.00169207,16637,-0.527485,0.0675053,-0.00921454,0.00169207,11960
12009,-3.34303e-12,3.41555e-38,-1.59789e-06,-3.40794e-12,3.41532e-38,-3.89419e-12,-1.13725e-13,0,0,-3.59132,0.067502,0.513306,0,0,0,0,0,-0.520108,0.067502,249,-66,249,-66,374,-74,251,58,-0.0340896,-0.261799,0,-1.5,nan,0,0,0,-0.523966,0.0676919,0,0,0,0,-0.00467761,0.00243796,16764,-0.523882,0.067648,-0.00467761,0.00243796,11996
12030,-3.34303e-12,3.41555e-38,-1.59789e-06,-3.40794e-12,3.41532e-38,0,-1.13726e-13,0,0,-3.62505,0.0504225,0.532984,0,0,0,0,0,-0.566324,0.0504225,249,-66,249,-66,376,-74,257,58,-0.0315832,-0.261799,0,-1.5,nan,0,0,0,-0.530327,0.067598,0,0,0,0,-0.0141445,0.00186927,16764,-0.530242,0.0675868,-0.0141445,0.00186927,12026
12054,-3.34303e-12,3.41555e-38,-1.59789e-06,-3.40794e-12,3.41532e-38,-3.89419e-12,-1.13726e-13,0,0,-3.62505,0.0504225,0.532984,0,0,0,0,0,-0.566324,0.0504225,249,-66,249,-66,376,-74,257,58,-0.0340084,-0.261799,0,-1.5,nan,0,0,0,-0.530666,0.0676428,0,0,0,0,-0.0141445,0.00186927,16764,-0.530242,0.0675868,-0.0141445,0.00186927,12026
12076,-3.34303e-12,3.41555e-38,-1.59789e-06,-3.40794e-12,3.41532e-38,0,-1.13728e-13,0,0,-3.61477,0.0634044,0.529471,0,0,0,0,0,-0.552234,0.0634044,249,-66,249,-66,374,-74,253,57,-0.0338329,-0.261799,0,-1.5,nan,0,0,0,-0.533288,0.0674714,0,0,0,0,-0.0156237,0.000971968,16637,-0.532945,0.06745,-0.0156237,0.000971968,12063
12098,-3.34303e-12,3.41555e-38,-1.59789e-06,-3.40794e-12,3.41532e-38,-3.89419e-12,-1.13733e-13,0,0,-3.6544,0.0572445,0.539502,0,0,0,0,0,-0.60653,0.0572445,249,-66,249,-66,373,-71,257,60,-0.0340201,-0.261799,0,-1.5,nan,0,0,0,-0.543022,0.0676998,0,0,0,0,-0.0265253,0.00170237,16637,-0.542783,0.0676844,-0.0265253,0.00170237,12091
12154,-3.34303e-12,3.41555e-38,-1.59789e-06,-3.40794e-12,3.41532e-38,0,-1.13734e-13,0,0,-3.63906,0.0688658,0.535272,0,0,0,0,0,-0.585519,0.0688658,249,-63,249,-63,372,-74,253,58,-0.0341119,-0.261799,0,-1.5,nan,0,0,0,-0.546496,0.0678767,0,0,0,0,-0.0278206,0.00173272,16764,-0.544938,0.0677796,-0.0278206,0.00173272,12141
12205,-3.34303e-12,3.41555e-38,-1.59789e-06,-3.40794e-12,3.41532e-38,-3.89419e-12,-1.13734e-13,0,0,-3.60102,0.0698612,0.514467,0,0,0,0,0,-0.533402,0.0698612,250,-66,250,-66,372,-74,251,59,-0.0343489,-0.261799,0,-1.5,nan,0,0,0,-0.535864,0.0682395,0,0,0,0,-0.0152965,0.00228882,16758,-0.535665,0.0682098,-0.0152965,0.00228882,12193
12231,-3.34303e-12,3.41555e-38,-1.59789e-06,-3.40794e-12,3.41532e-38,0,-1.13735e-13,0,0,-3.62302,0.0613346,0.534322,0,0,0,0,0,-0.563534,0.0613346,249,-66,249,-66,374,-74,254,57,-0.0294544,-0.261799,0,-1.5,nan,0,0,0,-0.539383,0.0679682,0,0,0,0,-0.0212556,0.00219021,16637,-0.539234,0.0679529,-0.0212556,0.00219021,12226
12285,-3.34303e-12,3.41555e-38,-1.59789e-06,-3.40794e-12,3.41532e-38,-3.89419e-12,-1.13727e-13,0,0,-3.58461,0.0674997,0.506991,0,0,0,0,0,-0.510911,0.0674997,249,-66,249,-66,374,-74,251,59,-0.033878,-0.261799,0,-1.5,nan,0,0,0,-0.535502,0.0675794,0,0,0,0,-0.014905,0.000882112,16891,-0.534697,0.0675318,-0.014905,0.000882112,12270
12308,-3.34303e-12,3.41555e-38,-1.59789e-06,-3.40794e-12,3.41532e-38,0,-1.13736e-13,0,0,-3.62591,0.0550746,0.528813,0,0,0,0,0,-0.567499,0.0550746,249,-66,249,-66,374,-74,257,60,-0.0336334,-0.261799,0,-1.5,nan,0,0,0,-0.544558,0.0672467,0,0,0,0,-0.0206332,0.000102748,17018,-0.544104,0.0672444,-0.0206332,0.000102748,12294
12357,-3.34303e-12,3.41555e-38,-1.59789e-06,-3.40794e-12,3.41532e-38,-3.89419e-12,-1.13736e-13,0,0,-3.57633,0.0628664,0.504365,0,0,0,0,0,-0.499572,0.0628664,249,-66,249,-66,376,-74,251,58,-0.0326423,-0.261799,0,-1.5,nan,0,0,0,-0.536087,0.0655633,0,0,0,0,-0.0141836,-0.00139306,16764,-0.535392,0.0656316,-0.0141836,-0.00139306,12342
12380,-3.34303e-12,3.41555e-38,-1.59789e-06,-3.40794e-12,3.41532e-38,0,-1.13737e-13,0,0,-3.61353,0.0633614,0.528896,0,0,0,0,0,-0.550534,0.0633614,251,-66,251,-66,374,-74,251,57,-0.0320177,-0.261799,0,-1.5,nan,0,0,0,-0.552128,0.0645263,0,0,0,0,-0.0324417,-0.0024573,16375,-0.551349,0.0645853,-0.0324417,-0.0024573,12366
12400,-3.34303e-12,3.41555e-38,-1.59789e-06,-3.40794e-12,3.41532e-38,-3.89419e-12,-1.13737e-13,0,0,-3.5979,0.0675009,0.519552,0,0,0,0,0,-0.529129,0.0675009,249,-66,249,-66,374,-74,251,57,-0.0321172,-0.261799,0,-1.5,nan,0,0,0,-0.542936,0.0647895,0,0,0,0,-0.0208936,-0.00277486,16637,-0.542747,0.0648145,-0.0208936,-0.00277486,12392
12418,-3.34303e-12,3.41555e-38,-1.59789e-06,-3.40794e-12,3.41532e-38,0,-1.13727e-13,0,0,-3.5979,0.0675009,0.519552,0,0,0,0,0,-0.529129,0.0675009,249,-66,249,-66,374,-74,251,57,-0.0320909,-0.261799,0,-1.5,nan,0,0,0,-0.543333,0.0647368,0,0,0,0,-0.0208936,-0.00277486,16637,-0.542747,0.0648145,-0.0208936,-0.00277486,12392
12441,-3.34303e-12,3.41555e-38,-1.59789e-06,-3.40794e-12,3.41532e-38,-3.89419e-12,-1.13738e-13,0,0,-3.64698,0.0550409,0.548411,0,0,0,0,0,-0.596356,0.0550409,249,-66,249,-66,374,-74,257,57,-0.0308798,-0.261799,0,-1.5,nan,0,0,0,-0.552529,0.0628377,0,0,0,0,-0.0303402,-0.00539192,16637,-0.551831,0.0629618,-0.0303402,-0.00539192,12427
12458,-3.34303e-12,3.41555e-38,-1.59789e-06,-3.40794e-12,3.41532e-38,0,-1.13738e-13,0,0,-3.64698,0.0550409,0.548411,0,0,0,0,0,-0.596356,0.0550409,249,-66,249,-66,374,-74,257,57,-0.0308336,-0.261799,0,-1.5,nan,0,0,0,-0.553044,0.0627461,0,0,0,0,-0.0303402,-0.00539192,16637,-0.551831,0.0629618,-0.0303402,-0.00539192,12427
12485,-3.34303e-12,3.41555e-38,-1.59789e-06,-3.40794e-12,3.41532e-38,-3.89419e-12,-1.13739e-13,0,0,-3.60351,0.0738129,0.515878,0,0,0,0,0,-0.536811,0.0738129,249,-66,249,-66,372,-74,251,57,-0.0312802,-0.261799,0,-1.5,nan,0,0,0,-0.554345,0.0635387,0,0,0,0,-0.0314969,-0.00489119,16506,-0.553494,0.0636708,-0.0314969,-0.00489119,12471
12511,-3.34303e-12,3.41555e-38,-1.59789e-06,-3.40794e-12,3.41532e-38,0,-1.13739e-13,0,0,-3.60206,0.0680244,0.515513,0,0,0,0,0,-0.534815,0.0680244,249,-64,249,-64,374,-74,251,58,-0.0313374,-0.261799,0,-1.5,nan,0,0,0,-0.53739,0.0636187,0,0,0,0,-0.0152707,-0.00472031,16764,-0.536993,0.0637415,-0.0152707,-0.00472031,12497
12539,-3.34303e-12,3.41555e-38,-1.59789e-06,-3.40794e-12,3.41532e-38,-3.89419e-12,-1.1374e-13,0,0,-3.61616,0.0613362,0.527978,0,0,0,0,0,-0.554142,0.0613362,250,-66,250,-66,374,-74,253,58,-0.0311499,-0.261799,0,-1.5,nan,0,0,0,-0.539674,0.0632319,0,0,0,0,-0.0156563,-0.00466135,16632,-0.539252,0.0633577,-0.0156563,-0.00466135,12525
12555,-3.34303e-12,3.41555e-38,-1.59789e-06,-3.40794e-12,3.41532e-38,0,-1.1374e-13,0,0,-3.61616,0.0613362,0.527978,0,0,0,0,0,-0.554142,0.0613362,250,-66,250,-66,374,-74,253,58,-0.0311103,-0.261799,0,-1.5,nan,0,0,0,-0.539941,0.0631526,0,0,0,0,-0.0156563,-0.00466135,16632,-0.539252,0.0633577,-0.0156563,-0.00466135,12525
12578,-3.34303e-12,3.41555e-38,-1.59789e-06,-3.40794e-12,3.41532e-38,-3.89419e-12,-1.13741e-13,0,0,-3.58388,0.0651805,0.508871,0,0,0,0,0,-0.509921,0.0651805,249,-66,249,-66,375,-74,251,58,-0.0320898,-0.261799,0,-1.5,nan,0,0,0,-0.542243,0.0647309,0,0,0,0,-0.01714,-0.00275445,16764,-0.541849,0.0647943,-0.01714,-0.00275445,12564
12605,-3.34303e-12,3.41555e-38,-1.59789e-06,-3.40794e-12,3.41532e-38,0,-1.13741e-13,0,0,-3.61252,0.0721758,0.528279,0,0,0,0,0,-0.549152,0.0721758,249,-66,249,-66,372,-74,251,57,-0.032161,-0.261799,0,-1.5,nan,0,0,0,-0.5434,0.0648548,0,0,0,0,-0.0179373,-0.00266411,16637,-0.542916,0.0649267,-0.0179373,-0.00266411,12591
12703,-3.34303e-12,3.41555e-38,-1.59789e-06,-3.40794e-12,3.41532e-38,-3.89419e-12,-1.13742e-13,0,0,-3.59542,0.0649423,0.522087,0,0,0,0,0,-0.525726,0.0649423,248,-68,248,-68,374,-74,253,57,-0.0323204,-0.261799,0,-1.5,nan,0,0,0,-0.540839,0.0650856,0,0,0,0,-0.0140374,-0.00222286,16768,-0.539463,0.0653035,-0.0140374,-0.00222286,12689
12721,-3.34303e-12,3.41555e-38,-1.59789e-06,-3.40794e-12,3.41532e-38,0,-1.13743e-13,0,0,-3.59542,0.0649423,0.522087,0,0,0,0,0,-0.525726,0.0649423,248,-68,248,-68,374,-74,253,57,-0.0323015,-0.261799,0,-1.5,nan,0,0,0,-0.541077,0.0650478,0,0,0,0,-0.0140374,-0.00222286,16768,-0.539463,0.0653035,-0.0140374,-0.00222286,12689
12746,-3.34303e-12,3.41555e-38,-1.59789e-06,-3.40794e-12,3.41532e-38,-3.89419e-12,-1.13743e-13,0,0,-3.57141,0.0666157,0.499178,0,0,0,0,0,-0.49283,0.0666157,248,-68,248,-68,375,-72,251,59,-0.0320771,-0.261799,0,-1.5,nan,0,0,0,-0.533337,0.0646571,0,0,0,0,0.00611195,-0.00251634,16768,-0.533496,0.0647225,0.00611195,-0.00251634,12732
12785,-3.34303e-12,3.41555e-38,-1.59789e-06,-3.40794e-12,3.41532e-38,0,-1.13744e-13,0,0,-3.59041,0.0651743,0.515078,0,0,0,0,0,-0.518865,0.0651743,249,-66,249,-66,375,-74,251,57,-0.0326688,-0.261799,0,-1.5,nan,0,0,0,-0.532949,0.06538,0,0,0,0,0.000886926,-0.000212437,16637,-0.532983,0.0653883,0.000886926,-0.000212437,12771
12808,-3.34303e-12,3.41555e-38,-1.59789e-06,-3.40794e-12,3.41532e-38,-3.89419e-12,-1.13744e-13,0,0,-3.64127,0.0506336,0.542657,0,0,0,0,0,-0.588534,0.0506336,250,-66,250,-66,375,-74,257,58,-0.0317492,-0.261799,0,-1.5,nan,0,0,0,-0.532796,0.0640825,0,0,0,0,0.00788362,-0.00292308,16632,-0.532978,0.0641497,0.00788362,-0.00292308,12794
12835,-3.34303e-12,3.41555e-38,-1.59789e-06,-3.40794e-12,3.41532e-38,0,-1.13745e-13,0,0,-3.59388,0.0610953,0.512362,0,0,0,0,0,-0.523612,0.0610953,249,-66,249,-66,375,-74,253,59,-0.03244,-0.257854,0,-1.5,nan,0,0,0,-0.522937,0.064965,0,0,0,0,0.0361305,-0.000425293,16891,-0.523335,0.0649697,0.0361305,-0.000425293,12826
12852,-3.34303e-12,3.41555e-38,-1.59789e-06,-3.40794e-12,3.41532e-38,-3.89419e-12,-1.13745e-13,0,0,-3.59388,0.0610953,0.512362,0,0,0,0,0,-0.523612,0.0610953,249,-66,249,-66,375,-74,253,59,-0.0324364,-0.257549,0,-1.5,nan,0,0,0,-0.522323,0.0649578,0,0,0,0,0.0361305,-0.000425293,16891,-0.523335,0.0649697,0.0361305,-0.000425293,12826
12915,-3.34303e-12,3.41555e-38,-1.59789e-06,-3.40794e-12,3.41532e-38,0,-1.13746e-13,0,0,-3.63887,0.0639242,0.541368,0,0,0,0,0,-0.585254,0.0639242,249,-66,249,-66,372,-74,255,58,-0.0310133,-0.261799,0,-1.5,nan,0,0,0,-0.529424,0.0628634,0,0,0,0,0.00974248,-0.00418322,16764,-0.530038,0.0631269,0.00974248,-0.00418322,12901
12938,-3.34303e-12,3.41555e-38,-1.59789e-06,-3.40794e-12,3.41532e-38,-3.89419e-12,-1.13746e-13,0,0,-3.53529,0.0684395,0.481692,0,0,0,0,0,-0.443349,0.0684395,246,-68,246,-68,376,-74,251,59,-0.0315559,-0.260181,0,-1.5,nan,0,0,0,-0.523295,0.0637593,0,0,0,0,0.0146632,-0.00323919,17290,-0.5235,0.0638046,0.0146632,-0.00323919,12926
12955,-3.34303e-12,3.41555e-38,-1.59789e-06,-3.40794e-12,3.41532e-38,0,-1.13747e-13,0,0,-3.53529,0.0684395,0.481692,0,0,0,0,0,-0.443349,0.0684395,246,-68,246,-68,376,-74,251,59,-0.031528,-0.260056,0,-1.5,nan,0,0,0,-0.523045,0.0637042,0,0,0,0,0.0146632,-0.00323919,17290,-0.5235,0.0638046,0.0146632,-0.00323919,12926
12982,-3.34303e-12,3.41555e-38,-1.59789e-06,-3.40794e-12,3.41532e-38,-3.89419e-12,-1.13747e-13,0,0,-3.58461,0.0674997,0.506991,0,0,0,0,0,-0.510911,0.0674997,249,-66,249,-66,374,-74,251,59,-0.0319552,-0.259146,0,-1.5,nan,0,0,0,-0.521529,0.0643799,0,0,0,0,0.0161756,-0.00234781,16891,-0.521966,0.0644433,0.0161756,-0.00234781,12968
13005,-3.34303e-12,3.41555e-38,-1.59789e-06,-3.40794e-12,3.41532e-38,0,-1.13748e-13,0,0,-3.58461,0.0674997,0.506991,0,0,0,0,0,-0.510911,0.0674997,249,-66,249,-66,374,-74,251,59,-0.0325333,-0.250538,0,-1.5,nan,0,0,0,-0.510046,0.0651352,0,0,0,0,0.0448411,-0.000342917,16891,-0.510629,0.0651396,0.0448411,-0.000342917,12993
13065,-3.34303e-12,3.41555e-38,-1.59789e-06,-3.40794e-12,3.41532e-38,-3.89419e-12,-1.13749e-13,0,0,-3.61477,0.0634044,0.529471,0,0,0,0,0,-0.552234,0.0634044,249,-66,249,-66,374,-74,253,57,-0.0329896,-0.252438,0,-1.5,nan,0,0,0,-0.513168,0.0656671,0,0,0,0,0.0414519,0.0015587,16637,-0.513541,0.0656531,0.0414519,0.0015587,13058
13087,-3.34303e-12,3.41555e-38,-1.59789e-06,-3.40794e-12,3.41532e-38,0,-1.13749e-13,0,0,-3.61477,0.0634044,0.529471,0,0,0,0,0,-0.552234,0.0634044,249,-66,249,-66,374,-74,253,57,-0.0330064,-0.251985,0,-1.5,nan,0,0,0,-0.512256,0.0657014,0,0,0,0,0.0414519,0.0015587,16637,-0.513541,0.0656531,0.0414519,0.0015587,13058
13110,-3.34303e-12,3.41555e-38,-1.59789e-06,-3.40794e-12,3.41532e-38,-3.89419e-12,-1.1375e-13,0,0,-3.61628,0.0613419,0.527967,0,0,0,0,0,-0.554304,0.0613419,249,-66,249,-66,374,-74,254,58,-0.0331295,-0.250322,0,-1.5,nan,0,0,0,-0.509644,0.0658195,0,0,0,0,0.0450075,0.00219634,16764,-0.510679,0.065769,0.0450075,0.00219634,13096
13137,-3.34303e-12,3.41555e-38,-1.59789e-06,-3.40794e-12,3.41532e-38,0,-1.1375e-13,0,0,-3.59132,0.067502,0.513306,0,0,0,0,0,-0.520108,0.067502,249,-66,249,-66,374,-74,251,58,-0.0329056,-0.257116,0,-1.5,nan,0,0,0,-0.519942,0.0655803,0,0,0,0,0.0285715,0.00115426,16764,-0.520713,0.0655492,0.0285715,0.00115426,13123
13151,-3.34303e-12,3.41555e-38,-1.59789e-06,-3.40794e-12,3.41532e-38,-3.89419e-12,-1.13751e-13,0,0,-3.59132,0.067502,0.513306,0,0,0,0,0,-0.520108,0.067502,249,-66,249,-66,374,-74,251,58,-0.0329137,-0.256913,0,-1.5,nan,0,0,0,-0.519542,0.0655965,0,0,0,0,0.0285715,0.00115426,16764,-0.520713,0.0655492,0.0285715,0.00115426,13123
13317,-3.34303e-12,3.41555e-38,-1.59789e-06,-3.40794e-12,3.41532e-38,0,-1.13751e-13,0,0,-3.59132,0.067502,0.513306,0,0,0,0,0,-0.520108,0.067502,249,-66,249,-66,374,-74,251,58,-0.0359365,-0.25785,0,-1.5,nan,0,0,0,-0.51669,0.0677237,0,0,0,0,0.0199231,0.00325049,16764,-0.5192,0.0673141,0.0199231,0.00325049,13193
13340,-3.34303e-12,3.41555e-38,-1.59789e-06,-3.40794e-12,3.41532e-38,-3.89419e-12,-1.13752e-13,0,0,-3.59132,0.067502,0.513306,0,0,0,0,0,-0.520108,0.067502,249,-66,249,-66,374,-74,251,58,-0.0342241,-0.256122,0,-1.5,nan,0,0,0,-0.516232,0.0677984,0,0,0,0,0.0199231,0.00325049,16764,-0.5192,0.0673141,0.0199231,0.00325049,13193
13362,-3.34303e-12,3.41555e-38,-1.59789e-06,-3.40794e-12,3.41532e-38,0,-1.13752e-13,0,0,-3.58461,0.0674997,0.506991,0,0,0,0,0,-0.510911,0.0674997,249,-66,249,-66,374,-74,251,59,-0.0344478,-0.257804,0,-1.5,nan,0,0,0,-0.518147,0.0681393,0,0,0,0,0.0127098,0.00378209,16891,-0.518427,0.0680561,0.0127098,0.00378209,13348
13385,-3.34303e-12,3.41555e-38,-1.59789e-06,-3.40794e-12,3.41532e-38,-3.89419e-12,-1.13753e-13,0,0,-3.63114,0.0592505,0.539097,0,0,0,0,0,-0.574657,0.0592505,249,-66,249,-66,374,-74,255,57,-0.0342706,-0.255825,0,-1.5,nan,0,0,0,-0.515744,0.0677723,0,0,0,0,0.0204816,0.00384562,16637,-0.516215,0.0676839,0.0204816,0.00384562,13371
13406,-3.34303e-12,3.41555e-38,-1.59789e-06,-3.40794e-12,3.41532e-38,0,-1.13753e-13,0,0,-3.63114,0.0592505,0.539097,0,0,0,0,0,-0.574657,0.0592505,249,-66,249,-66,374,-74,255,57,-0.034311,-0.255609,0,-1.5,nan,0,0,0,-0.515314,0.0678531,0,0,0,0,0.0204816,0.00384562,16637,-0.516215,0.0676839,0.0204816,0.00384562,13371
13431,-3.34303e-12,3.41555e-38,-1.59789e-06,-3.40794e-12,3.41532e-38,-3.89419e-12,-1.13754e-13,0,0,-3.60243,0.0660481,0.519156,0,0,0,0,0,-0.535325,0.0660481,249,-66,249,-66,372,-76,254,60,-0.0364181,-0.261799,0,-1.5,nan,0,0,0,-0.528896,0.0681076,0,0,0,0,0.00579448,0.00445486,17272,-0.528943,0.068072,0.00579448,0.00445486,13425
13452,-3.34303e-12,3.41555e-38,-1.59789e-06,-3.40794e-12,3.41532e-38,0,-1.13754e-13,0,0,-3.60243,0.0660481,0.519156,0,0,0,0,0,-0.535325,0.0660481,249,-66,249,-66,372,-76,254,60,-0.0345457,-0.261799,0,-1.5,nan,0,0,0,-0.528774,0.0682011,0,0,0,0,0.00579448,0.00445486,17272,-0.528943,0.068072,0.00579448,0.00445486,13425
13475,-3.34303e-12,3.41555e-38,-1.59789e-06,-3.40794e-12,3.41532e-38,-3.89419e-12,-1.13755e-13,0,0,-3.58703,0.0630612,0.515433,0,0,0,0,0,-0.514232,0.0630612,249,-66,249,-66,375,-74,251,57,-0.0334746,-0.254722,0,-1.5,nan,0,0,0,-0.513622,0.0665788,0,0,0,0,0.0208981,0.00185335,16768,-0.514103,0.0665362,0.0208981,0.00185335,13461
13498,-3.34303e-12,3.41555e-38,-1.59789e-06,-3.40794e-12,3.41532e-38,0,-1.13756e-13,0,0,-3.55512,0.064606,0.495899,0,0,0,0,0,-0.470519,0.064606,248,-68,248,-68,375,-74,251,59,-0.026518,-0.261799,0,-1.5,nan,0,0,0,-0.513818,0.0660847,0,0,0,0,0.0221422,0.00147988,17157,-0.513995,0.0660729,0.0221422,0.00147988,13492
13545,-3.34303e-12,3.41555e-38,-1.59789e-06,-3.40794e-12,3.41532e-38,-3.89419e-12,-1.13756e-13,0,0,-3.61477,0.0634044,0.529471,0,0,0,0,0,-0.552234,0.0634044,249,-66,249,-66,374,-74,253,57,-0.032351,-0.255269,0,-1.5,nan,0,0,0,-0.514227,0.0647549,0,0,0,0,0.0184341,-0.000262774,16637,-0.515093,0.0647672,0.0184341,-0.000262774,13531
13567,-3.34303e-12,3.41555e-38,-1.59789e-06,-3.40794e-12,3.41532e-38,0,-1.13757e-13,0,0,-3.6037,0.0650485,0.514505,0,0,0,0,0,-0.537066,0.0650485,249,-66,249,-66,375,-71,251,58,-0.0324995,-0.260978,0,-1.5,nan,0,0,0,-0.524043,0.0650564,0,0,0,0,0.0104347,-0.000290131,16383,-0.524147,0.0650593,0.0104347,-0.000290131,13560
13584,-3.34303e-12,3.41555e-38,-1.59789e-06,-3.40794e-12,3.41532e-38,-3.89419e-12,-1.13757e-13,0,0,-3.6037,0.0650485,0.514505,0,0,0,0,0,-0.537066,0.0650485,249,-66,249,-66,375,-71,251,58,-0.0324969,-0.260888,0,-1.5,nan,0,0,0,-0.523866,0.0650515,0,0,0,0,0.0104347,-0.000290131,16383,-0.524147,0.0650593,0.0104347,-0.000290131,13560
13608,-3.34303e-12,3.41555e-38,-1.59789e-06,-3.40794e-12,3.41532e-38,0,-1.13758e-13,0,0,-3.60739,0.0609979,0.516293,0,0,0,0,0,-0.54213,0.0609979,249,-66,249,-66,375,-72,253,59,-0.0320915,-0.261799,0,-1.5,nan,0,0,0,-0.536023,0.0643977,0,0,0,0,-0.00600314,-0.00107247,16637,-0.535879,0.0644234,-0.00600314,-0.00107247,13594
13631,-3.34303e-12,3.41555e-38,-1.59789e-06,-3.40794e-12,3.41532e-38,-3.89419e-12,-1.13758e-13,0,0,-3.58388,0.0651805,0.508871,0,0,0,0,0,-0.509921,0.0651805,249,-66,249,-66,375,-74,251,58,-0.0407536,-0.116317,0,-1.5,nan,0,0,0,-0.524441,0.0650403,0,0,0,0,0.00905473,-0.000110682,16764,-0.524513,0.0650411,0.00905473,-0.000110682,13625
13648,-3.34303e-12,3.41555e-38,-1.59789e-06,-3.40794e-12,3.41532e-38,0,-1.13759e-13,0,0,-3.58388,0.0651805,0.508871,0,0,0,0,0,-0.509921,0.0651805,249,-66,249,-66,375,-74,251,58,-0.0325084,-0.261237,0,-1.5,nan,0,0,0,-0.524287,0.0650384,0,0,0,0,0.00905473,-0.000110682,16764,-0.524513,0.0650411,0.00905473,-0.000110682,13625
13678,-3.34303e-12,3.41555e-38,-1.59789e-06,-3.40794e-12,3.41532e-38,-3.89419e-12,-1.13759e-13,0,0,-3.571,0.0541928,0.49873,0,0,0,0,0,-0.492267,0.0541928,249,-66,249,-66,378,-74,253,59,-0.0320025,-0.253406,0,-1.5,nan,0,0,0,-0.510806,0.0642211,0,0,0,0,0.0199433,-0.00108165,17157,-0.511405,0.0642536,0.0199433,-0.00108165,13664
13701,-3.34303e-12,3.41555e-38,-1.59789e-06,-3.40794e-12,3.41532e-38,0,-1.1376e-13,0,0,-3.58964,0.069558,0.514449,0,0,0,0,0,-0.517811,0.069558,246,-66,246,-66,374,-74,253,57,-0.0322572,-0.257453,0,-1.5,nan,0,0,0,-0.517279,0.0646261,0,0,0,0,0.0118637,-0.000558977,17030,-0.517421,0.0646328,0.0118637,-0.000558977,13691
13722,-3.34303e-12,3.41555e-38,-1.59789e-06,-3.40794e-12,3.41532e-38,-3.89419e-12,-1.1376e-13,0,0,-3.58964,0.069558,0.514449,0,0,0,0,0,-0.517811,0.069558,246,-66,246,-66,374,-74,253,57,-0.0322513,-0.257329,0,-1.5,nan,0,0,0,-0.517029,0.0646144,0,0,0,0,0.0118637,-0.000558977,17030,-0.517421,0.0646328,0.0118637,-0.000558977,13691
13744,-3.34303e-12,3.41555e-38,-1.59789e-06,-3.40794e-12,3.41532e-38,0,-1.13761e-13,0,0,-3.58461,0.0674997,0.506991,0,0,0,0,0,-0.510911,0.0674997,249,-66,249,-66,374,-74,251,59,-0.0325715,-0.256812,0,-1.5,nan,0,0,0,-0.515525,0.0651571,0,0,0,0,0.00948151,-7.08093e-05,16891,-0.515734,0.0651587,0.00948151,-7.08093e-05,13730
13769,-3.34303e-12,3.41555e-38,-1.59789e-06,-3.40794e-12,3.41532e-38,-3.89419e-12,-1.13762e-13,0,0,-3.58461,0.0674997,0.506991,0,0,0,0,0,-0.510911,0.0674997,249,-66,249,-66,374,-74,251,59,-0.0324069,-0.253849,0,-1.5,nan,0,0,0,-0.510447,0.0648526,0,0,0,0,0.0137274,-0.000192402,16891,-0.510611,0.0648549,0.0137274,-0.000192402,13760
13791,-3.34303e-12,3.41555e-38,-1.59789e-06,-3.40794e-12,3.41532e-38,0,-1.13762e-13,0,0,-3.58461,0.0674997,0.506991,0,0,0,0,0,-0.510911,0.0674997,249,-66,249,-66,374,-74,251,59,-0.0324048,-0.253701,0,-1.5,nan,0,0,0,-0.510145,0.0648483,0,0,0,0,0.0137274,-0.000192402,16891,-0.510611,0.0648549,0.0137274,-0.000192402,13760
13867,-3.34303e-12,3.41555e-38,-1.59789e-06,-3.40794e-12,3.41532e-38,-3.89419e-12,-1.13763e-13,0,0,-3.57723,0.0651834,0.502595,0,0,0,0,0,-0.500803,0.0651833,249,-66,249,-66,375,-74,251,59,-0.0325685,-0.254002,0,-1.5,nan,0,0,0,-0.510579,0.065166,0,0,0,0,0.0128622,-0.000146175,16891,-0.511556,0.0651771,0.0128622,-0.000146175,13853
13885,-3.34303e-12,3.41555e-38,-1.59789e-06,-3.40794e-12,3.41532e-38,0,-1.13763e-13,0,0,-3.57723,0.0651834,0.502595,0,0,0,0,0,-0.500803,0.0651833,249,-66,249,-66,375,-74,251,59,-0.0325668,-0.253895,0,-1.5,nan,0,0,0,-0.51036,0.0651635,0,0,0,0,0.0128622,-0.000146175,16891,-0.511556,0.0651771,0.0128622,-0.000146175,13853
13911,-3.34303e-12,3.41555e-38,-1.59789e-06,-3.40794e-12,3.41532e-38,-3.89419e-12,-1.13764e-13,0,0,-3.57723,0.0651834,0.502595,0,0,0,0,0,-0.500803,0.0651833,249,-66,249,-66,375,-74,251,59,-0.0326476,-0.2524,0,-1.5,nan,0,0,0,-0.507791,0.0652341,0,0,0,0,0.014969,0.000303353,16891,-0.50818,0.0652262,0.014969,0.000303353,13896
13949,-3.34303e-12,3.41555e-38,-1.59789e-06,-3.40794e-12,3.41532e-38,0,-1.13764e-13,0,0,-3.60906,0.0607518,0.529951,0,0,0,0,0,-0.544417,0.0607518,246,-68,246,-68,374,-74,257,57,-0.0324741,-0.253807,0,-1.5,nan,0,0,0,-0.509902,0.0649982,0,0,0,0,0.0114412,-0.000250689,17030,-0.510349,0.065008,0.0114412,-0.000250689,13935
13972,-3.34303e-12,3.41555e-38,-1.59789e-06,-3.40794e-12,3.41532e-38,-3.89419e-12,-1.13765e-13,0,0,-3.64718,0.050591,0.548462,0,0,0,0,0,-0.596632,0.050591,249,-66,249,-66,375,-74,258,57,-0.032733,-0.252758,0,-1.5,nan,0,0,0,-0.508568,0.0652768,0,0,0,0,0.0152521,0.000948281,16637,-0.508919,0.065255,0.0152521,0.000948281,13958
13999,-3.34303e-12,3.41555e-38,-1.59789e-06,-3.40794e-12,3.41532e-38,0,-1.13765e-13,0,0,-3.58725,0.0518843,0.504626,0,0,0,0,0,-0.514529,0.0518843,249,-66,249,-66,378,-71,253,59,-0.0326579,-0.256216,0,-1.5,nan,0,0,0,-0.514376,0.0651027,0,0,0,0,0.00973508,0.00106311,16770,-0.514473,0.0650921,0.00973508,0.00106311,13991
14018,-3.34303e-12,3.41555e-38,-1.59789e-06,-3.40794e-12,3.41532e-38,-3.89419e-12,-1.13766e-13,0,0,-3.58725,0.0518843,0.504626,0,0,0,0,0,-0.514529,0.0518843,249,-66,249,-66,378,-71,253,59,-0.0326676,-0.256124,0,-1.5,nan,0,0,0,-0.514191,0.0651229,0,0,0,0,0.00973508,0.00106311,16770,-0.514473,0.0650921,0.00973508,0.00106311,13991
14070,-3.34303e-12,3.41555e-38,-1.59789e-06,-3.40794e-12,3.41532e-38,0,-1.13766e-13,0,0,-3.58508,0.0721935,0.511356,0,0,0,0,0,-0.511559,0.0721935,249,-66,249,-66,372,-76,251,59,-0.0321236,-0.256035,0,-1.5,nan,0,0,0,-0.51393,0.0646317,0,0,0,0,0.00929815,-0.00192325,17145,-0.514032,0.0646528,0.00929815,-0.00192325,14060
14086,-3.34303e-12,3.41555e-38,-1.59789e-06,-3.40794e-12,3.41532e-38,-3.89419e-12,-1.13767e-13,0,0,-3.58508,0.0721935,0.511356,0,0,0,0,0,-0.511559,0.0721935,249,-66,249,-66,372,-76,251,59,-0.0321073,-0.255956,0,-1.5,nan,0,0,0,-0.513772,0.064599,0,0,0,0,0.00929815,-0.00192325,17145,-0.514032,0.0646528,0.00929815,-0.00192325,14060
14134,-3.34303e-12,3.41555e-38,-1.59789e-06,-3.40794e-12,3.41532e-38,0,-1.13768e-13,0,0,-3.5979,0.0675009,0.519552,0,0,0,0,0,-0.529129,0.0675009,249,-66,249,-66,374,-74,251,57,-0.0318642,-0.254951,0,-1.5,nan,0,0,0,-0.511958,0.0641634,0,0,0,0,0.0102702,-0.00217619,16637,-0.512081,0.0641895,0.0102702,-0.00217619,14124
14163,-3.34303e-12,3.41555e-38,-1.59789e-06,-3.40794e-12,3.41532e-38,-3.89419e-12,-1.13768e-13,0,0,-3.62302,0.0613346,0.534322,0,0,0,0,0,-0.563534,0.0613346,249,-66,249,-66,374,-74,254,57,-0.0320933,-0.260015,0,-1.5,nan,0,0,0,-0.520077,0.0644018,0,0,0,0,0.000239582,-0.00107593,16637,-0.52008,0.0644126,0.000239582,-0.00107593,14156
14180,-3.34303e-12,3.41555e-38,-1.59789e-06,-3.40794e-12,3.41532e-38,0,-1.13769e-13,0,0,-3.62302,0.0613346,0.534322,0,0,0,0,0,-0.563534,0.0613346,249,-66,249,-66,374,-74,254,57,-0.0320841,-0.26001,0,-1.5,nan,0,0,0,-0.520073,0.0643836,0,0,0,0,0.000239582,-0.00107593,16637,-0.52008,0.0644126,0.000239582,-0.00107593,14156
14203,-3.34303e-12,3.41555e-38,-1.59789e-06,-3.40794e-12,3.41532e-38,-3.89419e-12,-1.13769e-13,0,0,-3.62222,0.0588686,0.52304,0,0,0,0,0,-0.562436,0.0588686,250,-66,250,-66,375,-71,253,59,-0.0301489,-0.257019,0,-1.5,nan,0,0,0,-0.516715,0.0612783,0,0,0,0,0.0133689,-0.00490272,16380,-0.516902,0.0613469,0.0133689,-0.00490272,14191
14230,-3.34303e-12,3.41555e-38,-1.59789e-06,-3.40794e-12,3.41532e-38,0,-1.1377e-13,0,0,-3.60127,0.0634116,0.516764,0,0,0,0,0,-0.533735,0.0634116,249,-66,249,-66,374,-74,253,59,-0.0313963,-0.261799,0,-1.5,nan,0,0,0,-0.528588,0.0633096,0,0,0,0,-0.00794942,-0.00258301,16891,-0.528509,0.0633355,-0.00794942,-0.00258301,14222
14247,-3.34303e-12,3.41555e-38,-1.59789e-06,-3.40794e-12,3.41532e-38,-3.89419e-12,-1.1377e-13,0,0,-3.60127,0.0634116,0.516764,0,0,0,0,0,-0.533735,0.0634116,249,-66,249,-66,374,-74,253,59,-0.0313747,-0.261799,0,-1.5,nan,0,0,0,-0.528723,0.0632657,0,0,0,0,-0.00794942,-0.00258301,16891,-0.528509,0.0633355,-0.00794942,-0.00258301,14222
14266,-3.34303e-12,3.41555e-38,-1.59789e-06,-3.40794e-12,3.41532e-38,0,-1.13771e-13,0,0,-3.61477,0.0634044,0.529471,0,0,0,0,0,-0.552234,0.0634044,249,-66,249,-66,374,-74,253,57,-0.0312593,-0.261799,0,-1.5,nan,0,0,0,-0.530574,0.0631936,0,0,0,0,-0.00935111,-0.00337739,16637,-0.530471,0.0632308,-0.00935111,-0.00337739,14257
14284,-3.34303e-12,3.41555e-38,-1.59789e-06,-3.40794e-12,3.41532e-38,-3.89419e-12,-1.13771e-13,0,0,-3.61477,0.0634044,0.529471,0,0,0,0,0,-0.552234,0.0634044,249,-66,249,-66,374,-74,253,57,-0.0312285,-0.261799,0,-1.5,nan,0,0,0,-0.530742,0.0631328,0,0,0,0,-0.00935111,-0.00337739,16637,-0.530471,0.0632308,-0.00935111,-0.00337739,14257
14310,-3.34303e-12,3.41555e-38,-1.59789e-06,-3.40794e-12,3.41532e-38,0,-1.13772e-13,0,0,-3.64698,0.0550409,0.548411,0,0,0,0,0,-0.596356,0.0550409,249,-66,249,-66,374,-74,257,57,-0.0295716,-0.261799,0,-1.5,nan,0,0,0,-0.540495,0.0603681,0,0,0,0,-0.0175944,-0.00612553,16637,-0.540038,0.0605274,-0.0175944,-0.00612553,14296
14368,-3.34303e-12,3.41555e-38,-1.59789e-06,-3.40794e-12,3.41532e-38,-3.89419e-12,-1.13772e-13,0,0,-3.5979,0.0675009,0.519552,0,0,0,0,0,-0.529129,0.0675009,249,-66,249,-66,374,-74,251,57,-0.031031,-0.261799,0,-1.5,nan,0,0,0,-0.532955,0.0627706,0,0,0,0,-0.0109883,-0.00354119,16637,-0.532318,0.0629759,-0.0109883,-0.00354119,14354
14385,-3.34303e-12,3.41555e-38,-1.59789e-06,-3.40794e-12,3.41532e-38,0,-1.13773e-13,0,0,-3.5979,0.0675009,0.519552,0,0,0,0,0,-0.529129,0.0675009,249,-66,249,-66,374,-74,251,57,-0.0310013,-0.261799,0,-1.5,nan,0,0,0,-0.533142,0.0627104,0,0,0,0,-0.0109883,-0.00354119,16637,-0.532318,0.0629759,-0.0109883,-0.00354119,14354
14408,-3.34303e-12,3.41555e-38,-1.59789e-06,-3.40794e-12,3.41532e-38,-3.89419e-12,-1.13773e-13,0,0,-3.58461,0.0674997,0.506991,0,0,0,0,0,-0.510911,0.0674997,249,-66,249,-66,374,-74,251,59,-0.0311474,-0.261799,0,-1.5,nan,0,0,0,-0.538153,0.0628544,0,0,0,0,-0.0265404,-0.00279889,16891,-0.537542,0.0629188,-0.0265404,-0.00279889,14394
14436,-3.34303e-12,3.41555e-38,-1.59789e-06,-3.40794e-12,3.41532e-38,0,-1.13774e-13,0,0,-3.61477,0.0634044,0.529471,0,0,0,0,0,-0.552234,0.0634044,249,-66,249,-66,374,-74,253,57,-0.0313697,-0.261799,0,-1.5,nan,0,0,0,-0.537659,0.0630985,0,0,0,0,-0.025225,-0.00179507,16637,-0.537306,0.0631236,-0.025225,-0.00179507,14424
14455,-3.34303e-12,3.41555e-38,-1.59789e-06,-3.40794e-12,3.41532e-38,-3.89419e-12,-1.13775e-13,0,0,-3.61477,0.0634044,0.529471,0,0,0,0,0,-0.552234,0.0634044,249,-66,249,-66,374,-74,253,57,-0.031353,-0.261799,0,-1.5,nan,0,0,0,-0.538138,0.0630644,0,0,0,0,-0.025225,-0.00179507,16637,-0.537306,0.0631236,-0.025225,-0.00179507,14424
14478,-3.34303e-12,3.41555e-38,-1.59789e-06,-3.40794e-12,3.41532e-38,0,-1.13775e-13,0,0,-3.63755,0.0660036,0.543077,0,0,0,0,0,-0.583439,0.0660036,250,-66,250,-66,372,-74,253,57,-0.0315651,-0.261799,0,-1.5,nan,0,0,0,-0.542702,0.063356,0,0,0,0,-0.0276742,-0.0011289,16506,-0.542066,0.063382,-0.0276742,-0.0011289,14464
14505,-3.34303e-12,3.41555e-38,-1.59789e-06,-3.40794e-12,3.41532e-38,-3.89419e-12,-1.13776e-13,0,0,-3.61139,0.0612795,0.529841,0,0,0,0,0,-0.547599,0.0612795,249,-66,249,-66,374,-74,253,57,-0.0314102,-0.261799,0,-1.5,nan,0,0,0,-0.54727,0.0631535,0,0,0,0,-0.0360663,-0.00166625,16768,-0.546765,0.0631768,-0.0360663,-0.00166625,14494
14522,-3.34303e-12,3.41555e-38,-1.59789e-06,-3.40794e-12,3.41532e-38,0,-1.13776e-13,0,0,-3.61139,0.0612795,0.529841,0,0,0,0,0,-0.547599,0.0612795,249,-66,249,-66,374,-74,253,57,-0.0313957,-0.261799,0,-1.5,nan,0,0,0,-0.547883,0.0631251,0,0,0,0,-0.0360663,-0.00166625,16768,-0.546765,0.0631768,-0.0360663,-0.00166625,14494
14576,-3.34303e-12,3.41555e-38,-1.59789e-06,-3.40794e-12,3.41532e-38,-3.89419e-12,-1.13777e-13,0,0,-3.61967,0.059207,0.534722,0,0,0,0,0,-0.558955,0.059207,249,-66,249,-66,374,-74,254,57,-0.0312972,-0.261799,0,-1.5,nan,0,0,0,-0.558336,0.0628655,0,0,0,0,-0.0507961,-0.00135677,16768,-0.555594,0.0629388,-0.0507961,-0.00135677,14562
14622,-3.34303e-12,3.41555e-38,-1.59789e-06,-3.40794e-12,3.41532e-38,0,-1.13777e-13,0,0,-3.58388,0.0651805,0.508871,0,0,0,0,0,-0.509921,0.0651805,249,-66,249,-66,375,-74,251,58,-0.031338,-0.261799,0,-1.5,nan,0,0,0,-0.553592,0.0630329,0,0,0,0,-0.0457232,-0.00178347,16764,-0.551488,0.0631149,-0.0457232,-0.00178347,14608
14642,-3.34303e-12,3.41555e-38,-1.59789e-06,-3.40794e-12,3.41532e-38,-3.89419e-12,-1.13778e-13,0,0,-3.58461,0.0674997,0.506991,0,0,0,0,0,-0.510911,0.0674997,249,-66,249,-66,374,-74,251,59,-0.0313205,-0.261799,0,-1.5,nan,0,0,0,-0.553447,0.063003,0,0,0,0,-0.040719,-0.00181034,16891,-0.552958,0.0630248,-0.040719,-0.00181034,14632
14666,-3.34303e-12,3.41555e-38,-1.59789e-06,-3.40794e-12,3.41532e-38,0,-1.13778e-13,0,0,-3.58935,0.0627253,0.50366,0,0,0,0,0,-0.517412,0.0627253,249,-66,249,-66,376,-71,251,59,-0.0310935,-0.261799,0,-1.5,nan,0,0,0,-0.547297,0.062684,0,0,0,0,-0.0330164,-0.00248482,16510,-0.546967,0.0627088,-0.0330164,-0.00248482,14658
14683,-3.34303e-12,3.41555e-38,-1.59789e-06,-3.40794e-12,3.41532e-38,-3.89419e-12,-1.13779e-13,0,0,-3.58935,0.0627253,0.50366,0,0,0,0,0,-0.517412,0.0627253,249,-66,249,-66,376,-71,251,59,-0.0310724,-0.261799,0,-1.5,nan,0,0,0,-0.547859,0.0626417,0,0,0,0,-0.0330164,-0.00248482,16510,-0.546967,0.0627088,-0.0330164,-0.00248482,14658
14706,-3.34303e-12,3.41555e-38,-1.59789e-06,-3.40794e-12,3.41532e-38,0,-1.13779e-13,0,0,-3.61477,0.0634044,0.529471,0,0,0,0,0,-0.552234,0.0634044,249,-66,249,-66,374,-74,253,57,-0.0312659,-0.261799,0,-1.5,nan,0,0,0,-0.554592,0.0629326,0,0,0,0,-0.0423094,-0.00200405,16637,-0.553619,0.0629787,-0.0423094,-0.00200405,14692
14733,-3.34303e-12,3.41555e-38,-1.59789e-06,-3.40794e-12,3.41532e-38,-3.89419e-12,-1.1378e-13,0,0,-3.60582,0.0721665,0.521957,0,0,0,0,0,-0.539979,0.0721665,249,-66,249,-66,372,-74,251,58,-0.0313396,-0.261799,0,-1.5,nan,0,0,0,-0.554351,0.0630814,0,0,0,0,-0.0422481,-0.00201022,16764,-0.553844,0.0631056,-0.0422481,-0.00201022,14723
14750,-3.34303e-12,3.41555e-38,-1.59789e-06,-3.40794e-12,3.41532e-38,0,-1.13781e-13,0,0,-3.60582,0.0721665,0.521957,0,0,0,0,0,-0.539979,0.0721665,249,-66,249,-66,372,-74,251,58,-0.0313228,-0.261799,0,-1.5,nan,0,0,0,-0.555069,0.0630473,0,0,0,0,-0.0422481,-0.00201022,16764,-0.553844,0.0631056,-0.0422481,-0.00201022,14723
14775,-3.34303e-12,3.41555e-38,-1.59789e-06,-3.40794e-12,3.41532e-38,-3.89419e-12,-1.13781e-13,0,0,-3.58288,0.0627765,0.501866,0,0,0,0,0,-0.508543,0.0627765,249,-66,249,-66,376,-72,251,59,-0.0313475,-0.261799,0,-1.5,nan,0,0,0,-0.554973,0.0631092,0,0,0,0,-0.0396447,-0.00206819,16637,-0.553982,0.0631609,-0.0396447,-0.00206819,14761
14803,-3.34303e-12,3.41555e-38,-1.59789e-06,-3.40794e-12,3.41532e-38,0,-1.13782e-13,0,0,-3.58388,0.0651805,0.508871,0,0,0,0,0,-0.509921,0.0651805,249,-66,249,-66,375,-74,251,58,-0.0310563,-0.261799,0,-1.5,nan,0,0,0,-0.542606,0.0626332,0,0,0,0,-0.0225422,-0.00260064,16764,-0.54229,0.0626696,-0.0225422,-0.00260064,14791
14819,-3.34303e-12,3.41555e-38,-1.59789e-06,-3.40794e-12,3.41532e-38,-3.89419e-12,-1.13782e-13,0,0,-3.58388,0.0651805,0.508871,0,0,0,0,0,-0.509921,0.0651805,249,-66,249,-66,375,-74,251,58,-0.0310358,-0.261799,0,-1.5,nan,0,0,0,-0.542966,0.0625916,0,0,0,0,-0.0225422,-0.00260064,16764,-0.54229,0.0626696,-0.0225422,-0.00260064,14791
14842,-3.34303e-12,3.41555e-38,-1.59789e-06,-3.40794e-12,3.41532e-38,0,-1.13783e-13,0,0,-3.64121,0.0612797,0.549189,0,0,0,0,0,-0.588457,0.0612797,248,-68,248,-68,372,-74,257,57,-0.0311068,-0.261799,0,-1.5,nan,0,0,0,-0.557995,0.0626367,0,0,0,0,-0.0410563,-0.00211806,16768,-0.557051,0.0626854,-0.0410563,-0.00211806,14828
14892,-3.34303e-12,3.41555e-38,-1.59789e-06,-3.40794e-12,3.41532e-38,-3.89419e-12,-1.13783e-13,0,0,-3.58461,0.0674997,0.506991,0,0,0,0,0,-0.510911,0.0674997,249,-66,249,-66,374,-74,251,59,-0.0316744,-0.261799,0,-1.5,nan,0,0,0,-0.545236,0.0634158,0,0,0,0,-0.0222404,-0.000333995,16891,-0.544146,0.0634321,-0.0222404,-0.000333995,14877
14915,-3.34303e-12,3.41555e-38,-1.59789e-06,-3.40794e-12,3.41532e-38,0,-1.13784e-13,0,0,-3.58461,0.0674997,0.506991,0,0,0,0,0,-0.510911,0.0674997,249,-66,249,-66,374,-74,251,59,-0.0331835,-0.256474,0,-1.5,nan,0,0,0,-0.518007,0.0656781,0,0,0,0,0.025296,0.00344411,16891,-0.518614,0.0655954,0.025296,0.00344411,14901
14942,-3.34303e-12,3.41555e-38,-1.59789e-06,-3.40794e-12,3.41532e-38,-3.89419e-12,-1.13784e-13,0,0,-3.63397,0.0618455,0.536632,0,0,0,0,0,-0.578544,0.0618455,249,-64,249,-64,374,-74,254,57,-0.033228,-0.25757,0,-1.5,nan,0,0,0,-0.519741,0.0655969,0,0,0,0,0.0230109,0.00429537,16637,-0.520362,0.0654809,0.0230109,0.00429537,14928
14982,-3.34303e-12,3.41555e-38,-1.59789e-06,-3.40794e-12,3.41532e-38,0,-1.13785e-13,0,0,-3.62302,0.0613346,0.534322,0,0,0,0,0,-0.563534,0.0613346,249,-66,249,-66,374,-74,254,57,-0.0335691,-0.261799,0,-1.5,nan,0,0,0,-0.536276,0.0661369,0,0,0,0,0.0076093,0.00500696,16637,-0.53658,0.0659366,0.0076093,0.00500696,14968
15005,-3.34303e-12,3.41555e-38,-1.59789e-06,-3.40794e-12,3.41532e-38,-3.89419e-12,-1.13785e-13,0,0,-3.61252,0.0721758,0.528279,0,0,0,0,0,-0.549152,0.0721758,249,-66,249,-66,372,-74,251,57,-0.0335769,-0.261799,0,-1.5,nan,0,0,0,-0.549092,0.0662106,0,0,0,0,-0.0188357,0.00471576,16637,-0.548828,0.0661446,-0.0188357,0.00471576,14993
15032,-3.34303e-12,3.41555e-38,-1.59789e-06,-3.40794e-12,3.41532e-38,0,-1.13786e-13,0,0,-3.61477,0.0634044,0.529471,0,0,0,0,0,-0.552234,0.0634044,249,-66,249,-66,374,-74,253,57,-0.00538473,-0.261799,0,-1.5,nan,0,0,0,-0.550558,0.0641644,0,0,0,0,-0.0232101,0.00123074,16637,-0.550372,0.0641546,-0.0232101,0.00123074,15026
15049,-3.34303e-12,3.41555e-38,-1.59789e-06,-3.40794e-12,3.41532e-38,-3.89419e-12,-1.13786e-13,0,0,-3.61477,0.0634044,0.529471,0,0,0,0,0,-0.552234,0.0634044,249,-66,249,-66,374,-74,253,57,-0.0322159,-0.261799,0,-1.5,nan,0,0,0,-0.550952,0.0641853,0,0,0,0,-0.0232101,0.00123074,16637,-0.550372,0.0641546,-0.0232101,0.00123074,15026
15074,-3.34303e-12,3.41555e-38,-1.59789e-06,-3.40794e-12,3.41532e-38,0,-1.13787e-13,0,0,-3.5979,0.0675009,0.519552,0,0,0,0,0,-0.529129,0.0675009,249,-66,249,-66,374,-74,251,57,-0.0320673,-0.261799,0,-1.5,nan,0,0,0,-0.546867,0.063996,0,0,0,0,-0.0153086,0.000691984,16637,-0.546485,0.0639787,-0.0153086,0.000691984,15060
15119,-3.34303e-12,3.41555e-38,-1.59789e-06,-3.40794e-12,3.41532e-38,-3.89419e-12,-1.13788e-13,0,0,-3.6226,0.0680743,0.531812,0,0,0,0,0,-0.562964,0.0680743,249,-66,249,-66,372,-74,253,58,-0.0339028,-0.261799,0,-1.5,nan,0,0,0,-0.547711,0.0669785,0,0,0,0,-0.00038011,0.00413309,16764,-0.547694,0.0667925,-0.00038011,0.00413309,15105
15252,-3.34303e-12,3.41555e-38,-1.59789e-06,-3.40794e-12,3.41532e-38,0,-1.13788e-13,0,0,-3.63257,0.0620969,0.531415,0,0,0,0,0,-0.576622,0.0620969,250,-63,250,-63,374,-74,253,58,-0.0341621,-0.261799,0,-1.5,nan,0,0,0,-0.548607,0.0673609,0,0,0,0,0.00380216,0.00481668,16632,-0.549113,0.0667203,0.00380216,0.00481668,15128
15277,-3.34303e-12,3.41555e-38,-1.59789e-06,-3.40794e-12,3.41532e-38,-3.89419e-12,-1.13789e-13,0,0,-3.60727,0.0610779,0.524991,0,0,0,0,0,-0.541955,0.0610779,249,-66,249,-66,375,-74,253,57,-0.0318026,-0.261799,0,-1.5,nan,0,0,0,-0.548581,0.0635554,0,0,0,0,-0.00137994,0.000250768,16637,-0.548547,0.0635491,-0.00137994,0.000250768,15263
15300,-3.34303e-12,3.41555e-38,-1.59789e-06,-3.40794e-12,3.41532e-38,0,-1.13789e-13,0,0,-3.61477,0.0634044,0.529471,0,0,0,0,0,-0.552234,0.0634044,249,-66,249,-66,374,-74,253,57,-0.0320421,-0.261799,0,-1.5,nan,0,0,0,-0.5498,0.0639128,0,0,0,0,0.000426394,0.000857554,16637,-0.54981,0.0638931,0.000426394,0.000857554,15286
15323,-3.34303e-12,3.41555e-38,-1.59789e-06,-3.40794e-12,3.41532e-38,-3.89419e-12,-1.1379e-13,0,0,-3.61477,0.0634044,0.529471,0,0,0,0,0,-0.552234,0.0634044,249,-66,249,-66,374,-74,253,57,-0.0316629,-0.261799,0,-1.5,nan,0,0,0,-0.552701,0.0633652,0,0,0,0,-0.00719598,-0.000197048,16637,-0.552535,0.0633697,-0.00719598,-0.000197048,15309
15382,-3.34303e-12,3.41555e-38,-1.59789e-06,-3.40794e-12,3.41532e-38,0,-1.1379e-13,0,0,-3.59132,0.067502,0.513306,0,0,0,0,0,-0.520108,0.067502,249,-66,249,-66,374,-74,251,58,-0.0317946,-0.261799,0,-1.5,nan,0,0,0,-0.551638,0.0635325,0,0,0,0,-0.00630416,0.00028222,16764,-0.551266,0.0635159,-0.00630416,0.00028222,15368
15406,-3.34303e-12,3.41555e-38,-1.59789e-06,-3.40794e-12,3.41532e-38,-3.89419e-12,-1.13791e-13,0,0,-3.57633,0.0628664,0.504365,0,0,0,0,0,-0.499572,0.0628664,249,-66,249,-66,376,-74,251,58,-0.0318711,-0.261799,0,-1.5,nan,0,0,0,-0.548976,0.0636557,0,0,0,0,-0.000830819,0.000430828,16764,-0.548957,0.0636453,-0.000830819,0.000430828,15392
15441,-3.34303e-12,3.41555e-38,-1.59789e-06,-3.40794e-12,3.41532e-38,0,-1.13791e-13,0,0,-3.60727,0.0610779,0.524991,0,0,0,0,0,-0.541955,0.0610779,249,-66,249,-66,375,-74,253,57,-0.031183,-0.261799,0,-1.5,nan,0,0,0,-0.545366,0.0628628,0,0,0,0,9.76566e-05,-0.00248563,16637,-0.545369,0.0629498,9.76566e-05,-0.00248563,15427
15465,-3.34303e-12,3.41555e-38,-1.59789e-06,-3.40794e-12,3.41532e-38,-3.89419e-12,-1.13792e-13,0,0,-3.59132,0.067502,0.513306,0,0,0,0,0,-0.520108,0.067502,249,-66,249,-66,374,-74,251,58,-0.031249,-0.246335,0,-1.5,nan,0,0,0,-0.543582,0.062812,0,0,0,0,-0.00508681,-0.00263994,16764,-0.543547,0.0628305,-0.00508681,-0.00263994,15459
15482,-3.34303e-12,3.41555e-38,-1.59789e-06,-3.40794e-12,3.41532e-38,0,-1.13792e-13,0,0,-3.59132,0.067502,0.513306,0,0,0,0,0,-0.520108,0.067502,249,-66,249,-66,374,-74,251,58,-0.0311194,-0.261799,0,-1.5,nan,0,0,0,-0.543669,0.0627671,0,0,0,0,-0.00508681,-0.00263994,16764,-0.543547,0.0628305,-0.00508681,-0.00263994,15459
15504,-3.34303e-12,3.41555e-38,-1.59789e-06,-3.40794e-12,3.41532e-38,-3.89419e-12,-1.13793e-13,0,0,-3.63114,0.0592505,0.539097,0,0,0,0,0,-0.574657,0.0592505,249,-66,249,-66,374,-74,255,57,-0.0311068,-0.261799,0,-1.5,nan,0,0,0,-0.540632,0.062674,0,0,0,0,0.00649005,-0.0023027,16637,-0.540723,0.0627062,0.00649005,-0.0023027,15492
15531,-3.34303e-12,3.41555e-38,-1.59789e-06,-3.40794e-12,3.41532e-38,0,-1.13794e-13,0,0,-3.5979,0.0675009,0.519552,0,0,0,0,0,-0.529129,0.0675009,249,-66,249,-66,374,-74,251,57,-0.0315708,-0.261799,0,-1.5,nan,0,0,0,-0.5404,0.0632161,0,0,0,0,0.00757752,-0.000375139,16637,-0.540476,0.0632199,0.00757752,-0.000375139,15523
15550,-3.34303e-12,3.41555e-38,-1.59789e-06,-3.40794e-12,3.41532e-38,-3.89419e-12,-1.13794e-13,0,0,-3.5979,0.0675009,0.519552,0,0,0,0,0,-0.529129,0.0675009,249,-66,249,-66,374,-74,251,57,-0.0315669,-0.261799,0,-1.5,nan,0,0,0,-0.540256,0.063209,0,0,0,0,0.00757752,-0.000375139,16637,-0.540476,0.0632199,0.00757752,-0.000375139,15523
15578,-3.34303e-12,3.41555e-38,-1.59789e-06,-3.40794e-12,3.41532e-38,0,-1.13795e-13,0,0,-3.6226,0.0680743,0.531812,0,0,0,0,0,-0.562964,0.0680743,249,-66,249,-66,372,-74,253,58,-0.0318606,-0.261799,0,-1.5,nan,0,0,0,-0.541379,0.0636721,0,0,0,0,0.00510614,0.000242856,16764,-0.541522,0.0636653,0.00510614,0.000242856,15564
15601,-3.34303e-12,3.41555e-38,-1.59789e-06,-3.40794e-12,3.41532e-38,-3.89419e-12,-1.13795e-13,0,0,-3.60127,0.0634116,0.516764,0,0,0,0,0,-0.533735,0.0634116,249,-66,249,-66,374,-74,253,59,-0.0317875,-0.261799,0,-1.5,nan,0,0,0,-0.543325,0.0635207,0,0,0,0,-0.00348259,0.000271359,16891,-0.54329,0.063518,-0.00348259,0.000271359,15593
15618,-3.34303e-12,3.41555e-38,-1.59789e-06,-3.40794e-12,3.41532e-38,0,-1.13796e-13,0,0,-3.60127,0.0634116,0.516764,0,0,0,0,0,-0.533735,0.0634116,249,-66,249,-66,374,-74,253,59,-0.0317898,-0.261799,0,-1.5,nan,0,0,0,-0.543384,0.0635253,0,0,0,0,-0.00348259,0.000271359,16891,-0.54329,0.063518,-0.00348259,0.000271359,15593
15645,-3.34303e-12,3.41555e-38,-1.59789e-06,-3.40794e-12,3.41532e-38,-3.89419e-12,-1.13796e-13,0,0,-3.61628,0.0613419,0.527967,0,0,0,0,0,-0.554304,0.0613419,249,-66,249,-66,374,-74,254,58,-0.03177,-0.261799,0,-1.5,nan,0,0,0,-0.546674,0.0635274,0,0,0,0,-0.0084741,6.06293e-05,16764,-0.546445,0.0635257,-0.0084741,6.06293e-05,15631
15670,-3.34303e-12,3.41555e-38,-1.59789e-06,-3.40794e-12,3.41532e-38,0,-1.13797e-13,0,0,-3.61884,0.0697374,0.52351,0,0,0,0,0,-0.557808,0.0697374,249,-66,249,-66,373,-71,251,58,-0.0316407,-0.261799,0,-1.5,nan,0,0,0,-0.559193,0.0633604,0,0,0,0,-0.0397089,-0.000396878,16383,-0.558717,0.0633652,-0.0397089,-0.000396878,15661
15687,-3.34303e-12,3.41555e-38,-1.59789e-06,-3.40794e-12,3.41532e-38,-3.89419e-12,-1.13797e-13,0,0,-3.61884,0.0697374,0.52351,0,0,0,0,0,-0.557808,0.0697374,249,-66,249,-66,373,-71,251,58,-0.031637,-0.261799,0,-1.5,nan,0,0,0,-0.559868,0.0633537,0,0,0,0,-0.0397089,-0.000396878,16383,-0.558717,0.0633652,-0.0397089,-0.000396878,15661
15735,-3.34303e-12,3.41555e-38,-1.59789e-06,-3.40794e-12,3.41532e-38,0,-1.13798e-13,0,0,-3.61551,0.0590082,0.529839,0,0,0,0,0,-0.553249,0.0590082,249,-66,249,-66,375,-74,254,57,-0.0315462,-0.261799,0,-1.5,nan,0,0,0,-0.553113,0.0631795,0,0,0,0,-0.0129594,-0.000437885,16637,-0.552957,0.0631848,-0.0129594,-0.000437885,15725
15749,-3.34303e-12,3.41555e-38,-1.59789e-06,-3.40794e-12,3.41532e-38,-3.89419e-12,-1.13798e-13,0,0,-3.61551,0.0590082,0.529839,0,0,0,0,0,-0.553249,0.0590082,249,-66,249,-66,375,-74,254,57,-0.031543,-0.261799,0,-1.5,nan,0,0,0,-0.553294,0.0631734,0,0,0,0,-0.0129594,-0.000437885,16637,-0.552957,0.0631848,-0.0129594,-0.000437885,15725
15772,-3.34303e-12,3.41555e-38,-1.59789e-06,-3.40794e-12,3.41532e-38,0,-1.13799e-13,0,0,-3.60727,0.0610779,0.524991,0,0,0,0,0,-0.541955,0.0610779,249,-66,249,-66,375,-74,253,57,-0.0314536,-0.261799,0,-1.5,nan,0,0,0,-0.553924,0.063039,0,0,0,0,-0.0108088,-0.000660971,16637,-0.553783,0.0630476,-0.0108088,-0.000660971,15760
15798,-3.34303e-12,3.41555e-38,-1.59789e-06,-3.40794e-12,3.41532e-38,-3.89419e-12,-1.13799e-13,0,0,-3.61252,0.0721758,0.528279,0,0,0,0,0,-0.549152,0.0721758,249,-66,249,-66,372,-74,251,57,-0.0313824,-0.261799,0,-1.5,nan,0,0,0,-0.552837,0.0630993,0,0,0,0,-0.0122028,-0.001673,16637,-0.552727,0.0631143,-0.0122028,-0.001673,15791
15815,-3.34303e-12,3.41555e-38,-1.59789e-06,-3.40794e-12,3.41532e-38,0,-1.138e-13,0,0,-3.61252,0.0721758,0.528279,0,0,0,0,0,-0.549152,0.0721758,249,-66,249,-66,372,-74,251,57,-0.0313682,-0.261799,0,-1.5,nan,0,0,0,-0.553044,0.0630708,0,0,0,0,-0.0122028,-0.001673,16637,-0.552727,0.0631143,-0.0122028,-0.001673,15791
15841,-3.34303e-12,3.41555e-38,-1.59789e-06,-3.40794e-12,3.41532e-38,-3.89419e-12,-1.13801e-13,0,0,-3.6121,0.0721788,0.527788,0,0,0,0,0,-0.548582,0.0721788,246,-66,246,-66,372,-74,254,57,-0.0315679,-0.261799,0,-1.5,nan,0,0,0,-0.54963,0.0632074,0,0,0,0,-0.00208388,-0.00035795,17030,-0.549576,0.0632167,-0.00208388,-0.00035795,15827
15901,-3.34303e-12,3.41555e-38,-1.59789e-06,-3.40794e-12,3.41532e-38,0,-1.13801e-13,0,0,-3.60127,0.0634116,0.516764,0,0,0,0,0,-0.533735,0.0634116,249,-66,249,-66,374,-74,253,59,-0.0315572,-0.261799,0,-1.5,nan,0,0,0,-0.547836,0.0632716,0,0,0,0,0.00372613,-0.000783516,16891,-0.548059,0.0633186,0.00372613,-0.000783516,15887
15918,-3.34303e-12,3.41555e-38,-1.59789e-06,-3.40794e-12,3.41532e-38,-3.89419e-12,-1.13802e-13,0,0,-3.60127,0.0634116,0.516764,0,0,0,0,0,-0.533735,0.0634116,249,-66,249,-66,374,-74,253,59,-0.0315509,-0.261799,0,-1.5,nan,0,0,0,-0.547772,0.0632583,0,0,0,0,0.00372613,-0.000783516,16891,-0.548059,0.0633186,0.00372613,-0.000783516,15887
15945,-3.34303e-12,3.41555e-38,-1.59789e-06,-3.40794e-12,3.41532e-38,0,-1.13802e-13,0,0,-3.64009,0.055055,0.54195,0,0,0,0,0,-0.586918,0.055055,249,-66,249,-66,374,-74,257,58,-0.0313795,-0.261799,0,-1.5,nan,0,0,0,-0.550698,0.0629243,0,0,0,0,0.00168576,-0.000826137,16764,-0.550743,0.0629466,0.00168576,-0.000826137,15931
15968,-3.34303e-12,3.41555e-38,-1.59789e-06,-3.40794e-12,3.41532e-38,-3.89419e-12,-1.13803e-13,0,0,-3.61477,0.0634044,0.529471,0,0,0,0,0,-0.552234,0.0634044,249,-66,249,-66,374,-74,253,57,-0.0316079,-0.261799,0,-1.5,nan,0,0,0,-0.551675,0.0633068,0,0,0,0,-0.00264465,-0.000454647,16637,-0.551643,0.0633122,-0.00264465,-0.000454647,15958
15987,-3.34303e-12,3.41555e-38,-1.59789e-06,-3.40794e-12,3.41532e-38,0,-1.13803e-13,0,0,-3.61477,0.0634044,0.529471,0,0,0,0,0,-0.552234,0.0634044,249,-66,249,-66,374,-74,253,57,-0.0316036,-0.261799,0,-1.5,nan,0,0,0,-0.551725,0.0632982,0,0,0,0,-0.00264465,-0.000454647,16637,-0.551643,0.0633122,-0.00264465,-0.000454647,15958
16015,-3.34303e-12,3.41555e-38,-1.59789e-06,-3.40794e-12,3.41532e-38,-3.89419e-12,-1.13804e-13,0,0,-3.59964,0.058759,0.520438,0,0,0,0,0,-0.531508,0.058759,249,-66,249,-66,376,-74,253,57,-0.0317344,-0.261799,0,-1.5,nan,0,0,0,-0.5496,0.06348,0,0,0,0,0.00241158,-5.62448e-05,16637,-0.549667,0.0634816,0.00241158,-5.62448e-05,16001
16038,-3.34303e-12,3.41555e-38,-1.59789e-06,-3.40794e-12,3.41532e-38,0,-1.13804e-13,0,0,-3.63906,0.0688658,0.535272,0,0,0,0,0,-0.585519,0.0688658,249,-63,249,-63,372,-74,253,58,-0.0316023,-0.261799,0,-1.5,nan,0,0,0,-0.549881,0.0632403,0,0,0,0,0.00301074,-0.000180886,16764,-0.549917,0.0632425,0.00301074,-0.000180886,16028
16054,-3.34303e-12,3.41555e-38,-1.59789e-06,-3.40794e-12,3.41532e-38,-3.89419e-12,-1.13805e-13,0,0,-3.63906,0.0688658,0.535272,0,0,0,0,0,-0.585519,0.0688658,249,-63,249,-63,372,-74,253,58,-0.0316005,-0.261799,0,-1.5,nan,0,0,0,-0.549832,0.0632374,0,0,0,0,0.00301074,-0.000180886,16764,-0.549917,0.0632425,0.00301074,-0.000180886,16028
16099,-3.34303e-12,3.41555e-38,-1.59789e-06,-3.40794e-12,3.41532e-38,0,-1.13805e-13,0,0,-3.61477,0.0634044,0.529471,0,0,0,0,0,-0.552234,0.0634044,249,-66,249,-66,374,-74,253,57,-0.031721,-0.261799,0,-1.5,nan,0,0,0,-0.552299,0.0634538,0,0,0,0,-0.00282327,-5.96767e-05,16637,-0.55227,0.0634544,-0.00282327,-5.96767e-05,16091
16115,-3.34303e-12,3.41555e-38,-1.59789e-06,-3.40794e-12,3.41532e-38,-3.89419e-12,-1.13806e-13,0,0,-3.61477,0.0634044,0.529471,0,0,0,0,0,-0.552234,0.0634044,249,-66,249,-66,374,-74,253,57,-0.0317205,-0.261799,0,-1.5,nan,0,0,0,-0.552344,0.0634529,0,0,0,0,-0.00282327,-5.96767e-05,16637,-0.55227,0.0634544,-0.00282327,-5.96767e-05,16091
16138,-3.34303e-12,3.41555e-38,-1.59789e-06,-3.40794e-12,3.41532e-38,0,-1.13807e-13,0,0,-3.55978,0.0712873,0.494472,0,0,0,0,0,-0.476902,0.0712873,246,-66,246,-66,375,-74,251,58,-0.0315487,-0.261799,0,-1.5,nan,0,0,0,-0.546442,0.0631383,0,0,0,0,0.00656952,-0.00020774,17160,-0.546593,0.0631431,0.00656952,-0.00020774,16124
16165,-3.34303e-12,3.41555e-38,-1.59789e-06,-3.40794e-12,3.41532e-38,-3.89419e-12,-1.13807e-13,0,0,-3.61252,0.0721758,0.528279,0,0,0,0,0,-0.549152,0.0721758,249,-66,249,-66,372,-74,251,57,-0.0361676,-0.261799,0,-1.5,nan,0,0,0,-0.549207,0.0634882,0,0,0,0,-0.000487969,0.000234617,16637,-0.549203,0.0634864,-0.000487969,0.000234617,16159
16185,-3.34303e-12,3.41555e-38,-1.59789e-06,-3.40794e-12,3.41532e-38,0,-1.13808e-13,0,0,-3.61252,0.0721758,0.528279,0,0,0,0,0,-0.549152,0.0721758,249,-66,249,-66,372,-74,251,57,-0.0317698,-0.261799,0,-1.5,nan,0,0,0,-0.549216,0.0634927,0,0,0,0,-0.000487969,0.000234617,16637,-0.549203,0.0634864,-0.000487969,0.000234617,16159
