timestamp,A_x,A_y,A_z,P,Q,R,Phi,Theta,Psi,poseX,poseY,poseZ,state_X,state_Y,state_Z,state_VzB,state_Bx,state_By,state_Bz,p1_x,p1_y,p2_x,p2_y,p3_x,p3_y,p4_x,p4_y,roll,pitch,yaw,alt,targetHeading,highLevelState,lowLevelState,gateNumber,filtered_x,filtered_y
10,0,0,0,0,0,0,0,0,0,0,0,0,0,0,0,0,0,0,0,0,0,0,0,0,0,0,0,0,-0.261799,-0.00623302,-1.5,nan,0,0,3,0,0
20,0,0,0,0,0,0,0,0,0,0,0,0,0,0,0,0,0,0,0,0,0,0,0,0,0,0,0,0,-0.261799,-0.00532421,-1.5,nan,0,0,3,0,0
30,-3.11384e-12,1.06179e-37,-1.50802e-06,-3.18057e-12,1.06169e-37,-3.59998e-12,-1.06589e-13,0,0,0,0,0,0,0,0,0,0,0,0,0,0,0,0,0,0,0,0,0,-0.261799,0.00143275,-1.5,nan,0,0,3,0,0
40,-3.11384e-12,1.06179e-37,-1.50802e-06,-3.18057e-12,1.06169e-37,0,-1.0659e-13,0,0,0,0,0,0,0,0,0,0,0,0,0,0,0,0,0,0,0,0,0,-0.261799,0.00129456,-1.5,nan,0,0,3,0,0
50,-3.11384e-12,1.06179e-37,-1.50802e-06,-3.18057e-12,1.06169e-37,-3.59998e-12,-1.0659e-13,0,0,0,0,0,0,0,0,0,0,0,0,0,0,0,0,0,0,0,0,0,-0.261799,0.000879818,-1.5,nan,0,0,3,0,0
60,-3.11384e-12,1.06179e-37,-1.50802e-06,-3.18057e-12,1.06169e-37,0,-1.0659e-13,0,0,0,0,0,0,0,0,0,0,0,0,0,0,0,0,0,0,0,0,0,-0.261799,0.000739658,-1.5,nan,0,0,3,0,0
70,-3.11384e-12,1.06179e-37,-1.50802e-06,-3.18057e-12,1.06169e-37,-3.59998e-12,-1.0659e-13,0,0,0,0,0,0,0,0,0,0,0,0,0,0,0,0,0,0,0,0,0,-0.261799,0.000620166,-1.5,nan,0,0,3,0,0
80,-3.11384e-12,1.06179e-37,-1.50802e-06,-3.18057e-12,1.06169e-37,0,-1.06591e-13,0,0,0,0,0,0,0,0,0,0,0,0,0,0,0,0,0,0,0,0,0,-0.261799,0.00059446,-1.5,nan,0,0,3,0,0
90,-3.11384e-12,1.06179e-37,-1.50802e-06,-3.18057e-12,1.06169e-37,-3.59998e-12,-1.06591e-13,0,0,0,0,0,0,0,0,0,0,0,0,0,0,0,0,0,0,0,0,0,-0.261799,0.000496256,-1.5,nan,0,0,3,0,0
100,-3.11384e-12,1.06179e-37,-1.50802e-06,-3.18057e-12,1.06169e-37,0,-1.06591e-13,0,0,0,0,0,0,0,0,0,0,0,0,0,0,0,0,0,0,0,0,0,-0.261799,0.000406318,-1.5,nan,0,0,3,0,0
110,-3.11384e-12,1.06179e-37,-1.50802e-06,-3.18057e-12,1.06169e-37,-3.59998e-12,-1.06591e-13,0,0,0,0,0,0,0,0,0,0,0,0,0,0,0,0,0,0,0,0,0,-0.261799,0.000383091,-1.5,nan,0,0,3,0,0
120,-3.11384e-12,1.06179e-37,-1.50802e-06,-3.18057e-12,1.06169e-37,0,-1.06592e-13,0,0,0,0,0,0,0,0,0,0,0,0,0,0,0,0,0,0,0,0,0,-0.261799,0.000321203,-1.5,nan,0,0,3,0,0
130,-3.11384e-12,1.06179e-37,-1.50802e-06,-3.18057e-12,1.06169e-37,-3.59998e-12,-1.06592e-13,0,0,0,0,0,0,0,0,0,0,0,0,0,0,0,0,0,0,0,0,0,-0.261799,0.00026814,-1.5,nan,0,0,3,0,0
140,-3.11384e-12,1.06179e-37,-1.50802e-06,-3.18057e-12,1.06169e-37,0,-1.06592e-13,0,0,0,0,0,0,0,0,0,0,0,0,0,0,0,0,0,0,0,0,0,-0.261799,0.000257543,-1.5,nan,0,0,3,0,0
150,-3.11384e-12,1.06179e-37,-1.50802e-06,-3.18057e-12,1.06169e-37,-3.59998e-12,-1.06593e-13,0,0,0,0,0,0,0,0,0,0,0,0,0,0,0,0,0,0,0,0,0,-0.261799,0.000212974,-1.5,nan,0,0,3,0,0
160,-3.11384e-12,1.06179e-37,-1.50802e-06,-3.18057e-12,1.06169e-37,0,-1.06593e-13,0,0,-3.38574,0.017547,-0.194385,0,0,0,0,0,0.614258,0.017547,-1368345792,-1368345792,-1368345792,-1368345792,-1368345752,-1851844574,1942449848,-1368345752,0,-0.261799,0.000173957,-1.5,nan,0,0,3,0,0
170,-3.11384e-12,1.06179e-37,-1.50802e-06,-3.18057e-12,1.06169e-37,-3.59998e-12,-1.06593e-13,0,0,-3.38574,0.017547,-0.194385,0,0,0,0,0,0.614258,0.017547,-1368345792,-1368345792,-1368345792,-1368345792,-1368345752,-1851844574,1942449848,-1368345752,0,-0.261799,0.000166063,-1.5,nan,0,0,3,0,0
180,-3.11384e-12,1.06179e-37,-1.50802e-06,-3.18057e-12,1.06169e-37,0,-1.06593e-13,0,0,-3.26328,0.106377,-0.178355,0,0,0,0,0,0.736722,0.106377,-1368345792,-1368345792,-1368345792,-1368345792,-1368345752,-1851844574,1942449848,-1368345752,0,-0.261799,0.000133025,-1.5,nan,0,0,3,0,0
190,-3.11384e-12,1.06179e-37,-1.50802e-06,-3.18057e-12,1.06169e-37,-3.59998e-12,-1.06594e-13,0,0,-3.21741,0.19829,-0.130176,0,0,0,0,0,0.782594,0.19829,-1368345792,-1368345792,-1368345792,-1368345792,-1368345752,-1851844574,1942449848,-1368345752,0,-0.261799,0.000120456,-1.5,nan,0,0,3,0,0
200,-3.11384e-12,1.06179e-37,-1.50802e-06,-3.18057e-12,1.06169e-37,0,-1.06594e-13,0,0,-3.22171,0.21176,-0.047189,0,0,0,0,0,0.778287,0.21176,-1368345792,-1368345792,-1368345792,-1368345792,-1368345752,-1851844574,1942449848,-1368345752,0,-0.261799,8.84311e-05,-1.5,nan,0,0,3,0,0
210,-3.11384e-12,1.06179e-37,-1.50802e-06,-3.18057e-12,1.06169e-37,-3.59998e-12,-1.06594e-13,0,0,-3.22171,0.21176,-0.047189,0,0,0,0,0,0.778287,0.21176,-1368345792,-1368345792,-1368345792,-1368345792,-1368345752,-1851844574,1942449848,-1368345752,0,-0.261799,7.64077e-05,-1.5,nan,0,0,3,0,0
220,-3.11384e-12,1.06179e-37,-1.50802e-06,-3.18057e-12,1.06169e-37,0,-1.06594e-13,0,0,-3.22171,0.21176,-0.047189,0,0,0,0,0,0.778287,0.21176,-1368345792,-1368345792,-1368345792,-1368345792,-1368345752,-1851844574,1942449848,-1368345752,0,-0.261799,6.7974e-05,-1.5,nan,0,0,3,0,0
230,-3.11384e-12,1.06179e-37,-1.50802e-06,-3.18057e-12,1.06169e-37,-3.59998e-12,-1.06595e-13,0,0,-3.22171,0.21176,-0.047189,0,0,0,0,0,0.778287,0.21176,-1368345792,-1368345792,-1368345792,-1368345792,-1368345752,-1851844574,1942449848,-1368345752,0,-0.261799,5.55211e-05,-1.5,nan,0,0,3,0,0
240,-3.11384e-12,1.06179e-37,-1.50802e-06,-3.18057e-12,1.06169e-37,0,-1.06595e-13,0,0,-3.22171,0.21176,-0.047189,0,0,0,0,0,0.778287,0.21176,-1368345792,-1368345792,-1368345792,-1368345792,-1368345752,-1851844574,1942449848,-1368345752,0,-0.261799,5.32197e-05,-1.5,nan,0,0,3,0,0
250,-3.11384e-12,1.06179e-37,-1.50802e-06,-3.18057e-12,1.06169e-37,-3.59998e-12,-1.06595e-13,0,0,-3.22171,0.21176,-0.047189,0,0,0,0,0,0.778287,0.21176,-1368345792,-1368345792,-1368345792,-1368345792,-1368345752,-1851844574,1942449848,-1368345752,0,-0.261799,5.11163e-05,-1.5,nan,0,0,3,0,0
260,-3.11384e-12,1.06179e-37,-1.50802e-06,-3.18057e-12,1.06169e-37,0,-1.06596e-13,0,0,-3.22171,0.21176,-0.047189,0,0,0,0,0,0.778287,0.21176,-1368345792,-1368345792,-1368345792,-1368345792,-1368345752,-1851844574,1942449848,-1368345752,0,-0.261799,4.89955e-05,-1.5,nan,0,0,3,0,0
270,-3.11384e-12,1.06179e-37,-1.50802e-06,-3.18057e-12,1.06169e-37,-3.59998e-12,-1.06596e-13,0,0,-3.22171,0.21176,-0.047189,0,0,0,0,0,0.778287,0.21176,-1368345792,-1368345792,-1368345792,-1368345792,-1368345752,-1851844574,1942449848,-1368345752,0,-0.261799,4.69626e-05,-1.5,nan,0,0,3,0,0
280,-3.11384e-12,1.06179e-37,-1.50802e-06,-3.18057e-12,1.06169e-37,0,-1.06596e-13,0,0,-3.24466,0.231078,0.0144816,0,0,0,0,0,0.755344,0.231078,-1368345792,-1368345792,-1368345792,-1368345792,-1368345752,-1851844574,1942449848,-1368345752,-0.261799,-0.261799,3.45694e-05,-1.5,nan,0,0,3,0.748293,0.240156
290,-3.11384e-12,1.06179e-37,-1.50802e-06,-3.18057e-12,1.06169e-37,-3.59998e-12,-1.06596e-13,0,0,-3.18931,0.253012,0.020242,0,0,0,0,0,0.810693,0.253012,-1368345792,-1368345792,-1368345792,-1368345792,-1368345752,-1851844574,1942449848,-1368345752,-0.261799,-0.261799,3.19142e-05,-1.5,nan,0,0,3,0.81291,0.256465
300,-3.11384e-12,1.06179e-37,-1.50802e-06,-3.18057e-12,1.06169e-37,0,-1.06597e-13,0,0,-3.18931,0.253012,0.020242,0,0,0,0,0,0.810693,0.253012,-1368345792,-1368345792,-1368345792,-1368345792,-1368345752,-1851844574,1942449848,-1368345752,-0.261799,-0.261799,3.09041e-05,-1.5,nan,0,0,3,0.81382,0.257882
310,-3.11384e-12,1.06179e-37,-1.50802e-06,-3.18057e-12,1.06169e-37,-3.59998e-12,-1.06597e-13,0,0,-3.18931,0.253012,0.020242,0,0,0,0,0,0.810693,0.253012,-1368345792,-1368345792,-1368345792,-1368345792,-1368345752,-1851844574,1942449848,-1368345752,-0.261799,-0.261799,2.98659e-05,-1.5,nan,0,0,3,0.814786,0.259387
320,-3.11384e-12,1.06179e-37,-1.50802e-06,-3.18057e-12,1.06169e-37,0,-1.06597e-13,0,0,-3.18931,0.253012,0.020242,0,0,0,0,0,0.810693,0.253012,-1368345792,-1368345792,-1368345792,-1368345792,-1368345752,-1851844574,1942449848,-1368345752,-0.261799,-0.261799,2.85092e-05,-1.5,nan,0,0,3,0.816094,0.261424
330,-3.11384e-12,1.06179e-37,-1.50802e-06,-3.18057e-12,1.06169e-37,-3.59998e-12,-1.06597e-13,0,0,-3.18931,0.253012,0.020242,0,0,0,0,0,0.810693,0.253012,-1368345792,-1368345792,-1368345792,-1368345792,-1368345752,-1851844574,1942449848,-1368345752,-0.261799,-0.261799,2.73834e-05,-1.5,nan,0,0,3,0.817231,0.263195
340,-3.11384e-12,1.06179e-37,-1.50802e-06,-3.18057e-12,1.06169e-37,0,-1.06598e-13,0,0,-2.91866,0.490405,0.26086,0,0,0,0,0,1.08134,0.490405,-1368345792,-1368345792,-1368345792,-1368345792,-1368345752,-1851844574,1942449848,-1368345752,-0.261799,-0.261799,2.08158e-05,-1.5,nan,0,0,3,0.824167,0.273997
350,-3.11384e-12,1.06179e-37,-1.50802e-06,-3.18057e-12,1.06169e-37,-3.59998e-12,-1.06598e-13,0,0,-2.98837,0.496604,0.283915,0,0,0,0,0,1.01163,0.496604,-1368345792,-1368345792,-1368345792,-1368345792,-1368345752,-1851844574,1942449848,-1368345752,-0.261799,-0.261799,1.95015e-05,-1.5,nan,0,0,3,1.02084,0.507899
360,-3.11384e-12,1.06179e-37,-1.50802e-06,-3.18057e-12,1.06169e-37,0,-1.06598e-13,0,0,-2.98837,0.496604,0.283915,0,0,0,0,0,1.01163,0.496604,-1368345792,-1368345792,-1368345792,-1368345792,-1368345752,-1851844574,1942449848,-1368345752,-0.261799,-0.261799,1.88843e-05,-1.5,nan,0,0,3,1.02544,0.513547
370,-3.11384e-12,1.06179e-37,-1.50802e-06,-3.18057e-12,1.06169e-37,-3.59998e-12,-1.06599e-13,0,0,-2.98837,0.496604,0.283915,0,0,0,0,0,1.01163,0.496604,-1368345792,-1368345792,-1368345792,-1368345792,-1368345752,-1851844574,1942449848,-1368345752,-0.261799,-0.261799,1.84352e-05,-1.5,nan,0,0,3,1.02889,0.517783
380,-3.11384e-12,1.06179e-37,-1.50802e-06,-3.18057e-12,1.06169e-37,0,-1.06599e-13,0,0,-2.98837,0.496604,0.283915,0,0,0,0,0,1.01163,0.496604,-1368345792,-1368345792,-1368345792,-1368345792,-1368345752,-1851844574,1942449848,-1368345752,-0.261799,-0.261799,1.77792e-05,-1.5,nan,0,0,3,1.03407,0.524136
390,-3.11384e-12,1.06179e-37,-1.50802e-06,-3.18057e-12,1.06169e-37,-3.59998e-12,-1.06599e-13,0,0,-2.95154,0.533091,0.221084,0,0,0,0,0,1.04846,0.533091,-1368345792,-1368345792,-1368345792,-1368345792,-1368345752,-1851844574,1942449848,-1368345752,-0.261799,-0.261799,1.35422e-05,-1.5,nan,0,0,3,1.07761,0.572476
400,-3.11384e-12,1.06179e-37,-1.50802e-06,-3.18057e-12,1.06169e-37,0,-1.06599e-13,0,0,-3.04937,0.534087,0.357726,0,0,0,0,0,0.95063,0.534087,-1368345792,-1368345792,-1368345792,-1368345792,-1368345752,-1851844574,1942449848,-1368345752,-0.261799,-0.261799,1.25553e-05,-1.5,nan,0,0,3,1.0798,0.579624
410,-3.11384e-12,1.06179e-37,-1.50802e-06,-3.18057e-12,1.06169e-37,-3.59998e-12,-1.066e-13,0,0,-3.04937,0.534087,0.357726,0,0,0,0,0,0.95063,0.534087,-1368345792,-1368345792,-1368345792,-1368345792,-1368345752,-1851844574,1942449848,-1368345752,-0.261799,-0.261799,1.22568e-05,-1.5,nan,0,0,3,1.08326,0.583832
420,-3.11384e-12,1.06179e-37,-1.50802e-06,-3.18057e-12,1.06169e-37,0,-1.066e-13,0,0,-3.04937,0.534087,0.357726,0,0,0,0,0,0.95063,0.534087,-1368345792,-1368345792,-1368345792,-1368345792,-1368345752,-1851844574,1942449848,-1368345752,-0.261799,-0.261799,1.17728e-05,-1.5,nan,0,0,3,1.08902,0.590846
430,-3.11384e-12,1.06179e-37,-1.50802e-06,-3.18057e-12,1.06169e-37,-3.59998e-12,-1.066e-13,0,0,-3.00355,0.527367,0.327448,0,0,0,0,0,0.996454,0.527367,-1368345792,-1368345792,-1368345792,-1368345792,-1368345752,-1851844574,1942449848,-1368345752,-0.261799,-0.261799,8.90068e-06,-1.5,nan,0,0,3,1.02043,0.611377
440,-3.11384e-12,1.06179e-37,-1.50802e-06,-3.18057e-12,1.06169e-37,0,-1.066e-13,0,0,-2.9666,0.538454,0.316711,0,0,0,0,0,1.0334,0.538454,-1368345792,-1368345792,-1368345792,-1368345792,-1368345752,-1851844574,1942449848,-1368345752,-0.261799,-0.261799,8.18207e-06,-1.5,nan,0,0,3,1.04024,0.589491
450,-3.11384e-12,1.06179e-37,-1.50802e-06,-3.18057e-12,1.06169e-37,-3.59998e-12,-1.06601e-13,0,0,-2.9666,0.538454,0.316711,0,0,0,0,0,1.0334,0.538454,-1368345792,-1368345792,-1368345792,-1368345792,-1368345752,-1851844574,1942449848,-1368345752,-0.261799,-0.261799,8.00363e-06,-1.5,nan,0,0,3,1.04255,0.592824
460,-3.11384e-12,1.06179e-37,-1.50802e-06,-3.18057e-12,1.06169e-37,0,-1.06601e-13,0,0,-2.9666,0.538454,0.316711,0,0,0,0,0,1.0334,0.538454,-1368345792,-1368345792,-1368345792,-1368345792,-1368345752,-1851844574,1942449848,-1368345752,-0.261799,-0.261799,7.71881e-06,-1.5,nan,0,0,3,1.04632,0.598277
470,-3.11384e-12,1.06179e-37,-1.50802e-06,-3.18057e-12,1.06169e-37,-3.59998e-12,-1.06601e-13,0,0,-2.99594,0.538662,0.333838,0,0,0,0,0,1.00406,0.538661,-1368345792,-1368345792,-1368345792,-1368345792,-1368345752,-1851844574,1942449848,-1368345752,-0.261799,-0.261799,5.75781e-06,-1.5,nan,0,0,3,1.06863,0.618573
480,-3.11384e-12,1.06179e-37,-1.50802e-06,-3.18057e-12,1.06169e-37,0,-1.06602e-13,0,0,-3.01571,0.53376,0.342373,0,0,0,0,0,0.984292,0.53376,-1368345792,-1368345792,-1368345792,-1368345792,-1368345752,-1851844574,1942449848,-1368345752,-0.261799,-0.261799,5.30425e-06,-1.5,nan,0,0,3,1.04222,0.626039
490,-3.11384e-12,1.06179e-37,-1.50802e-06,-3.18057e-12,1.06169e-37,-3.59998e-12,-1.06602e-13,0,0,-3.01571,0.53376,0.342373,0,0,0,0,0,0.984292,0.53376,-1368345792,-1368345792,-1368345792,-1368345792,-1368345752,-1851844574,1942449848,-1368345752,-0.261799,-0.261799,5.13648e-06,-1.5,nan,0,0,3,1.04516,0.630668
500,-3.11384e-12,1.06179e-37,-1.50802e-06,-3.18057e-12,1.06169e-37,0,-1.06602e-13,0,0,-3.01571,0.53376,0.342373,0,0,0,0,0,0.984292,0.53376,-1368345792,-1368345792,-1368345792,-1368345792,-1368345752,-1851844574,1942449848,-1368345752,-0.261799,-0.261799,4.90339e-06,-1.5,nan,0,0,3,1.04939,0.637321
510,-3.11384e-12,1.06179e-37,-1.50802e-06,-3.18057e-12,1.06169e-37,-3.59998e-12,-1.06602e-13,0,0,-3.01571,0.53376,0.342373,0,0,0,0,0,0.984292,0.53376,-1368345792,-1368345792,-1368345792,-1368345792,-1368345752,-1851844574,1942449848,-1368345752,-0.261799,-0.261799,3.84067e-06,-1.5,nan,0,0,3,1.05547,0.64533
520,-3.11384e-12,1.06179e-37,-1.50802e-06,-3.18057e-12,1.06169e-37,0,-1.06603e-13,0,0,-3.01571,0.53376,0.342373,0,0,0,0,0,0.984292,0.53376,-1368345792,-1368345792,-1368345792,-1368345792,-1368345752,-1851844574,1942449848,-1368345752,-0.261799,-0.261799,3.74935e-06,-1.5,nan,0,0,3,1.05749,0.648628
530,-3.11384e-12,1.06179e-37,-1.50802e-06,-3.18057e-12,1.06169e-37,-3.59998e-12,-1.06603e-13,0,0,-3.01571,0.53376,0.342373,0,0,0,0,0,0.984292,0.53376,-1368345792,-1368345792,-1368345792,-1368345792,-1368345752,-1851844574,1942449848,-1368345752,-0.261799,-0.261799,3.61603e-06,-1.5,nan,0,0,3,1.06052,0.653576
540,-3.11384e-12,1.06179e-37,-1.50802e-06,-3.18057e-12,1.06169e-37,0,-1.06603e-13,0,0,-3.01571,0.53376,0.342373,0,0,0,0,0,0.984292,0.53376,-1368345792,-1368345792,-1368345792,-1368345792,-1368345752,-1851844574,1942449848,-1368345752,-0.261799,-0.261799,3.466e-06,-1.5,nan,0,0,3,1.06405,0.659348
550,-3.11384e-12,1.06179e-37,-1.50802e-06,-3.18057e-12,1.06169e-37,-3.59998e-12,-1.06603e-13,0,0,-3.03074,0.537457,0.356978,0,0,0,0,0,0.969256,0.537457,-1368345792,-1368345792,-1368345792,-1368345792,-1368345752,-1851844574,1942449848,-1368345752,-0.261799,-0.261799,2.46947e-06,-1.5,nan,0,0,3,1.08661,0.672096
560,-3.11384e-12,1.06179e-37,-1.50802e-06,-3.18057e-12,1.06169e-37,0,-1.06604e-13,0,0,-3.02582,0.527438,0.336921,0,0,0,0,0,0.974177,0.527438,-1368345792,-1368345792,-1368345792,-1368345792,-1368345752,-1851844574,1942449848,-1368345752,-0.261799,-0.261799,2.16823e-06,-1.5,nan,0,0,3,1.05567,0.64048
570,-3.11384e-12,1.06179e-37,-1.50802e-06,-3.18057e-12,1.06169e-37,-3.59998e-12,-1.06604e-13,0,0,-3.04631,0.518079,0.348962,0,0,0,0,0,0.953688,0.518079,-1368345792,-1368345792,-1368345792,-1368345792,-1368345752,-1851844574,1942449848,-1368345752,-0.261799,-0.261799,1.32719e-06,-1.5,nan,0,0,3,1.07468,0.679202
580,-3.11384e-12,1.06179e-37,-1.50802e-06,-3.18057e-12,1.06169e-37,0,-1.06604e-13,0,0,-3.04631,0.518079,0.348962,0,0,0,0,0,0.953688,0.518079,-1368345792,-1368345792,-1368345792,-1368345792,-1368345752,-1851844574,1942449848,-1368345752,-0.261799,-0.261799,1.26707e-06,-1.5,nan,0,0,3,0.954311,0.533009
590,-3.11384e-12,1.06179e-37,-1.50802e-06,-3.18057e-12,1.06169e-37,-3.59998e-12,-1.06605e-13,0,0,-3.04631,0.518079,0.348962,0,0,0,0,0,0.953688,0.518079,-1368345792,-1368345792,-1368345792,-1368345792,-1368345752,-1851844574,1942449848,-1368345752,-0.261799,-0.261799,1.23944e-06,-1.5,nan,0,0,3,0.953813,0.53301
600,-3.11384e-12,1.06179e-37,-1.50802e-06,-3.18057e-12,1.06169e-37,0,-1.06605e-13,0,0,-3.04631,0.518079,0.348962,0,0,0,0,0,0.953688,0.518079,-1368345792,-1368345792,-1368345792,-1368345792,-1368345752,-1851844574,1942449848,-1368345752,-0.261799,-0.261799,1.19777e-06,-1.5,nan,0,0,3,0.953045,0.533012
610,-3.11384e-12,1.06179e-37,-1.50802e-06,-3.18057e-12,1.06169e-37,-3.59998e-12,-1.06605e-13,0,0,-3.04631,0.518079,0.348962,0,0,0,0,0,0.953688,0.518079,-1368345792,-1368345792,-1368345792,-1368345792,-1368345752,-1851844574,1942449848,-1368345752,-0.261799,-0.261799,1.15043e-06,-1.5,nan,0,0,3,0.952141,0.533015
620,-3.11384e-12,1.06179e-37,-1.50802e-06,-3.18057e-12,1.06169e-37,0,-1.06605e-13,0,0,-3.04631,0.518079,0.348962,0,0,0,0,0,0.953688,0.518079,-1368345792,-1368345792,-1368345792,-1368345792,-1368345752,-1851844574,1942449848,-1368345752,-0.261799,-0.261799,1.10949e-06,-1.5,nan,0,0,3,0.951327,0.533017
630,-3.11384e-12,1.06179e-37,-1.50802e-06,-3.18057e-12,1.06169e-37,-3.59998e-12,-1.06606e-13,0,0,-3.04631,0.518079,0.348962,0,0,0,0,0,0.953688,0.518079,-1368345792,-1368345792,-1368345792,-1368345792,-1368345752,-1851844574,1942449848,-1368345752,-0.261799,-0.261799,1.08311e-06,-1.5,nan,0,0,3,0.950785,0.533018
640,-3.11384e-12,1.06179e-37,-1.50802e-06,-3.18057e-12,1.06169e-37,0,-1.06606e-13,0,0,-2.99407,0.167544,0.600218,0,0,0,0,0,1.00593,0.167544,-1368345792,-1368345792,-1368345792,-1368345792,-1368345752,-1851844574,1942449848,-1368345752,-0.261799,-0.261799,8.45858e-07,-1.5,nan,0,0,3,0.946962,0.522711
650,-3.11384e-12,1.06179e-37,-1.50802e-06,-3.18057e-12,1.06169e-37,-3.59998e-12,-1.06606e-13,0,0,-2.99407,0.167544,0.600218,0,0,0,0,0,1.00593,0.167544,-1368345792,-1368345792,-1368345792,-1368345792,-1368345752,-1851844574,1942449848,-1368345752,-0.261799,-0.261799,8.20752e-07,-1.5,nan,0,0,3,0.946296,0.522589
660,-3.11384e-12,1.06179e-37,-1.50802e-06,-3.18057e-12,1.06169e-37,0,-1.06606e-13,0,0,-2.99407,0.167544,0.600218,0,0,0,0,0,1.00593,0.167544,-1368345792,-1368345792,-1368345792,-1368345792,-1368345752,-1851844574,1942449848,-1368345752,-0.261799,-0.261799,7.89929e-07,-1.5,nan,0,0,3,0.945452,0.522436
670,-3.11384e-12,1.06179e-37,-1.50802e-06,-3.18057e-12,1.06169e-37,-3.59998e-12,-1.06607e-13,0,0,-2.99407,0.167544,0.600218,0,0,0,0,0,1.00593,0.167544,-1368345792,-1368345792,-1368345792,-1368345792,-1368345752,-1851844574,1942449848,-1368345752,-0.261799,-0.261799,7.54045e-07,-1.5,nan,0,0,3,0.944429,0.52225
680,-3.11384e-12,1.06179e-37,-1.50802e-06,-3.18057e-12,1.06169e-37,0,-1.06607e-13,0,0,-3.05641,0.495961,0.361547,0,0,0,0,0,0.943587,0.495961,-1368345792,-1368345792,-1368345792,-1368345792,-1368345752,-1851844574,1942449848,-1368345752,-0.261799,-0.261799,5.83253e-07,-1.5,nan,0,0,3,0.938695,0.512878
690,-3.11384e-12,1.06179e-37,-1.50802e-06,-3.18057e-12,1.06169e-37,-3.59998e-12,-1.06607e-13,0,0,-3.04493,0.303586,0.436154,0,0,0,0,0,0.955073,0.303586,-1368345792,-1368345792,-1368345792,-1368345792,-1368345752,-1851844574,1942449848,-1368345752,-0.261799,-0.261799,5.34946e-07,-1.5,nan,0,0,3,0.945563,0.51429
700,-3.11384e-12,1.06179e-37,-1.50802e-06,-3.18057e-12,1.06169e-37,0,-1.06607e-13,0,0,-3.04493,0.303586,0.436154,0,0,0,0,0,0.955073,0.303586,-1368345792,-1368345792,-1368345792,-1368345792,-1368345752,-1851844574,1942449848,-1368345752,-0.261799,-0.261799,5.20121e-07,-1.5,nan,0,0,3,0.945014,0.514107
710,-3.11384e-12,1.06179e-37,-1.50802e-06,-3.18057e-12,1.06169e-37,-3.59998e-12,-1.06608e-13,0,0,-3.04493,0.303586,0.436154,0,0,0,0,0,0.955073,0.303586,-1368345792,-1368345792,-1368345792,-1368345792,-1368345752,-1851844574,1942449848,-1368345752,-0.261799,-0.261799,4.99565e-07,-1.5,nan,0,0,3,0.944229,0.513847
720,-3.11384e-12,1.06179e-37,-1.50802e-06,-3.18057e-12,1.06169e-37,0,-1.06608e-13,0,0,-3.09468,0.239611,0.452321,0,0,0,0,0,0.905322,0.239611,-1368345792,-1368345792,-1368345792,-1368345792,-1368345752,-1851844574,1942449848,-1368345752,-0.261799,-0.261799,3.819e-07,-1.5,nan,0,0,3,0.923871,0.494601
730,-3.11384e-12,1.06179e-37,-1.50802e-06,-3.18057e-12,1.06169e-37,-3.59998e-12,-1.06608e-13,0,0,-3.1771,0.26687,0.449895,0,0,0,0,0,0.822901,0.26687,-1368345792,-1368345792,-1368345792,-1368345792,-1368345752,-1851844574,1942449848,-1368345752,-0.261799,-0.261799,3.48066e-07,-1.5,nan,0,0,3,0.924877,0.488554
740,-3.11384e-12,1.06179e-37,-1.50802e-06,-3.18057e-12,1.06169e-37,0,-1.06609e-13,0,0,-3.1771,0.26687,0.449895,0,0,0,0,0,0.822901,0.26687,-1368345792,-1368345792,-1368345792,-1368345792,-1368345752,-1851844574,1942449848,-1368345752,-0.261799,-0.261799,3.3979e-07,-1.5,nan,0,0,3,0.924322,0.488188
750,-3.11384e-12,1.06179e-37,-1.50802e-06,-3.18057e-12,1.06169e-37,-3.59998e-12,-1.06609e-13,0,0,-3.1771,0.26687,0.449895,0,0,0,0,0,0.822901,0.26687,-1368345792,-1368345792,-1368345792,-1368345792,-1368345752,-1851844574,1942449848,-1368345752,-0.261799,-0.261799,3.27029e-07,-1.5,nan,0,0,3,0.923443,0.487608
760,-3.11384e-12,1.06179e-37,-1.50802e-06,-3.18057e-12,1.06169e-37,0,-1.06609e-13,0,0,-3.1771,0.26687,0.449895,0,0,0,0,0,0.822901,0.26687,-1368345792,-1368345792,-1368345792,-1368345792,-1368345752,-1851844574,1942449848,-1368345752,-0.0992521,-0.261799,2.51157e-07,-1.5,nan,0,0,3,0.882898,0.246636
770,-3.11384e-12,1.06179e-37,-1.50802e-06,-3.18057e-12,1.06169e-37,-3.59998e-12,-1.06609e-13,0,0,-3.1771,0.26687,0.449895,0,0,0,0,0,0.822901,0.26687,-1368345792,-1368345792,-1368345792,-1368345792,-1368345752,-1851844574,1942449848,-1368345752,-0.0968473,-0.261799,2.45679e-07,-1.5,nan,0,0,3,0.882052,0.24457
780,-3.11384e-12,1.06179e-37,-1.50802e-06,-3.18057e-12,1.06169e-37,0,-1.0661e-13,0,0,-3.1771,0.26687,0.449895,0,0,0,0,0,0.822901,0.26687,-1368345792,-1368345792,-1368345792,-1368345792,-1368345752,-1851844574,1942449848,-1368345752,-0.0926933,-0.261799,2.36461e-07,-1.5,nan,0,0,3,0.88059,0.241001
790,-3.11384e-12,1.06179e-37,-1.50802e-06,-3.18057e-12,1.06169e-37,-3.59998e-12,-1.0661e-13,0,0,-3.1771,0.26687,0.449895,0,0,0,0,0,0.822901,0.26687,-1368345792,-1368345792,-1368345792,-1368345792,-1368345752,-1851844574,1942449848,-1368345752,-0.0878835,-0.261799,2.26184e-07,-1.5,nan,0,0,3,0.878897,0.236869
800,-3.11384e-12,1.06179e-37,-1.50802e-06,-3.18057e-12,1.06169e-37,0,-1.0661e-13,0,0,-3.08109,0.287527,0.392812,0,0,0,0,0,0.918906,0.287527,-1368345792,-1368345792,-1368345792,-1368345792,-1368345752,-1851844574,1942449848,-1368345752,-0.097495,-0.261799,1.71048e-07,-1.5,nan,0,0,3,0.908836,0.234816
810,-3.11384e-12,1.06179e-37,-1.50802e-06,-3.18057e-12,1.06169e-37,-3.59998e-12,-1.0661e-13,0,0,-3.20603,0.26302,0.466881,0,0,0,0,0,0.793968,0.26302,-1368345792,-1368345792,-1368345792,-1368345792,-1368345752,-1851844574,1942449848,-1368345752,-0.126802,-0.261799,1.57218e-07,-1.5,nan,0,0,3,0.864333,0.253882
820,-3.11384e-12,1.06179e-37,-1.50802e-06,-3.18057e-12,1.06169e-37,0,-1.06611e-13,0,0,-3.20603,0.26302,0.466881,0,0,0,0,0,0.793968,0.26302,-1368345792,-1368345792,-1368345792,-1368345792,-1368345752,-1851844574,1942449848,-1368345752,-0.124052,-0.261799,1.52861e-07,-1.5,nan,0,0,3,0.863249,0.25152
830,-3.11384e-12,1.06179e-37,-1.50802e-06,-3.18057e-12,1.06169e-37,-3.59998e-12,-1.06611e-13,0,0,-3.20603,0.26302,0.466881,0,0,0,0,0,0.793968,0.26302,-1368345792,-1368345792,-1368345792,-1368345792,-1368345752,-1851844574,1942449848,-1368345752,-0.120125,-0.261799,1.46819e-07,-1.5,nan,0,0,3,0.8617,0.248146
840,-3.11384e-12,1.06179e-37,-1.50802e-06,-3.18057e-12,1.06169e-37,0,-1.06611e-13,0,0,-3.0706,0.286958,0.390042,0,0,0,0,0,0.929399,0.286958,-1368345792,-1368345792,-1368345792,-1368345792,-1368345752,-1851844574,1942449848,-1368345752,-0.0956241,-0.261799,1.10675e-07,-1.5,nan,0,0,3,0.880261,0.228035
850,-3.11384e-12,1.06179e-37,-1.50802e-06,-3.18057e-12,1.06169e-37,-3.59998e-12,-1.06612e-13,0,0,-3.06959,0.277386,0.391132,0,0,0,0,0,0.930413,0.277386,-1368345792,-1368345792,-1368345792,-1368345792,-1368345752,-1851844574,1942449848,-1368345752,-0.0567889,-0.261799,6.71741e-08,-1.5,nan,0,0,3,0.896791,0.197091
860,-3.11384e-12,1.06179e-37,-1.50802e-06,-3.18057e-12,1.06169e-37,0,-1.06612e-13,0,0,-3.15457,0.277684,0.441061,0,0,0,0,0,0.845433,0.277684,-1368345792,-1368345792,-1368345792,-1368345792,-1368345752,-1851844574,1942449848,-1368345752,-0.00707815,-0.261799,6.39904e-08,-1.5,nan,0,0,3,0.890786,0.180561
870,-3.11384e-12,1.06179e-37,-1.50802e-06,-3.18057e-12,1.06169e-37,-3.59998e-12,-1.06612e-13,0,0,-3.15457,0.277684,0.441061,0,0,0,0,0,0.845433,0.277684,-1368345792,-1368345792,-1368345792,-1368345792,-1368345752,-1851844574,1942449848,-1368345752,-0.00400505,-0.261799,6.23429e-08,-1.5,nan,0,0,3,0.890202,0.177921
880,-3.11384e-12,1.06179e-37,-1.50802e-06,-3.18057e-12,1.06169e-37,0,-1.06612e-13,0,0,-3.15457,0.277684,0.441061,0,0,0,0,0,0.845433,0.277684,-1368345792,-1368345792,-1368345792,-1368345792,-1368345752,-1851844574,1942449848,-1368345752,-0.0734281,-0.261799,4.7758e-08,-1.5,nan,0,0,3,0.838537,0.208391
890,-3.11384e-12,1.06179e-37,-1.50802e-06,-3.18057e-12,1.06169e-37,-3.59998e-12,-1.06613e-13,0,0,-3.15457,0.277684,0.441061,0,0,0,0,0,0.845433,0.277684,-1368345792,-1368345792,-1368345792,-1368345792,-1368345752,-1851844574,1942449848,-1368345752,-0.0710656,-0.261799,4.66225e-08,-1.5,nan,0,0,3,0.837669,0.206362
900,-3.11384e-12,1.06179e-37,-1.50802e-06,-3.18057e-12,1.06169e-37,0,-1.06613e-13,0,0,-3.15457,0.277684,0.441061,0,0,0,0,0,0.845433,0.277684,-1368345792,-1368345792,-1368345792,-1368345792,-1368345752,-1851844574,1942449848,-1368345752,-0.0667345,-0.261799,4.45963e-08,-1.5,nan,0,0,3,0.836078,0.202641
910,-3.11384e-12,1.06179e-37,-1.50802e-06,-3.18057e-12,1.06169e-37,-3.59998e-12,-1.06613e-13,0,0,-3.15457,0.277684,0.441061,0,0,0,0,0,0.845433,0.277684,-1368345792,-1368345792,-1368345792,-1368345792,-1368345752,-1851844574,1942449848,-1368345752,-0.0635846,-0.261799,4.31848e-08,-1.5,nan,0,0,3,0.83492,0.199935
920,-3.11384e-12,1.06179e-37,-1.50802e-06,-3.18057e-12,1.06169e-37,0,-1.06613e-13,0,0,-3.15231,0.267203,0.436022,0,0,0,0,0,0.847694,0.267203,-1368345792,-1368345792,-1368345792,-1368345792,-1368345752,-1851844574,1942449848,-1368345752,-0.226732,-0.261799,3.30812e-08,-1.5,nan,0,0,3,0.830982,0.246407
930,-3.11384e-12,1.06179e-37,-1.50802e-06,-3.18057e-12,1.06169e-37,-3.59998e-12,-1.06614e-13,0,0,-3.12147,0.276599,0.418604,0,0,0,0,0,0.878526,0.276599,-1368345792,-1368345792,-1368345792,-1368345792,-1368345752,-1851844574,1942449848,-1368345752,-0.261799,-0.261799,3.05367e-08,-1.5,nan,0,0,3,0.842121,0.263269
940,-3.11384e-12,1.06179e-37,-1.50802e-06,-3.18057e-12,1.06169e-37,0,-1.06614e-13,0,0,-3.12147,0.276599,0.418604,0,0,0,0,0,0.878526,0.276599,-1368345792,-1368345792,-1368345792,-1368345792,-1368345752,-1851844574,1942449848,-1368345752,-0.261799,-0.261799,2.97505e-08,-1.5,nan,0,0,3,0.84128,0.262897
950,-3.11384e-12,1.06179e-37,-1.50802e-06,-3.18057e-12,1.06169e-37,-3.59998e-12,-1.06614e-13,0,0,-3.12147,0.276599,0.418604,0,0,0,0,0,0.878526,0.276599,-1368345792,-1368345792,-1368345792,-1368345792,-1368345752,-1851844574,1942449848,-1368345752,-0.261799,-0.261799,2.86332e-08,-1.5,nan,0,0,3,0.840049,0.262354
960,-3.11384e-12,1.06179e-37,-1.50802e-06,-3.18057e-12,1.06169e-37,0,-1.06615e-13,0,0,-3.12147,0.276599,0.418604,0,0,0,0,0,0.878526,0.276599,-1368345792,-1368345792,-1368345792,-1368345792,-1368345752,-1851844574,1942449848,-1368345752,-0.261799,-0.261799,2.22001e-08,-1.5,nan,0,0,3,0.854769,0.27301
970,-3.11384e-12,1.06179e-37,-1.50802e-06,-3.18057e-12,1.06169e-37,-3.59998e-12,-1.06615e-13,0,0,-3.12147,0.276599,0.418604,0,0,0,0,0,0.878526,0.276599,-1368345792,-1368345792,-1368345792,-1368345792,-1368345752,-1851844574,1942449848,-1368345752,-0.261799,-0.261799,2.16722e-08,-1.5,nan,0,0,3,0.854128,0.272883
980,-3.11384e-12,1.06179e-37,-1.50802e-06,-3.18057e-12,1.06169e-37,0,-1.06615e-13,0,0,-3.12147,0.276599,0.418604,0,0,0,0,0,0.878526,0.276599,-1368345792,-1368345792,-1368345792,-1368345792,-1368345752,-1851844574,1942449848,-1368345752,-0.261799,-0.261799,2.10716e-08,-1.5,nan,0,0,3,0.853379,0.272735
990,-3.11384e-12,1.06179e-37,-1.50802e-06,-3.18057e-12,1.06169e-37,-3.59998e-12,-1.06615e-13,0,0,-3.12147,0.276599,0.418604,0,0,0,0,0,0.878526,0.276599,-1368345792,-1368345792,-1368345792,-1368345792,-1368345752,-1851844574,1942449848,-1368345752,-0.261799,-0.261799,2.03632e-08,-1.5,nan,0,0,3,0.852469,0.272555
1000,-3.11384e-12,1.06179e-37,-1.50802e-06,-3.18057e-12,1.06169e-37,0,-1.06616e-13,0,0,-3.12147,0.276599,0.418604,0,0,0,0,0,0.878526,0.276599,-1368345792,-1368345792,-1368345792,-1368345792,-1368345752,-1851844574,1942449848,-1368345752,-0.261799,-0.261799,1.94783e-08,-1.5,nan,0,0,3,0.851292,0.272322
1010,-3.11384e-12,1.06179e-37,-1.50802e-06,-3.18057e-12,1.06169e-37,-3.59998e-12,-1.06616e-13,0,0,-3.15283,0.269375,0.431135,0,0,0,0,0,0.847166,0.269375,-1368345792,-1368345792,-1368345792,-1368345792,-1368345752,-1851844574,1942449848,-1368345752,-0.261799,-0.261799,1.49897e-08,-1.5,nan,0,0,3,0.841116,0.276938
1020,-3.11384e-12,1.06179e-37,-1.50802e-06,-3.18057e-12,1.06169e-37,0,-1.06616e-13,0,0,-3.16037,0.280659,0.432416,0,0,0,0,0,0.839627,0.280659,-1368345792,-1368345792,-1368345792,-1368345792,-1368345752,-1851844574,1942449848,-1368345752,-0.261799,-0.261799,1.38384e-08,-1.5,nan,0,0,3,0.838257,0.276294
1030,-3.11384e-12,1.06179e-37,-1.50802e-06,-3.18057e-12,1.06169e-37,-3.59998e-12,-1.06616e-13,0,0,-3.16037,0.280659,0.432416,0,0,0,0,0,0.839627,0.280659,-1368345792,-1368345792,-1368345792,-1368345792,-1368345752,-1851844574,1942449848,-1368345752,-0.261799,-0.261799,1.35094e-08,-1.5,nan,0,0,3,0.837591,0.27629
1040,-3.11384e-12,1.06179e-37,-1.50802e-06,-3.18057e-12,1.06169e-37,0,-1.06617e-13,0,0,-3.16037,0.280659,0.432416,0,0,0,0,0,0.839627,0.280659,-1368345792,-1368345792,-1368345792,-1368345792,-1368345752,-1851844574,1942449848,-1368345752,-0.261799,-0.261799,1.29223e-08,-1.5,nan,0,0,3,0.836369,0.276281
1050,-3.11384e-12,1.06179e-37,-1.50802e-06,-3.18057e-12,1.06169e-37,-3.59998e-12,-1.06617e-13,0,0,-3.12331,0.281328,0.415724,0,0,0,0,0,0.876687,0.281328,-1368345792,-1368345792,-1368345792,-1368345792,-1368345752,-1851844574,1942449848,-1368345752,-0.261799,-0.261799,9.72152e-09,-1.5,nan,0,0,3,0.834729,0.280821
1060,-3.11384e-12,1.06179e-37,-1.50802e-06,-3.18057e-12,1.06169e-37,0,-1.06617e-13,0,0,-3.18257,0.277028,0.445881,0,0,0,0,0,0.817431,0.277028,-1368345792,-1368345792,-1368345792,-1368345792,-1368345752,-1851844574,1942449848,-1368345752,-0.261799,-0.261799,8.97483e-09,-1.5,nan,0,0,3,0.82939,0.281018
1070,-3.11384e-12,1.06179e-37,-1.50802e-06,-3.18057e-12,1.06169e-37,-3.59998e-12,-1.06618e-13,0,0,-3.18257,0.277028,0.445881,0,0,0,0,0,0.817431,0.277028,-1368345792,-1368345792,-1368345792,-1368345792,-1368345752,-1851844574,1942449848,-1368345752,-0.261799,-0.261799,8.7791e-09,-1.5,nan,0,0,3,0.828932,0.281098
1080,-3.11384e-12,1.06179e-37,-1.50802e-06,-3.18057e-12,1.06169e-37,0,-1.06618e-13,0,0,-3.18257,0.277028,0.445881,0,0,0,0,0,0.817431,0.277028,-1368345792,-1368345792,-1368345792,-1368345792,-1368345752,-1851844574,1942449848,-1368345752,-0.261799,-0.261799,8.44968e-09,-1.5,nan,0,0,3,0.828182,0.281229
1090,-3.11384e-12,1.06179e-37,-1.50802e-06,-3.18057e-12,1.06169e-37,-3.59998e-12,-1.06618e-13,0,0,-3.18257,0.277028,0.445881,0,0,0,0,0,0.817431,0.277028,-1368345792,-1368345792,-1368345792,-1368345792,-1368345752,-1851844574,1942449848,-1368345752,-0.261799,-0.261799,8.11573e-09,-1.5,nan,0,0,3,0.827308,0.281382
1100,-3.11384e-12,1.06179e-37,-1.50802e-06,-3.18057e-12,1.06169e-37,0,-1.06618e-13,0,0,-3.22714,0.281058,0.479051,0,0,0,0,0,0.772861,0.281058,-1368345792,-1368345792,-1368345792,-1368345792,-1368345752,-1851844574,1942449848,-1368345752,-0.261799,-0.261799,6.1657e-09,-1.5,nan,0,0,3,0.823214,0.282253
1110,-3.11384e-12,1.06179e-37,-1.50802e-06,-3.18057e-12,1.06169e-37,-3.59998e-12,-1.06619e-13,0,0,-3.18371,0.279337,0.45199,0,0,0,0,0,0.816292,0.279337,-1368345792,-1368345792,-1368345792,-1368345792,-1368345752,-1851844574,1942449848,-1368345752,-0.261799,-0.261799,5.75212e-09,-1.5,nan,0,0,3,0.835017,0.281748
1120,-3.11384e-12,1.06179e-37,-1.50802e-06,-3.18057e-12,1.06169e-37,0,-1.06619e-13,0,0,-3.11671,0.274442,0.418767,0,0,0,0,0,0.883286,0.274442,-1368345792,-1368345792,-1368345792,-1368345792,-1368345752,-1851844574,1942449848,-1368345752,-0.261799,-0.261799,3.49596e-09,-1.5,nan,0,0,3,0.825548,0.278391
1130,-3.11384e-12,1.06179e-37,-1.50802e-06,-3.18057e-12,1.06169e-37,-3.59998e-12,-1.06619e-13,0,0,-3.11671,0.274442,0.418767,0,0,0,0,0,0.883286,0.274442,-1368345792,-1368345792,-1368345792,-1368345792,-1368345752,-1851844574,1942449848,-1368345752,-0.261799,-0.261799,3.30374e-09,-1.5,nan,0,0,3,0.856841,0.277281
1140,-3.11384e-12,1.06179e-37,-1.50802e-06,-3.18057e-12,1.06169e-37,0,-1.06619e-13,0,0,-3.11671,0.274442,0.418767,0,0,0,0,0,0.883286,0.274442,-1368345792,-1368345792,-1368345792,-1368345792,-1368345752,-1851844574,1942449848,-1368345752,-0.261799,-0.261799,3.20568e-09,-1.5,nan,0,0,3,0.856961,0.277278
1150,-3.11384e-12,1.06179e-37,-1.50802e-06,-3.18057e-12,1.06169e-37,-3.59998e-12,-1.0662e-13,0,0,-3.11671,0.274442,0.418767,0,0,0,0,0,0.883286,0.274442,-1368345792,-1368345792,-1368345792,-1368345792,-1368345752,-1851844574,1942449848,-1368345752,-0.261799,-0.261799,3.09791e-09,-1.5,nan,0,0,3,0.857097,0.277275
1160,-3.11384e-12,1.06179e-37,-1.50802e-06,-3.18057e-12,1.06169e-37,0,-1.0662e-13,0,0,-3.11671,0.274442,0.418767,0,0,0,0,0,0.883286,0.274442,-1368345792,-1368345792,-1368345792,-1368345792,-1368345752,-1851844574,1942449848,-1368345752,-0.261799,-0.261799,2.99986e-09,-1.5,nan,0,0,3,0.857224,0.277272
1170,-3.11384e-12,1.06179e-37,-1.50802e-06,-3.18057e-12,1.06169e-37,-3.59998e-12,-1.0662e-13,0,0,-3.11671,0.274442,0.418767,0,0,0,0,0,0.883286,0.274442,-1368345792,-1368345792,-1368345792,-1368345792,-1368345752,-1851844574,1942449848,-1368345752,-0.261799,-0.261799,2.92263e-09,-1.5,nan,0,0,3,0.857328,0.277269
1180,-3.11384e-12,1.06179e-37,-1.50802e-06,-3.18057e-12,1.06169e-37,0,-1.0662e-13,0,0,-3.13776,0.277958,0.43517,0,0,0,0,0,0.862236,0.277958,-1368345792,-1368345792,-1368345792,-1368345792,-1368345752,-1851844574,1942449848,-1368345752,-0.261799,-0.261799,2.25933e-09,-1.5,nan,0,0,3,0.865035,0.277832
1190,-3.11384e-12,1.06179e-37,-1.50802e-06,-3.18057e-12,1.06169e-37,-3.59998e-12,-1.06621e-13,0,0,-3.06355,0.272843,0.3892,0,0,0,0,0,0.936452,0.272843,-1368345792,-1368345792,-1368345792,-1368345792,-1368345752,-1851844574,1942449848,-1368345752,-0.261799,-0.261799,2.11668e-09,-1.5,nan,0,0,3,0.865165,0.276158
1200,-3.11384e-12,1.06179e-37,-1.50802e-06,-3.18057e-12,1.06169e-37,0,-1.06621e-13,0,0,-3.06355,0.272843,0.3892,0,0,0,0,0,0.936452,0.272843,-1368345792,-1368345792,-1368345792,-1368345792,-1368345752,-1851844574,1942449848,-1368345752,-0.261799,-0.261799,2.06218e-09,-1.5,nan,0,0,3,0.865327,0.276147
1210,-3.11384e-12,1.06179e-37,-1.50802e-06,-3.18057e-12,1.06169e-37,-3.59998e-12,-1.06621e-13,0,0,-3.06355,0.272843,0.3892,0,0,0,0,0,0.936452,0.272843,-1368345792,-1368345792,-1368345792,-1368345792,-1368345752,-1851844574,1942449848,-1368345752,-0.261799,-0.261799,2.00909e-09,-1.5,nan,0,0,3,0.865489,0.276135
1220,-3.11384e-12,1.06179e-37,-1.50802e-06,-3.18057e-12,1.06169e-37,0,-1.06622e-13,0,0,-3.06355,0.272843,0.3892,0,0,0,0,0,0.936452,0.272843,-1368345792,-1368345792,-1368345792,-1368345792,-1368345752,-1851844574,1942449848,-1368345752,-0.261799,-0.261799,1.92976e-09,-1.5,nan,0,0,3,0.865739,0.276117
1230,-3.11384e-12,1.06179e-37,-1.50802e-06,-3.18057e-12,1.06169e-37,-3.59998e-12,-1.06622e-13,0,0,-3.17623,0.279893,0.451314,0,0,0,0,0,0.823766,0.279893,-1368345792,-1368345792,-1368345792,-1368345792,-1368345752,-1851844574,1942449848,-1368345752,-0.261799,-0.261799,1.43569e-09,-1.5,nan,0,0,3,0.865798,0.277084
1240,-3.11384e-12,1.06179e-37,-1.50802e-06,-3.18057e-12,1.06169e-37,0,-1.06622e-13,0,0,-3.16649,0.286497,0.445403,0,0,0,0,0,0.833507,0.286497,-1368345792,-1368345792,-1368345792,-1368345792,-1368345752,-1851844574,1942449848,-1368345752,-0.261799,-0.261799,1.31396e-09,-1.5,nan,0,0,3,0.848536,0.278363
1250,-3.11384e-12,1.06179e-37,-1.50802e-06,-3.18057e-12,1.06169e-37,-3.59998e-12,-1.06622e-13,0,0,-3.16649,0.286497,0.445403,0,0,0,0,0,0.833507,0.286497,-1368345792,-1368345792,-1368345792,-1368345792,-1368345752,-1851844574,1942449848,-1368345752,-0.261799,-0.261799,1.28013e-09,-1.5,nan,0,0,3,0.848542,0.278375
1260,-3.11384e-12,1.06179e-37,-1.50802e-06,-3.18057e-12,1.06169e-37,0,-1.06623e-13,0,0,-3.16649,0.286497,0.445403,0,0,0,0,0,0.833507,0.286497,-1368345792,-1368345792,-1368345792,-1368345792,-1368345752,-1851844574,1942449848,-1368345752,-0.261799,-0.261799,1.2371e-09,-1.5,nan,0,0,3,0.848549,0.278391
1270,-3.11384e-12,1.06179e-37,-1.50802e-06,-3.18057e-12,1.06169e-37,-3.59998e-12,-1.06623e-13,0,0,-3.16649,0.286497,0.445403,0,0,0,0,0,0.833507,0.286497,-1368345792,-1368345792,-1368345792,-1368345792,-1368345752,-1851844574,1942449848,-1368345752,-0.261799,-0.261799,9.56766e-10,-1.5,nan,0,0,3,0.836883,0.280893
1280,-3.11384e-12,1.06179e-37,-1.50802e-06,-3.18057e-12,1.06169e-37,0,-1.06623e-13,0,0,-3.16649,0.286497,0.445403,0,0,0,0,0,0.833507,0.286497,-1368345792,-1368345792,-1368345792,-1368345792,-1368345752,-1851844574,1942449848,-1368345752,-0.261799,-0.261799,9.34021e-10,-1.5,nan,0,0,3,0.836806,0.280926
1290,-3.11384e-12,1.06179e-37,-1.50802e-06,-3.18057e-12,1.06169e-37,-3.59998e-12,-1.06623e-13,0,0,-3.16649,0.286497,0.445403,0,0,0,0,0,0.833507,0.286497,-1368345792,-1368345792,-1368345792,-1368345792,-1368345752,-1851844574,1942449848,-1368345752,-0.261799,-0.261799,9.02643e-10,-1.5,nan,0,0,3,0.836698,0.280974
1300,-3.11384e-12,1.06179e-37,-1.50802e-06,-3.18057e-12,1.06169e-37,0,-1.06624e-13,0,0,-3.16649,0.286497,0.445403,0,0,0,0,0,0.833507,0.286497,-1368345792,-1368345792,-1368345792,-1368345792,-1368345752,-1851844574,1942449848,-1368345752,-0.261799,-0.261799,8.68745e-10,-1.5,nan,0,0,3,0.836577,0.281028
1310,-3.11386e-12,1.06e-37,1.06066e-37,-3.18057e-12,1.06169e-37,-3.59998e-12,-1.06624e-13,0,0,-3.06826,0.273497,0.385863,0,0,0,0,0,0.931735,0.273497,-1368345792,-1368345792,-1368345792,-1368345792,-1368345752,-1851844574,1942449848,-1368345752,-0.261799,-0.261799,6.71273e-10,-1.5,nan,0,0,3,0.841397,0.279796
1320,-3.11384e-12,1.06179e-37,-1.50802e-06,-3.18057e-12,1.06169e-37,0,-1.06624e-13,0,0,-3.06826,0.273497,0.385863,0,0,0,0,0,0.931735,0.273497,-1368345792,-1368345792,-1368345792,-1368345792,-1368345752,-1851844574,1942449848,-1368345752,-0.261799,-0.261799,6.48722e-10,-1.5,nan,0,0,3,0.84134,0.279827
1330,-3.11384e-12,1.06179e-37,-1.50802e-06,-3.18057e-12,1.06169e-37,-3.59998e-12,-1.06625e-13,0,0,-3.06826,0.273497,0.385863,0,0,0,0,0,0.931735,0.273497,-1368345792,-1368345792,-1368345792,-1368345792,-1368345752,-1851844574,1942449848,-1368345752,-0.261799,-0.261799,6.29467e-10,-1.5,nan,0,0,3,0.84129,0.279854
1340,-3.11384e-12,1.06179e-37,-1.50802e-06,-3.18057e-12,1.06169e-37,0,-1.06625e-13,0,0,-3.06826,0.273497,0.385863,0,0,0,0,0,0.931735,0.273497,-1368345792,-1368345792,-1368345792,-1368345792,-1368345752,-1851844574,1942449848,-1368345752,-0.261799,-0.261799,6.04589e-10,-1.5,nan,0,0,3,0.841223,0.27989
1350,-3.11384e-12,1.06179e-37,-1.50802e-06,-3.18057e-12,1.06169e-37,-3.59998e-12,-1.06625e-13,0,0,-3.1689,0.26863,0.446912,0,0,0,0,0,0.831104,0.26863,-1368345792,-1368345792,-1368345792,-1368345792,-1368345752,-1851844574,1942449848,-1368345752,-0.261799,-0.261799,4.5721e-10,-1.5,nan,0,0,3,0.827604,0.278367
1360,-3.11384e-12,1.06179e-37,-1.50802e-06,-3.18057e-12,1.06169e-37,0,-1.06625e-13,0,0,-3.1689,0.26863,0.446912,0,0,0,0,0,0.831104,0.26863,-1368345792,-1368345792,-1368345792,-1368345792,-1368345752,-1851844574,1942449848,-1368345752,-0.261799,-0.261799,4.45442e-10,-1.5,nan,0,0,3,0.827294,0.278379
1370,-3.11384e-12,1.06179e-37,-1.50802e-06,-3.18057e-12,1.06169e-37,-3.59998e-12,-1.06626e-13,0,0,-3.1689,0.26863,0.446912,0,0,0,0,0,0.831104,0.26863,-1368345792,-1368345792,-1368345792,-1368345792,-1368345752,-1851844574,1942449848,-1368345752,-0.261799,-0.261799,4.31353e-10,-1.5,nan,0,0,3,0.826912,0.278395
1380,-3.11384e-12,1.06179e-37,-1.50802e-06,-3.18057e-12,1.06169e-37,0,-1.06626e-13,0,0,-3.1689,0.26863,0.446912,0,0,0,0,0,0.831104,0.26863,-1368345792,-1368345792,-1368345792,-1368345792,-1368345752,-1851844574,1942449848,-1368345752,-0.261799,-0.261799,4.15168e-10,-1.5,nan,0,0,3,0.826458,0.278413
1390,-3.11384e-12,1.06179e-37,-1.50802e-06,-3.18057e-12,1.06169e-37,-3.59998e-12,-1.06626e-13,0,0,-3.13338,0.276108,0.418905,0,0,0,0,0,0.866622,0.276108,-1368345792,-1368345792,-1368345792,-1368345792,-1368345752,-1851844574,1942449848,-1368345752,-0.261799,-0.261799,3.14779e-10,-1.5,nan,0,0,3,0.86531,0.275063
1400,-3.11384e-12,1.06179e-37,-1.50802e-06,-3.18057e-12,1.06169e-37,0,-1.06626e-13,0,0,-3.09069,0.272656,0.387102,0,0,0,0,0,0.909308,0.272656,-1368345792,-1368345792,-1368345792,-1368345792,-1368345752,-1851844574,1942449848,-1368345752,-0.261799,-0.261799,2.89365e-10,-1.5,nan,0,0,3,0.870669,0.272951
1410,-3.11384e-12,1.06179e-37,-1.50802e-06,-3.18057e-12,1.06169e-37,-3.59998e-12,-1.06627e-13,0,0,-3.09069,0.272656,0.387102,0,0,0,0,0,0.909308,0.272656,-1368345792,-1368345792,-1368345792,-1368345792,-1368345752,-1851844574,1942449848,-1368345752,-0.261799,-0.261799,2.81345e-10,-1.5,nan,0,0,3,0.870909,0.272888
1420,-3.11384e-12,1.06179e-37,-1.50802e-06,-3.18057e-12,1.06169e-37,0,-1.06627e-13,0,0,-3.12541,0.275619,0.411575,0,0,0,0,0,0.874589,0.275619,-1368345792,-1368345792,-1368345792,-1368345792,-1368345752,-1851844574,1942449848,-1368345752,-0.261799,-0.261799,1.64131e-10,-1.5,nan,0,0,3,0.878325,0.273787
1430,-3.11384e-12,1.06179e-37,-1.50802e-06,-3.18057e-12,1.06169e-37,-3.59998e-12,-1.06627e-13,0,0,-3.10523,0.285171,0.407002,0,0,0,0,0,0.894773,0.285171,-1368345792,-1368345792,-1368345792,-1368345792,-1368345752,-1851844574,1942449848,-1368345752,-0.261799,-0.261799,1.53122e-10,-1.5,nan,0,0,3,0.883801,0.275143
1440,-3.11384e-12,1.06179e-37,-1.50802e-06,-3.18057e-12,1.06169e-37,0,-1.06628e-13,0,0,-3.10523,0.285171,0.407002,0,0,0,0,0,0.894773,0.285171,-1368345792,-1368345792,-1368345792,-1368345792,-1368345752,-1851844574,1942449848,-1368345752,-0.261799,-0.261799,1.47978e-10,-1.5,nan,0,0,3,0.884445,0.275114
1450,-3.11384e-12,1.06179e-37,-1.50802e-06,-3.18057e-12,1.06169e-37,-3.59998e-12,-1.06628e-13,0,0,-3.10523,0.285171,0.407002,0,0,0,0,0,0.894773,0.285171,-1368345792,-1368345792,-1368345792,-1368345792,-1368345752,-1851844574,1942449848,-1368345752,-0.261799,-0.261799,1.4475e-10,-1.5,nan,0,0,3,0.884862,0.275096
1460,-3.11384e-12,1.06179e-37,-1.50802e-06,-3.18057e-12,1.06169e-37,0,-1.06628e-13,0,0,-3.10523,0.285171,0.407002,0,0,0,0,0,0.894773,0.285171,-1368345792,-1368345792,-1368345792,-1368345792,-1368345752,-1851844574,1942449848,-1368345752,-0.261799,-0.261799,1.41309e-10,-1.5,nan,0,0,3,0.885316,0.275075
1470,-3.11384e-12,1.06179e-37,-1.50802e-06,-3.18057e-12,1.06169e-37,-3.59998e-12,-1.06628e-13,0,0,-3.13663,0.286399,0.416242,0,0,0,0,0,0.863367,0.286399,-1368345792,-1368345792,-1368345792,-1368345792,-1368345752,-1851844574,1942449848,-1368345752,-0.261799,-0.261799,1.07634e-10,-1.5,nan,0,0,3,0.891577,0.275516
1480,-3.11384e-12,1.06179e-37,-1.50802e-06,-3.18057e-12,1.06169e-37,0,-1.06629e-13,0,0,-3.11383,0.280792,0.422616,0,0,0,0,0,0.886165,0.280792,-1368345792,-1368345792,-1368345792,-1368345792,-1368345752,-1851844574,1942449848,-1368345752,-0.261799,-0.261799,9.91553e-11,-1.5,nan,0,0,3,0.885916,0.280852
1490,-3.11384e-12,1.06179e-37,-1.50802e-06,-3.18057e-12,1.06169e-37,-3.59998e-12,-1.06629e-13,0,0,-3.11383,0.280792,0.422616,0,0,0,0,0,0.886165,0.280792,-1368345792,-1368345792,-1368345792,-1368345792,-1368345752,-1851844574,1942449848,-1368345752,-0.261799,-0.261799,9.69928e-11,-1.5,nan,0,0,3,0.886089,0.280889
1500,-3.11384e-12,1.06179e-37,-1.50802e-06,-3.18057e-12,1.06169e-37,0,-1.06629e-13,0,0,-3.11383,0.280792,0.422616,0,0,0,0,0,0.886165,0.280792,-1368345792,-1368345792,-1368345792,-1368345792,-1368345752,-1851844574,1942449848,-1368345752,-0.261799,-0.261799,9.3923e-11,-1.5,nan,0,0,3,0.886341,0.280945
1510,-3.11384e-12,1.06179e-37,-1.50802e-06,-3.18057e-12,1.06169e-37,-3.59998e-12,-1.06629e-13,0,0,-3.11383,0.280792,0.422616,0,0,0,0,0,0.886165,0.280792,-1368345792,-1368345792,-1368345792,-1368345792,-1368345752,-1851844574,1942449848,-1368345752,-0.261799,-0.261799,9.05806e-11,-1.5,nan,0,0,3,0.886624,0.281007
1520,-3.11384e-12,1.06179e-37,-1.50802e-06,-3.18057e-12,1.06169e-37,0,-1.0663e-13,0,0,-3.10557,0.283322,0.417333,0,0,0,0,0,0.894433,0.283322,-1368345792,-1368345792,-1368345792,-1368345792,-1368345752,-1851844574,1942449848,-1368345752,-0.261799,-0.261799,6.93896e-11,-1.5,nan,0,0,3,0.88997,0.281707
1530,-3.11384e-12,1.06179e-37,-1.50802e-06,-3.18057e-12,1.06169e-37,-3.59998e-12,-1.0663e-13,0,0,-3.16604,0.279276,0.432569,0,0,0,0,0,0.833958,0.279276,-1368345792,-1368345792,-1368345792,-1368345792,-1368345752,-1851844574,1942449848,-1368345752,-0.261799,-0.261799,6.39157e-11,-1.5,nan,0,0,3,0.880014,0.281713
1540,-3.11384e-12,1.06179e-37,-1.50802e-06,-3.18057e-12,1.06169e-37,0,-1.0663e-13,0,0,-3.16604,0.279276,0.432569,0,0,0,0,0,0.833958,0.279276,-1368345792,-1368345792,-1368345792,-1368345792,-1368345752,-1851844574,1942449848,-1368345752,-0.261799,-0.261799,6.18928e-11,-1.5,nan,0,0,3,0.880181,0.281774
1550,-3.11384e-12,1.06179e-37,-1.50802e-06,-3.18057e-12,1.06169e-37,-3.59998e-12,-1.06631e-13,0,0,-3.16604,0.279276,0.432569,0,0,0,0,0,0.833958,0.279276,-1368345792,-1368345792,-1368345792,-1368345792,-1368345752,-1851844574,1942449848,-1368345752,-0.261799,-0.261799,5.93248e-11,-1.5,nan,0,0,3,0.880401,0.281854
1560,-3.11384e-12,1.06179e-37,-1.50802e-06,-3.18057e-12,1.06169e-37,0,-1.06631e-13,0,0,-3.16604,0.279276,0.432569,0,0,0,0,0,0.833958,0.279276,-1368345792,-1368345792,-1368345792,-1368345792,-1368345752,-1851844574,1942449848,-1368345752,-0.261799,-0.261799,4.50704e-11,-1.5,nan,0,0,3,0.877188,0.280073
1570,-3.11384e-12,1.06179e-37,-1.50802e-06,-3.18057e-12,1.06169e-37,-3.59998e-12,-1.06631e-13,0,0,-3.16604,0.279276,0.432569,0,0,0,0,0,0.833958,0.279276,-1368345792,-1368345792,-1368345792,-1368345792,-1368345752,-1851844574,1942449848,-1368345752,-0.261799,-0.261799,4.39989e-11,-1.5,nan,0,0,3,0.877309,0.280087
1580,-3.11384e-12,1.06179e-37,-1.50802e-06,-3.18057e-12,1.06169e-37,0,-1.06631e-13,0,0,-3.16604,0.279276,0.432569,0,0,0,0,0,0.833958,0.279276,-1368345792,-1368345792,-1368345792,-1368345792,-1368345752,-1851844574,1942449848,-1368345752,-0.261799,-0.261799,4.27795e-11,-1.5,nan,0,0,3,0.877451,0.280103
1590,-3.11384e-12,1.06179e-37,-1.50802e-06,-3.18057e-12,1.06169e-37,-3.59998e-12,-1.06632e-13,0,0,-3.16604,0.279276,0.432569,0,0,0,0,0,0.833958,0.279276,-1368345792,-1368345792,-1368345792,-1368345792,-1368345752,-1851844574,1942449848,-1368345752,-0.261799,-0.261799,4.12572e-11,-1.5,nan,0,0,3,0.877632,0.280124
1600,-3.11384e-12,1.06179e-37,-1.50802e-06,-3.18057e-12,1.06169e-37,0,-1.06632e-13,0,0,-3.04901,0.26725,0.388522,0,0,0,0,0,0.950989,0.26725,-1368345792,-1368345792,-1368345792,-1368345792,-1368345752,-1851844574,1942449848,-1368345752,-0.261799,-0.261799,3.15064e-11,-1.5,nan,0,0,3,0.914285,0.28019
1610,-3.11384e-12,1.06179e-37,-1.50802e-06,-3.18057e-12,1.06169e-37,-3.59998e-12,-1.06632e-13,0,0,-3.09194,0.278759,0.402713,0,0,0,0,0,0.908064,0.278759,-1368345792,-1368345792,-1368345792,-1368345792,-1368345752,-1851844574,1942449848,-1368345752,-0.261799,-0.261799,2.9145e-11,-1.5,nan,0,0,3,0.914362,0.279138
1620,-3.11384e-12,1.06179e-37,-1.50802e-06,-3.18057e-12,1.06169e-37,0,-1.06632e-13,0,0,-3.09194,0.278759,0.402713,0,0,0,0,0,0.908064,0.278759,-1368345792,-1368345792,-1368345792,-1368345792,-1368345752,-1851844574,1942449848,-1368345752,-0.261799,-0.261799,2.83376e-11,-1.5,nan,0,0,3,0.915002,0.279137
1630,-3.11384e-12,1.06179e-37,-1.50802e-06,-3.18057e-12,1.06169e-37,-3.59998e-12,-1.06633e-13,0,0,-3.09194,0.278759,0.402713,0,0,0,0,0,0.908064,0.278759,-1368345792,-1368345792,-1368345792,-1368345792,-1368345752,-1851844574,1942449848,-1368345752,-0.261799,-0.261799,2.75523e-11,-1.5,nan,0,0,3,0.915642,0.279136
1640,-3.11384e-12,1.06179e-37,-1.50802e-06,-3.18057e-12,1.06169e-37,0,-1.06633e-13,0,0,-3.09194,0.278759,0.402713,0,0,0,0,0,0.908064,0.278759,-1368345792,-1368345792,-1368345792,-1368345792,-1368345752,-1851844574,1942449848,-1368345752,-0.261799,-0.261799,2.66803e-11,-1.5,nan,0,0,3,0.916419,0.279135
1650,-3.11384e-12,1.06179e-37,-1.50802e-06,-3.18057e-12,1.06169e-37,-3.59998e-12,-1.06633e-13,0,0,-3.14641,0.266761,0.440591,0,0,0,0,0,0.853586,0.266761,-1368345792,-1368345792,-1368345792,-1368345792,-1368345752,-1851844574,1942449848,-1368345752,-0.261799,-0.261799,2.06372e-11,-1.5,nan,0,0,3,0.913276,0.27814
1660,-3.11384e-12,1.06179e-37,-1.50802e-06,-3.18057e-12,1.06169e-37,0,-1.06634e-13,0,0,-3.08762,0.262568,0.403741,0,0,0,0,0,0.91238,0.262568,-1368345792,-1368345792,-1368345792,-1368345792,-1368345752,-1851844574,1942449848,-1368345752,-0.261799,-0.261799,1.90092e-11,-1.5,nan,0,0,3,0.917932,0.278586
1670,-3.11384e-12,1.06179e-37,-1.50802e-06,-3.18057e-12,1.06169e-37,-3.59998e-12,-1.06634e-13,0,0,-3.08762,0.262568,0.403741,0,0,0,0,0,0.91238,0.262568,-1368345792,-1368345792,-1368345792,-1368345792,-1368345752,-1851844574,1942449848,-1368345752,-0.261799,-0.261799,1.85946e-11,-1.5,nan,0,0,3,0.918379,0.27861
1680,-3.11384e-12,1.06179e-37,-1.50802e-06,-3.18057e-12,1.06169e-37,0,-1.06634e-13,0,0,-3.08762,0.262568,0.403741,0,0,0,0,0,0.91238,0.262568,-1368345792,-1368345792,-1368345792,-1368345792,-1368345752,-1851844574,1942449848,-1368345752,-0.261799,-0.261799,1.80427e-11,-1.5,nan,0,0,3,0.918937,0.27864
1690,-3.11384e-12,1.06179e-37,-1.50802e-06,-3.18057e-12,1.06169e-37,-3.59998e-12,-1.06634e-13,0,0,-3.08762,0.262568,0.403741,0,0,0,0,0,0.91238,0.262568,-1368345792,-1368345792,-1368345792,-1368345792,-1368345752,-1851844574,1942449848,-1368345752,-0.261799,-0.261799,1.75072e-11,-1.5,nan,0,0,3,0.919495,0.278671
1700,-3.11384e-12,1.06179e-37,-1.50802e-06,-3.18057e-12,1.06169e-37,0,-1.06635e-13,0,0,-3.07798,0.278553,0.398695,0,0,0,0,0,0.922023,0.278553,-1368345792,-1368345792,-1368345792,-1368345792,-1368345752,-1851844574,1942449848,-1368345752,-0.261799,-0.261799,1.34114e-11,-1.5,nan,0,0,3,0.920855,0.279405
1710,-3.11384e-12,1.06179e-37,-1.50802e-06,-3.18057e-12,1.06169e-37,-3.59998e-12,-1.06635e-13,0,0,-3.07449,0.27111,0.387075,0,0,0,0,0,0.925512,0.27111,-1368345792,-1368345792,-1368345792,-1368345792,-1368345752,-1851844574,1942449848,-1368345752,-0.261799,-0.261799,1.24867e-11,-1.5,nan,0,0,3,0.924199,0.278292
1720,-3.11384e-12,1.06179e-37,-1.50802e-06,-3.18057e-12,1.06169e-37,0,-1.06635e-13,0,0,-3.07449,0.27111,0.387075,0,0,0,0,0,0.925512,0.27111,-1368345792,-1368345792,-1368345792,-1368345792,-1368345752,-1851844574,1942449848,-1368345752,-0.261799,-0.261799,1.22144e-11,-1.5,nan,0,0,3,0.924602,0.278308
1730,-3.11384e-12,1.06179e-37,-1.50802e-06,-3.18057e-12,1.06169e-37,-3.59998e-12,-1.06635e-13,0,0,-3.07449,0.27111,0.387075,0,0,0,0,0,0.925512,0.27111,-1368345792,-1368345792,-1368345792,-1368345792,-1368345752,-1851844574,1942449848,-1368345752,-0.261799,-0.261799,1.18278e-11,-1.5,nan,0,0,3,0.925188,0.278331
1740,-3.11384e-12,1.06179e-37,-1.50802e-06,-3.18057e-12,1.06169e-37,0,-1.06636e-13,0,0,-3.07449,0.27111,0.387075,0,0,0,0,0,0.925512,0.27111,-1368345792,-1368345792,-1368345792,-1368345792,-1368345752,-1851844574,1942449848,-1368345752,-0.261799,-0.261799,1.14069e-11,-1.5,nan,0,0,3,0.925848,0.278358
1750,-3.11384e-12,1.06179e-37,-1.50802e-06,-3.18057e-12,1.06169e-37,-3.59998e-12,-1.06636e-13,0,0,-3.17261,0.282338,0.44242,0,0,0,0,0,0.827394,0.282338,-1368345792,-1368345792,-1368345792,-1368345792,-1368345752,-1851844574,1942449848,-1368345752,-0.261799,-0.261799,8.71096e-12,-1.5,nan,0,0,3,0.931576,0.279482
1760,-3.11384e-12,1.06179e-37,-1.50802e-06,-3.18057e-12,1.06169e-37,0,-1.06636e-13,0,0,-3.08525,0.281427,0.403408,0,0,0,0,0,0.914751,0.281427,-1368345792,-1368345792,-1368345792,-1368345792,-1368345752,-1851844574,1942449848,-1368345752,-0.261799,-0.261799,8.00664e-12,-1.5,nan,0,0,3,0.924349,0.279337
1770,-3.11384e-12,1.06179e-37,-1.50802e-06,-3.18057e-12,1.06169e-37,-3.59998e-12,-1.06636e-13,0,0,-3.08525,0.281427,0.403408,0,0,0,0,0,0.914751,0.281427,-1368345792,-1368345792,-1368345792,-1368345792,-1368345752,-1851844574,1942449848,-1368345752,-0.261799,-0.261799,7.73766e-12,-1.5,nan,0,0,3,0.924872,0.279363
1780,-3.11384e-12,1.06179e-37,-1.50802e-06,-3.18057e-12,1.06169e-37,0,-1.06637e-13,0,0,-3.08525,0.281427,0.403408,0,0,0,0,0,0.914751,0.281427,-1368345792,-1368345792,-1368345792,-1368345792,-1368345752,-1851844574,1942449848,-1368345752,-0.261799,-0.261799,7.41693e-12,-1.5,nan,0,0,3,0.925519,0.279394
1790,-3.11384e-12,1.06179e-37,-1.50802e-06,-3.18057e-12,1.06169e-37,-3.59998e-12,-1.06637e-13,0,0,-3.13471,0.282632,0.427965,0,0,0,0,0,0.865294,0.282632,-1368345792,-1368345792,-1368345792,-1368345792,-1368345752,-1851844574,1942449848,-1368345752,-0.261799,-0.261799,5.6494e-12,-1.5,nan,0,0,3,0.917815,0.281627
1800,-3.11384e-12,1.06179e-37,-1.50802e-06,-3.18057e-12,1.06169e-37,0,-1.06637e-13,0,0,-3.13651,0.272978,0.429837,0,0,0,0,0,0.863489,0.272978,-1368345792,-1368345792,-1368345792,-1368345792,-1368345752,-1851844574,1942449848,-1368345752,-0.261799,-0.261799,5.19329e-12,-1.5,nan,0,0,3,0.865719,0.277365
1810,-3.11384e-12,1.06179e-37,-1.50802e-06,-3.18057e-12,1.06169e-37,-3.59998e-12,-1.06638e-13,0,0,-3.13651,0.272978,0.429837,0,0,0,0,0,0.863489,0.272978,-1368345792,-1368345792,-1368345792,-1368345792,-1368345752,-1851844574,1942449848,-1368345752,-0.261799,-0.261799,5.02892e-12,-1.5,nan,0,0,3,0.865461,0.277339
1820,-3.11384e-12,1.06179e-37,-1.50802e-06,-3.18057e-12,1.06169e-37,0,-1.06638e-13,0,0,-3.13651,0.272978,0.429837,0,0,0,0,0,0.863489,0.272978,-1368345792,-1368345792,-1368345792,-1368345792,-1368345752,-1851844574,1942449848,-1368345752,-0.261799,-0.261799,4.82027e-12,-1.5,nan,0,0,3,0.865123,0.277305
1830,-3.11384e-12,1.06179e-37,-1.50802e-06,-3.18057e-12,1.06169e-37,-3.59998e-12,-1.06638e-13,0,0,-3.08909,0.281406,0.399406,0,0,0,0,0,0.910908,0.281406,-1368345792,-1368345792,-1368345792,-1368345792,-1368345752,-1851844574,1942449848,-1368345752,-0.261799,-0.261799,3.67234e-12,-1.5,nan,0,0,3,0.913894,0.278028
1840,-3.11384e-12,1.06179e-37,-1.50802e-06,-3.18057e-12,1.06169e-37,0,-1.06638e-13,0,0,-3.1002,0.282693,0.41143,0,0,0,0,0,0.899804,0.282693,-1368345792,-1368345792,-1368345792,-1368345792,-1368345752,-1851844574,1942449848,-1368345752,-0.261799,-0.261799,3.45492e-12,-1.5,nan,0,0,3,0.899976,0.280901
1850,-3.11384e-12,1.06179e-37,-1.50802e-06,-3.18057e-12,1.06169e-37,-3.59998e-12,-1.06639e-13,0,0,-3.1002,0.282693,0.41143,0,0,0,0,0,0.899804,0.282693,-1368345792,-1368345792,-1368345792,-1368345792,-1368345752,-1851844574,1942449848,-1368345752,-0.261799,-0.261799,3.37277e-12,-1.5,nan,0,0,3,0.900038,0.280913
1860,-3.11384e-12,1.06179e-37,-1.50802e-06,-3.18057e-12,1.06169e-37,0,-1.06639e-13,0,0,-3.1002,0.282693,0.41143,0,0,0,0,0,0.899804,0.282693,-1368345792,-1368345792,-1368345792,-1368345792,-1368345752,-1851844574,1942449848,-1368345752,-0.261799,-0.261799,3.28596e-12,-1.5,nan,0,0,3,0.900105,0.280927
1870,-3.11384e-12,1.06179e-37,-1.50802e-06,-3.18057e-12,1.06169e-37,-3.59998e-12,-1.06639e-13,0,0,-3.1002,0.282693,0.41143,0,0,0,0,0,0.899804,0.282693,-1368345792,-1368345792,-1368345792,-1368345792,-1368345752,-1851844574,1942449848,-1368345752,-0.261799,-0.261799,3.16266e-12,-1.5,nan,0,0,3,0.900204,0.280946
1880,-3.11384e-12,1.06179e-37,-1.50802e-06,-3.18057e-12,1.06169e-37,0,-1.06639e-13,0,0,-3.1002,0.282693,0.41143,0,0,0,0,0,0.899804,0.282693,-1368345792,-1368345792,-1368345792,-1368345792,-1368345752,-1851844574,1942449848,-1368345752,-0.261799,-0.261799,2.41656e-12,-1.5,nan,0,0,3,0.900564,0.28168
1890,-3.11384e-12,1.06179e-37,-1.50802e-06,-3.18057e-12,1.06169e-37,-3.59998e-12,-1.0664e-13,0,0,-3.1002,0.282693,0.41143,0,0,0,0,0,0.899804,0.282693,-1368345792,-1368345792,-1368345792,-1368345792,-1368345752,-1851844574,1942449848,-1368345752,-0.261799,-0.261799,2.36386e-12,-1.5,nan,0,0,3,0.900648,0.281695
1900,-3.11384e-12,1.06179e-37,-1.50802e-06,-3.18057e-12,1.06169e-37,0,-1.0664e-13,0,0,-3.1002,0.282693,0.41143,0,0,0,0,0,0.899804,0.282693,-1368345792,-1368345792,-1368345792,-1368345792,-1368345752,-1851844574,1942449848,-1368345752,-0.261799,-0.261799,2.28904e-12,-1.5,nan,0,0,3,0.90077,0.281718
1910,-3.11384e-12,1.06179e-37,-1.50802e-06,-3.18057e-12,1.06169e-37,-3.59998e-12,-1.0664e-13,0,0,-3.1002,0.282693,0.41143,0,0,0,0,0,0.899804,0.282693,-1368345792,-1368345792,-1368345792,-1368345792,-1368345752,-1851844574,1942449848,-1368345752,-0.261799,-0.261799,2.20758e-12,-1.5,nan,0,0,3,0.900907,0.281744
1920,-3.11384e-12,1.06179e-37,-1.50802e-06,-3.18057e-12,1.06169e-37,0,-1.06641e-13,0,0,-3.13521,0.282982,0.42832,0,0,0,0,0,0.864788,0.282982,-1368345792,-1368345792,-1368345792,-1368345792,-1368345752,-1851844574,1942449848,-1368345752,-0.261799,-0.261799,1.69959e-12,-1.5,nan,0,0,3,0.901873,0.283248
1930,-3.11384e-12,1.06179e-37,-1.50802e-06,-3.18057e-12,1.06169e-37,-3.59998e-12,-1.06641e-13,0,0,-3.13521,0.282982,0.42832,0,0,0,0,0,0.864788,0.282982,-1368345792,-1368345792,-1368345792,-1368345792,-1368345752,-1851844574,1942449848,-1368345752,-0.261799,-0.261799,1.65249e-12,-1.5,nan,0,0,3,0.901945,0.283286
1940,-3.11384e-12,1.06179e-37,-1.50802e-06,-3.18057e-12,1.06169e-37,0,-1.06641e-13,0,0,-3.13521,0.282982,0.42832,0,0,0,0,0,0.864788,0.282982,-1368345792,-1368345792,-1368345792,-1368345792,-1368345752,-1851844574,1942449848,-1368345752,-0.261799,-0.261799,1.60669e-12,-1.5,nan,0,0,3,0.902017,0.283323
1950,-3.11384e-12,1.06179e-37,-1.50802e-06,-3.18057e-12,1.06169e-37,-3.59998e-12,-1.06641e-13,0,0,-3.13521,0.282982,0.42832,0,0,0,0,0,0.864788,0.282982,-1368345792,-1368345792,-1368345792,-1368345792,-1368345752,-1851844574,1942449848,-1368345752,-0.261799,-0.261799,1.54956e-12,-1.5,nan,0,0,3,0.902109,0.283371
1960,-3.11384e-12,1.06179e-37,-1.50802e-06,-3.18057e-12,1.06169e-37,0,-1.06642e-13,0,0,-3.13521,0.282982,0.42832,0,0,0,0,0,0.864788,0.282982,-1368345792,-1368345792,-1368345792,-1368345792,-1368345752,-1851844574,1942449848,-1368345752,-0.261799,-0.261799,1.49137e-12,-1.5,nan,0,0,3,0.902207,0.283422
1970,-3.11384e-12,1.06179e-37,-1.50802e-06,-3.18057e-12,1.06169e-37,-3.59998e-12,-1.06642e-13,0,0,-3.14408,0.270829,0.425541,0,0,0,0,0,0.855919,0.270829,-1368345792,-1368345792,-1368345792,-1368345792,-1368345752,-1851844574,1942449848,-1368345752,-0.261799,-0.261799,1.17999e-12,-1.5,nan,0,0,3,0.89955,0.283661
1980,-3.11384e-12,1.06179e-37,-1.50802e-06,-3.18057e-12,1.06169e-37,0,-1.06642e-13,0,0,-3.14958,0.276721,0.423667,0,0,0,0,0,0.850423,0.276721,-1368345792,-1368345792,-1368345792,-1368345792,-1368345752,-1851844574,1942449848,-1368345752,-0.261799,-0.261799,1.1079e-12,-1.5,nan,0,0,3,0.850952,0.282051
1990,-3.11384e-12,1.06179e-37,-1.50802e-06,-3.18057e-12,1.06169e-37,-3.59998e-12,-1.06642e-13,0,0,-3.14958,0.276721,0.423667,0,0,0,0,0,0.850423,0.276721,-1368345792,-1368345792,-1368345792,-1368345792,-1368345752,-1851844574,1942449848,-1368345752,-0.261799,-0.261799,1.08374e-12,-1.5,nan,0,0,3,0.850454,0.282075
2000,-3.11384e-12,1.06179e-37,-1.50802e-06,-3.18057e-12,1.06169e-37,0,-1.06643e-13,0,0,-3.14958,0.276721,0.423667,0,0,0,0,0,0.850423,0.276721,-1368345792,-1368345792,-1368345792,-1368345792,-1368345752,-1851844574,1942449848,-1368345752,-0.261799,-0.261799,1.05584e-12,-1.5,nan,0,0,3,0.849865,0.282103
2010,-3.11384e-12,1.06179e-37,-1.50802e-06,-3.18057e-12,1.06169e-37,-3.59998e-12,-1.06643e-13,0,0,-3.14958,0.276721,0.423667,0,0,0,0,0,0.850423,0.276721,-1368345792,-1368345792,-1368345792,-1368345792,-1368345752,-1851844574,1942449848,-1368345752,-0.261799,-0.261799,1.01618e-12,-1.5,nan,0,0,3,0.849004,0.282144
2020,-3.11384e-12,1.06179e-37,-1.50802e-06,-3.18057e-12,1.06169e-37,0,-1.06643e-13,0,0,-3.14958,0.276721,0.423667,0,0,0,0,0,0.850423,0.276721,-1368345792,-1368345792,-1368345792,-1368345792,-1368345752,-1851844574,1942449848,-1368345752,-0.261799,-0.261799,9.76023e-13,-1.5,nan,0,0,3,0.848098,0.282187
2030,-3.11384e-12,1.06179e-37,-1.50802e-06,-3.18057e-12,1.06169e-37,-3.59998e-12,-1.06644e-13,0,0,-3.13456,0.290062,0.422469,0,0,0,0,0,0.865439,0.290062,-1368345792,-1368345792,-1368345792,-1368345792,-1368345752,-1851844574,1942449848,-1368345752,-0.261799,-0.261799,7.54953e-13,-1.5,nan,0,0,3,0.847249,0.286056
