timestamp,A_x,A_y,A_z,P,Q,R,Phi,Theta,Psi,poseX,poseY,poseZ,state_X,state_Y,state_Z,state_VzB,state_Bx,state_By,state_Bz,p1_x,p1_y,p2_x,p2_y,p3_x,p3_y,p4_x,p4_y,roll,pitch,yaw,alt,targetHeading,highLevelState,lowLevelState,gateNumber,filtered_x,filtered_y,x_OT,y_OT,vx_OT,vy_OT,filtered_vx,filtered_vygateArearansac_corr_x,ransac_corr_y,ransac_corr_vx,ransac_corr_vy,detectionTimeStamppTermX,dTermX,pTermY,dTermY,vxcmd,vycmd
8478,0,0,0,0,0,0,0,0,0,0,0,0,0,0,0,0,0,0,0,0,0,0,0,0,0,0,0,0,-0.0872664,0,-1.5,3.94113e+12,0,0,0,0,0,0,0,0,0,0,0,1.9603e-19,0,0,0,0,0,0,0,0,0,2,0
9452,-3.21168e-12,2.48117e-38,-1.53642e-06,-3.27738e-12,2.48093e-38,0,-1.06589e-13,0,0,0,0,0,0,0,0,0,0,0,0,0,0,0,0,0,0,0,0,0,-0.0872664,0,-1.5,3.94113e+12,0,0,0,0,0,0,0,0,0,0,0,1.9603e-19,0,0,0,0,0,0,0,0,0,2,0
9493,-3.21168e-12,2.48117e-38,-1.53642e-06,-3.27738e-12,2.48093e-38,0,-1.0659e-13,0,0,0,0,0,0,0,0,0,0,0,0,0,0,0,0,0,0,0,0,0,-0.0872664,0,-1.5,3.94113e+12,0,0,0,0,0,0,0,0,0,0,0,1.9603e-19,0,0,0,0,0,0,0,0,0,2,0
9730,-3.21168e-12,2.48117e-38,-1.53642e-06,-3.27738e-12,2.48093e-38,0,-1.0659e-13,0,0,0,0,0,0,0,0,0,0,0,0,0,0,0,0,0,0,0,0,0,-0.0872664,0,-1.5,3.94113e+12,0,0,0,0,0,0,0,0,0,0,0,1.9603e-19,0,0,0,0,0,0,0,0,0,2,0
9787,-3.21168e-12,2.48117e-38,-1.53642e-06,-3.27738e-12,2.48093e-38,0,-1.0659e-13,0,0,0,0,0,0,0,0,0,0,0,0,0,0,0,0,0,0,0,0,0,-0.0872664,0,-1.5,3.94113e+12,0,0,0,0,0,0,0,0,0,0,0,1.9603e-19,0,0,0,0,0,0,0,0,0,2,0
9945,-3.21168e-12,2.48117e-38,-1.53642e-06,-3.27738e-12,2.48093e-38,0,-1.0659e-13,0,0,-3.64208,0.070219,0.326329,0,0,0,0,0,-0.589647,0.070219,249,-42,249,-42,373,-47,252,82,0,-0.0872664,0,-1.5,3.94113e+12,0,0,0,0,0,0,0,0,0,0,0,16254,0,0,0,0,9936,0,0,0,0,2,0
10060,-3.21168e-12,2.48117e-38,-1.53642e-06,-3.27738e-12,2.48093e-38,0,-1.06591e-13,0,0,-3.68761,0.0977533,0.344914,0,0,0,0,0,-0.652031,0.0977533,247,-39,247,-39,370,-45,248,79,0,-0.0872664,0,-1.5,3.94113e+12,0,0,0,0,0,0,0,0,0,0,0,15500,0,0,0,0,10052,0,0,0,0,2,0
10129,-3.21168e-12,2.48117e-38,-1.53642e-06,-3.27738e-12,2.48093e-38,0,-1.06591e-13,0,0,-3.6061,0.0865447,0.307389,0,0,0,0,0,-0.54035,0.0865447,247,-44,247,-44,370,-45,248,82,0,-0.0872664,0,-1.5,3.94113e+12,0,0,0,0,0,0,0,0,0,0,0,16383,0,0,0,0,10121,0,0,0,0,2,0
10212,-3.21168e-12,2.48117e-38,-1.53642e-06,-3.27738e-12,2.48093e-38,0,-1.06591e-13,0,0,-3.72105,0.0781561,0.375825,0,0,0,0,0,-0.697833,0.0781561,252,-42,252,-42,371,-47,251,79,-0.00275687,-0.0872664,0,-1.5,3.94113e+12,0,0,0,-0.718494,0.0693161,0,0,0,0,-0.248922,-0.106507,15246,-0.697833,0.0781561,-0.248922,-0.106507,10197,0,0,0,0,2,-0.103974
10232,-3.21168e-12,2.48117e-38,-1.53642e-06,-3.27738e-12,2.48093e-38,0,-1.06591e-13,0,0,-3.6676,0.0650513,0.364831,0,0,0,0,0,-0.624619,0.0650513,252,-46,252,-46,374,-48,251,76,0.00158273,-0.0872664,0,-1.5,3.94113e+12,0,0,0,-0.622565,0.067186,0,0,0,0,0.10267,-0.106507,15375,-0.624618,0.0693161,0.10267,-0.106507,10221,0,0,0,0,2,-0.100779
10343,-3.21168e-12,2.48117e-38,-1.53642e-06,-3.27738e-12,2.48093e-38,0,-1.06592e-13,0,0,-3.64648,0.0694296,0.355205,0,0,0,0,0,-0.595676,0.0694296,249,-47,249,-47,376,-48,252,78,0.0256678,-0.0872664,0,-1.5,3.94113e+12,0,0,0,-0.611169,0.0553637,0,0,0,0,0.10267,-0.106506,16002,-0.622565,0.067186,0.10267,-0.106506,10332,0,0,0,0,2,-0.0830456
10397,-3.21168e-12,2.48117e-38,-1.53642e-06,-3.27738e-12,2.48093e-38,0,-1.06592e-13,0,0,-3.68865,0.0669376,0.382439,0,0,0,0,0,-0.653446,0.0669376,249,-49,249,-49,374,-47,255,75,0.0200235,-0.0872664,0,-1.5,3.94113e+12,0,0,0,-0.605625,0.0531458,0,0,0,0,0.10267,-0.098689,15750,-0.611169,0.0584751,0.10267,-0.098689,10386,0,0,0,0,2,-0.0797187
10451,-3.21168e-12,2.48117e-38,-1.53642e-06,-3.27738e-12,2.48093e-38,0,-1.06592e-13,0,0,-3.62977,0.0833009,0.354918,0,0,0,0,0,-0.572783,0.0833009,249,-46,249,-46,373,-52,249,78,-0.0655018,-0.0872664,0,-1.5,3.94113e+12,0,0,0,-0.613771,0.0657179,0,0,0,0,0.0707177,-0.0526025,16120,-0.614124,0.065981,0.0707177,-0.0526025,10448,0,0,0,0,2,-0.0985769
10472,-3.21168e-12,2.48117e-38,-1.53642e-06,-3.27738e-12,2.48093e-38,0,-1.06593e-13,0,0,-3.62977,0.0833009,0.354918,0,0,0,0,0,-0.572783,0.0833009,249,-46,249,-46,373,-52,249,78,-0.0633584,-0.0872664,0,-1.5,3.94113e+12,0,0,0,-0.612356,0.0646659,0,0,0,0,0.0707177,-0.0526025,16120,-0.614124,0.065981,0.0707177,-0.0526025,10448,0,0,0,0,2,-0.0969988
10546,-3.21168e-12,2.48117e-38,-1.53642e-06,-3.27738e-12,2.48093e-38,0,-1.06595e-13,0,0,-3.68979,0.080246,0.368322,0,0,0,0,0,-0.655019,0.080246,251,-42,251,-42,373,-48,249,79,-0.121618,-0.0872664,0,-1.5,3.94113e+12,0,0,0,-0.608948,0.0733149,0,0,0,0,0.0682867,-0.0213417,15748,-0.614069,0.0749155,0.0682867,-0.0213417,10534,0,0,0,0,2,-0.109972
10650,-3.21168e-12,2.48117e-38,-1.53642e-06,-3.27738e-12,2.48093e-38,0,-1.06593e-13,0,0,-3.68979,0.080246,0.368322,0,0,0,0,0,-0.655019,0.080246,251,-42,251,-42,373,-48,249,79,-0.117096,-0.0872664,0,-1.5,3.94113e+12,0,0,0,-0.601846,0.0710953,0,0,0,0,0.0682867,-0.0213417,15748,-0.614069,0.0749155,0.0682867,-0.0213417,10534,0,0,0,0,2,-0.106643
10766,-3.21168e-12,2.48117e-38,-1.53642e-06,-3.27738e-12,2.48093e-38,0,-1.06593e-13,0,0,-3.68979,0.080246,0.368322,0,0,0,0,0,-0.655019,0.080246,251,-42,251,-42,373,-48,249,79,-0.112052,-0.0872664,0,-1.5,3.94113e+12,0,0,0,-0.593925,0.0686197,0,0,0,0,0.0682867,-0.0213417,15748,-0.614069,0.0749155,0.0682867,-0.0213417,10534,0,0,0,0,2,-0.10293
10789,-3.21168e-12,2.48117e-38,-1.53642e-06,-3.27738e-12,2.48093e-38,0,-1.06594e-13,0,0,-3.57858,0.0507196,0.318708,0,0,0,0,0,-0.502654,0.0507196,249,-47,249,-47,377,-48,252,78,-0.0357046,-0.0872664,0,-1.5,3.94113e+12,0,0,0,-0.558024,0.0496023,0,0,0,0,0.111506,-0.0502681,16380,-0.560589,0.0507585,0.111506,-0.0502681,10777,0,0,0,0,2,-0.0744035
10894,-3.21168e-12,2.48117e-38,-1.53642e-06,-3.27738e-12,2.48093e-38,0,-1.06594e-13,0,0,-3.61531,0.0482892,0.350886,0,0,0,0,0,-0.552973,0.0482892,252,-46,252,-46,374,-55,255,79,-0.025054,-0.0872664,0,-1.5,3.94113e+12,0,0,0,-0.546427,0.0443744,0,0,0,0,0.111506,-0.0502681,16884,-0.558024,0.0496023,0.111506,-0.0502681,10882,0,0,0,0,2,-0.0665617
10944,-3.21168e-12,2.48117e-38,-1.53642e-06,-3.27738e-12,2.48093e-38,0,-1.06594e-13,0,0,-3.67846,0.0460613,0.374744,0,0,0,0,0,-0.639492,0.0460613,254,-46,254,-46,376,-50,255,79,-0.019831,-0.0872664,0,-1.5,3.94113e+12,0,0,0,-0.54074,0.0418107,0,0,0,0,0.111506,-0.0502681,15738,-0.546427,0.0443744,0.111506,-0.0502681,10932,0,0,0,0,2,-0.0627161
10966,-3.21168e-12,2.48117e-38,-1.53642e-06,-3.27738e-12,2.48093e-38,0,-1.06593e-13,0,0,-3.73285,0.0416276,0.377988,0,0,0,0,0,-0.713998,0.0416276,258,-42,258,-42,376,-45,253,79,-0.0170118,-0.0872664,0,-1.5,3.94113e+12,0,0,0,-0.627066,0.0405752,0,0,0,0,-0.000744769,-0.0505005,15252,-0.62705,0.0416862,-0.000744769,-0.0505005,10954,0,0,0,0,2,-0.0608627
10988,-3.21168e-12,2.48117e-38,-1.53642e-06,-3.27738e-12,2.48093e-38,0,-1.06595e-13,0,0,-3.64223,0.0187718,0.298067,0,0,0,0,0,-0.589852,0.0187718,258,-42,258,-42,382,-39,253,79,-0.0130746,-0.0872664,0,-1.5,3.94113e+12,0,0,0,-0.590218,0.0392074,0,0,0,0,0.0508604,-0.0513857,16383,-0.590625,0.0396185,0.0508604,-0.0513857,10982,0,0,0,0,2,-0.0588111
11094,-3.21168e-12,2.48117e-38,-1.53642e-06,-3.27738e-12,2.48093e-38,0,-1.06598e-13,0,0,-3.62212,0.00875401,0.255851,0,0,0,0,0,-0.562306,0.00875401,261,-42,261,-42,385,-34,253,82,-0.00218211,-0.0872664,0,-1.5,3.94113e+12,0,0,0,-0.581117,0.0335108,0,0,0,0,0.0512793,-0.0508371,17556,-0.586553,0.0388995,0.0512793,-0.0508371,11082,0,0,0,0,2,-0.0502662
11158,-3.21168e-12,2.48117e-38,-1.53642e-06,-3.27738e-12,2.48093e-38,0,-1.06598e-13,0,0,-3.71901,-0.0315883,0.318419,0,0,0,0,0,-0.695043,-0.0315883,265,-40,265,-40,388,-34,260,78,0.0729883,-0.0872664,0,-1.5,3.94113e+12,0,0,0,-0.609898,0.00932284,0,0,0,0,0.0148094,-0.0707549,16384,-0.610017,0.00988889,0.0148094,-0.0707549,11152,0,0,0,0,2,-0.0139843
11175,-3.21168e-12,2.48117e-38,-1.53642e-06,-3.27738e-12,2.48093e-38,0,-1.06595e-13,0,0,-3.71901,-0.0315883,0.318419,0,0,0,0,0,-0.695043,-0.0315883,265,-40,265,-40,388,-34,260,78,0.0754388,-0.0872664,0,-1.5,3.94113e+12,0,0,0,-0.609646,0.00811998,0,0,0,0,0.0148094,-0.0707549,16384,-0.610017,0.00988889,0.0148094,-0.0707549,11152,0,0,0,0,2,-0.01218
11220,-3.21168e-12,2.48117e-38,-1.53642e-06,-3.27738e-12,2.48093e-38,0,-1.06599e-13,0,0,-3.6958,-0.0478733,0.307935,0,0,0,0,0,-0.663248,-0.0478733,268,-43,268,-43,392,-33,261,78,0.120301,-0.0872664,0,-1.5,3.94113e+12,0,0,0,-0.647585,-0.00654725,0,0,0,0,-0.0231801,-0.082279,17292,-0.647423,-0.0059713,-0.0231801,-0.082279,11216,0,0,0,0,2,0.00982088
11241,-3.21168e-12,2.48117e-38,-1.53642e-06,-3.27738e-12,2.48093e-38,0,-1.06598e-13,0,0,-3.6958,-0.0478733,0.307935,0,0,0,0,0,-0.663248,-0.0478733,268,-43,268,-43,392,-33,261,78,0.123821,-0.0872664,0,-1.5,3.94113e+12,0,0,0,-0.648072,-0.00827514,0,0,0,0,-0.0231801,-0.082279,17292,-0.647423,-0.0059713,-0.0231801,-0.082279,11216,0,0,0,0,2,0.0124127
11390,-3.21168e-12,2.48117e-38,-1.53642e-06,-3.27738e-12,2.48093e-38,0,-1.06598e-13,0,0,-3.7087,0.0805369,0.281335,0,0,0,0,0,-0.680924,0.0805369,251,-36,251,-36,374,-32,249,86,0.125556,-0.0872664,0,-1.5,3.94113e+12,0,0,0,-0.659031,-0.0131217,0,0,0,0,-0.0379515,-0.0760181,15500,-0.653377,-0.00179496,-0.0379515,-0.0760181,11377,0,0,0,0,2,0.0196825
11428,-3.21168e-12,2.48117e-38,-1.53642e-06,-3.27738e-12,2.48093e-38,0,-1.06599e-13,0,0,-3.73203,0.0398837,0.337657,0,0,0,0,0,-0.712885,0.0398837,257,-39,257,-39,378,-35,251,79,0.119222,-0.0872664,0,-1.5,3.94113e+12,0,0,0,-0.666415,-0.0121014,0,0,0,0,-0.0438795,-0.0727447,15367,-0.664747,-0.00933712,-0.0438795,-0.0727447,11416,0,0,0,0,2,0.0181522
11469,-3.21168e-12,2.48117e-38,-1.53642e-06,-3.27738e-12,2.48093e-38,0,-1.06596e-13,0,0,-3.73203,0.0398837,0.337657,0,0,0,0,0,-0.712885,0.0398837,257,-39,257,-39,378,-35,251,79,0.125298,-0.0872664,0,-1.5,3.94113e+12,0,0,0,-0.668214,-0.015084,0,0,0,0,-0.0438795,-0.0727447,15367,-0.664747,-0.00933712,-0.0438795,-0.0727447,11416,0,0,0,0,2,0.022626
11589,-3.21168e-12,2.48117e-38,-1.53642e-06,-3.27738e-12,2.48093e-38,0,-1.066e-13,0,0,-3.63167,0.0306165,0.468906,0,0,0,0,0,-0.575389,0.0306165,257,-62,257,-62,379,-62,253,62,0.0366691,-0.0872664,0,-1.5,3.94113e+12,0,0,0,-0.655187,0.0115461,0,0,0,0,-0.0224789,-0.0463011,16002,-0.654895,0.012148,-0.0224789,-0.0463011,11578,0,0,0,0,2,-0.0173191
11625,-3.21168e-12,2.48117e-38,-1.53642e-06,-3.27738e-12,2.48093e-38,0,-1.06596e-13,0,0,-3.5946,0.0248019,0.429712,0,0,0,0,0,-0.524607,0.0248019,257,-59,257,-59,382,-62,253,67,0.0203123,-0.0872664,0,-1.5,3.94113e+12,0,0,0,-0.611842,0.0158524,0,0,0,0,0.0123042,-0.0404676,16641,-0.611977,0.0162976,0.0123042,-0.0404676,11617,0,0,0,0,2,-0.0237786
11646,-3.21168e-12,2.48117e-38,-1.53642e-06,-3.27738e-12,2.48093e-38,0,-1.06596e-13,0,0,-3.5946,0.0248019,0.429712,0,0,0,0,0,-0.524607,0.0248019,257,-59,257,-59,382,-62,253,67,0.0220436,-0.0872664,0,-1.5,3.94113e+12,0,0,0,-0.611584,0.0150026,0,0,0,0,0.0123042,-0.0404676,16641,-0.611977,0.0162976,0.0123042,-0.0404676,11617,0,0,0,0,2,-0.0225039
11668,-3.21168e-12,2.48117e-38,-1.53642e-06,-3.27738e-12,2.48093e-38,0,-1.066e-13,0,0,-3.5946,0.0248019,0.429712,0,0,0,0,0,-0.524607,0.0248019,257,-59,257,-59,382,-62,253,67,0.0132008,-0.0872664,0,-1.5,3.94113e+12,0,0,0,-0.607679,0.017438,0,0,0,0,0.0119445,-0.037482,16641,-0.607942,0.0182626,0.0119445,-0.037482,11654,0,0,0,0,2,-0.026157
11689,-3.21168e-12,2.48117e-38,-1.53642e-06,-3.27738e-12,2.48093e-38,0,-1.066e-13,0,0,-3.58797,0.0201473,0.430895,0,0,0,0,0,-0.515524,0.0201473,257,-59,257,-59,379,-62,253,65,0.00757255,-0.0872664,0,-1.5,3.94113e+12,0,0,0,-0.605681,0.0190222,0,0,0,0,0.0146147,-0.0356352,16383,-0.605783,0.0192716,0.0146147,-0.0356352,11684,0,0,0,0,2,-0.0285333
11805,-3.21168e-12,2.48117e-38,-1.53642e-06,-3.27738e-12,2.48093e-38,0,-1.066e-13,0,0,-3.61402,0.0367966,0.44501,0,0,0,0,0,-0.551213,0.0367966,254,-62,254,-62,380,-60,254,64,0.00852511,-0.0872664,0,-1.5,3.94113e+12,0,0,0,-0.568062,0.0173595,0,0,0,0,0.0436933,-0.0337623,16254,-0.573131,0.021276,0.0436933,-0.0337623,11792,0,0,0,0,2,-0.0260393
11838,-3.21168e-12,2.48117e-38,-1.53642e-06,-3.27738e-12,2.48093e-38,0,-1.06601e-13,0,0,-3.65437,0.0380247,0.464296,0,0,0,0,0,-0.606485,0.0380247,256,-59,256,-59,379,-60,253,65,0.00725858,-0.0872664,0,-1.5,3.94113e+12,0,0,0,-0.593239,0.0174,0,0,0,0,0.0202702,-0.0328515,15750,-0.593908,0.0184841,0.0202702,-0.0328515,11825,0,0,0,0,2,-0.0260999
11859,-3.21168e-12,2.48117e-38,-1.53642e-06,-3.27738e-12,2.48093e-38,0,-1.06596e-13,0,0,-3.61141,0.0387979,0.441501,0,0,0,0,0,-0.547637,0.0387979,254,-62,254,-62,380,-59,253,64,0.005724,-0.0872664,0,-1.5,3.94113e+12,0,0,0,-0.564426,0.0179788,0,0,0,0,0.0381369,-0.0325781,16383,-0.564845,0.0183371,0.0381369,-0.0325781,11850,0,0,0,0,2,-0.0269682
11885,-3.21168e-12,2.48117e-38,-1.53642e-06,-3.27738e-12,2.48093e-38,0,-1.06601e-13,0,0,-3.61275,0.0308264,0.451016,0,0,0,0,0,-0.549463,0.0308264,257,-62,257,-62,379,-62,253,65,0.00358181,-0.0872664,0,-1.5,3.94113e+12,0,0,0,-0.563197,0.0182592,0,0,0,0,0.0391295,-0.0313697,16002,-0.563549,0.0185415,0.0391295,-0.0313697,11878,0,0,0,0,2,-0.0273887
11899,-3.21168e-12,2.48117e-38,-1.53642e-06,-3.27738e-12,2.48093e-38,0,-1.06601e-13,0,0,-3.61275,0.0308264,0.451016,0,0,0,0,0,-0.549463,0.0308264,257,-62,257,-62,379,-62,253,65,0.00447656,-0.0872664,0,-1.5,3.94113e+12,0,0,0,-0.562649,0.01782,0,0,0,0,0.0391295,-0.0313697,16002,-0.563549,0.0185415,0.0391295,-0.0313697,11878,0,0,0,0,2,-0.0267299
12103,-3.21168e-12,2.48117e-38,-1.53642e-06,-3.27738e-12,2.48093e-38,0,-1.06597e-13,0,0,-3.62981,0.0463274,0.556028,0,0,0,0,0,-0.572845,0.0463274,254,-73,254,-73,376,-72,253,54,0.00372625,-0.0872664,0,-1.5,3.94113e+12,0,0,0,-0.555827,0.0163678,0,0,0,0,0.0378647,-0.0285168,15621,-0.563551,0.0221852,0.0378647,-0.0285168,12089,0,0,0,0,2,-0.0245517
12129,-3.21168e-12,2.48117e-38,-1.53642e-06,-3.27738e-12,2.48093e-38,0,-1.06602e-13,0,0,-3.5475,0.0769193,0.536484,0,0,0,0,0,-0.460069,0.0769193,249,-78,249,-78,375,-76,247,49,-0.0259519,-0.0872664,0,-1.5,3.94113e+12,0,0,0,-0.545646,0.0253707,0,0,0,0,0.0437949,-0.0197961,16896,-0.546215,0.025628,0.0437949,-0.0197961,12118,0,0,0,0,2,-0.038056
12183,-3.21168e-12,2.48117e-38,-1.53642e-06,-3.27738e-12,2.48093e-38,0,-1.06602e-13,0,0,-3.57412,0.10314,0.618171,0,0,0,0,0,-0.49655,0.10314,246,-85,246,-85,372,-83,245,39,-0.0293999,-0.0872664,0,-1.5,3.94113e+12,0,0,0,-0.524006,0.0253303,0,0,0,0,0.0704889,-0.0170805,16891,-0.527741,0.0262356,0.0704889,-0.0170805,12169,0,0,0,0,2,-0.0379954
12296,-3.21168e-12,2.48117e-38,-1.53642e-06,-3.27738e-12,2.48093e-38,0,-1.06597e-13,0,0,-3.65097,0.111196,0.75859,0,0,0,0,0,-0.601827,0.111196,249,-80,249,-80,370,-103,244,33,-0.0339325,-0.0872664,0,-1.5,3.94113e+12,0,0,0,-0.523372,0.0260367,0,0,0,0,0.0647948,-0.014701,17136,-0.530758,0.0277126,0.0647948,-0.014701,12282,0,0,0,0,2,-0.0390551
12334,-3.21168e-12,2.48117e-38,-1.53642e-06,-3.27738e-12,2.48093e-38,0,-1.06597e-13,0,0,-3.65097,0.111196,0.75859,0,0,0,0,0,-0.601827,0.111196,249,-80,249,-80,370,-103,244,33,-0.0327944,-0.0872664,0,-1.5,3.94113e+12,0,0,0,-0.52091,0.0254781,0,0,0,0,0.0647948,-0.014701,17136,-0.530758,0.0277126,0.0647948,-0.014701,12282,0,0,0,0,2,-0.0382171
12395,-3.21168e-12,2.48117e-38,-1.53642e-06,-3.27738e-12,2.48093e-38,0,-1.06602e-13,0,0,-3.65097,0.111196,0.75859,0,0,0,0,0,-0.601827,0.111196,249,-80,249,-80,370,-103,244,33,-0.0309974,-0.0872664,0,-1.5,3.94113e+12,0,0,0,-0.517022,0.024596,0,0,0,0,0.0647948,-0.014701,17136,-0.530758,0.0277126,0.0647948,-0.014701,12282,0,0,0,0,2,-0.0368941
12411,-3.21168e-12,2.48117e-38,-1.53642e-06,-3.27738e-12,2.48093e-38,0,-1.06602e-13,0,0,-3.65097,0.111196,0.75859,0,0,0,0,0,-0.601827,0.111196,249,-80,249,-80,370,-103,244,33,-0.0304883,-0.0872664,0,-1.5,3.94113e+12,0,0,0,-0.51592,0.0243461,0,0,0,0,0.0647948,-0.014701,17136,-0.530758,0.0277126,0.0647948,-0.014701,12282,0,0,0,0,2,-0.0365192
12433,-3.21168e-12,2.48117e-38,-1.53642e-06,-3.27738e-12,2.48093e-38,0,-1.06603e-13,0,0,-3.65097,0.111196,0.75859,0,0,0,0,0,-0.601827,0.111196,249,-80,249,-80,370,-103,244,33,-0.0298294,-0.0872664,0,-1.5,3.94113e+12,0,0,0,-0.514495,0.0240227,0,0,0,0,0.0647948,-0.014701,17136,-0.530758,0.0277126,0.0647948,-0.014701,12282,0,0,0,0,2,-0.0360341
12540,-3.21168e-12,2.48117e-38,-1.53642e-06,-3.27738e-12,2.48093e-38,0,-1.06603e-13,0,0,-3.65097,0.111196,0.75859,0,0,0,0,0,-0.601827,0.111196,249,-80,249,-80,370,-103,244,33,-0.0266248,-0.0872664,0,-1.5,3.94113e+12,0,0,0,-0.507562,0.0224497,0,0,0,0,0.0647948,-0.014701,17136,-0.530758,0.0277126,0.0647948,-0.014701,12282,0,0,0,0,2,-0.0336746
12661,-3.21168e-12,2.48117e-38,-1.53642e-06,-3.27738e-12,2.48093e-38,0,-1.06603e-13,0,0,-3.65097,0.111196,0.75859,0,0,0,0,0,-0.601827,0.111196,249,-80,249,-80,370,-103,244,33,-0.0230309,-0.0872664,0,-1.5,3.94113e+12,0,0,0,-0.499787,0.0206856,0,0,0,0,0.0647948,-0.014701,17136,-0.530758,0.0277126,0.0647948,-0.014701,12282,0,0,0,0,2,-0.0310284
12680,-3.21168e-12,2.48117e-38,-1.53642e-06,-3.27738e-12,2.48093e-38,0,-1.06603e-13,0,0,-3.65097,0.111196,0.75859,0,0,0,0,0,-0.601827,0.111196,249,-80,249,-80,370,-103,244,33,-0.0224319,-0.0872664,0,-1.5,3.94113e+12,0,0,0,-0.498491,0.0203916,0,0,0,0,0.0647948,-0.014701,17136,-0.530758,0.0277126,0.0647948,-0.014701,12282,0,0,0,0,2,-0.0305874
12694,-3.21168e-12,2.48117e-38,-1.53642e-06,-3.27738e-12,2.48093e-38,0,-1.06604e-13,0,0,-3.65097,0.111196,0.75859,-0.497585,0.0201861,0.064536,-0.0146423,0,-0.601827,0.111196,249,-80,249,-80,370,-103,244,33,-0.0220895,-0.0872664,0,-1.5,3.94113e+12,0,0,0,-0.497585,0.0201861,0,0,0,0,0.064536,-0.0146423,17136,0,0,0,0,12282,0,0,0,0,2,-0.0302791
12800,-3.21168e-12,2.48117e-38,-1.53642e-06,-3.27738e-12,2.48093e-38,0,-1.06604e-13,0,0,-3.65097,0.111196,0.75859,-0.491081,0.0187103,0.0611286,-0.0138692,0,-0.601827,0.111196,249,-80,249,-80,370,-103,244,33,-0.020088,-0.0872664,0,-1.5,3.94113e+12,0,0,0,-0.491081,0.0187103,0,0,0,0,0.0611286,-0.0138692,17136,0,0,0,0,12282,0,0,0,0,2,-0.0280655
12844,-3.21168e-12,2.48117e-38,-1.53642e-06,-3.27738e-12,2.48093e-38,0,-1.06604e-13,0,0,-3.65097,0.111196,0.75859,-0.48844,0.0181111,0.0597891,-0.0135652,0,-0.601827,0.111196,249,-80,249,-80,370,-103,244,33,-0.0192624,-0.0872664,0,-1.5,3.94113e+12,0,0,0,-0.48844,0.0181111,0,0,0,0,0.0597891,-0.0135652,17136,0,0,0,0,12282,0,0,0,0,2,-0.0271667
12861,-3.21168e-12,2.48117e-38,-1.53642e-06,-3.27738e-12,2.48093e-38,0,-1.06605e-13,0,0,-3.65097,0.111196,0.75859,-0.487488,0.0178952,0.0593121,-0.013457,0,-0.601827,0.111196,249,-80,249,-80,370,-103,244,33,-0.0189632,-0.0872664,0,-1.5,3.94113e+12,0,0,0,-0.487488,0.0178952,0,0,0,0,0.0593121,-0.013457,17136,0,0,0,0,12282,0,0,0,0,2,-0.0268428
12877,-3.21168e-12,2.48117e-38,-1.53642e-06,-3.27738e-12,2.48093e-38,0,-1.06605e-13,0,0,-3.65097,0.111196,0.75859,-0.486485,0.0176677,0.0588094,-0.013343,0,-0.601827,0.111196,249,-80,249,-80,370,-103,244,33,-0.0186481,-0.0872664,0,-1.5,3.94113e+12,0,0,0,-0.486485,0.0176677,0,0,0,0,0.0588094,-0.013343,17136,0,0,0,0,12282,0,0,0,0,2,-0.0265016
12980,-3.21168e-12,2.48117e-38,-1.53642e-06,-3.27738e-12,2.48093e-38,0,-1.06605e-13,0,0,-3.65097,0.111196,0.75859,-0.480717,0.016359,0.0557922,-0.0126584,0,-0.601827,0.111196,249,-80,249,-80,370,-103,244,33,-0.0168716,-0.0872664,0,-1.5,3.94113e+12,0,0,0,-0.480717,0.016359,0,0,0,0,0.0557922,-0.0126584,17136,0,0,0,0,12282,0,0,0,0,2,-0.0245384
13033,-3.21168e-12,2.48117e-38,-1.53642e-06,-3.27738e-12,2.48093e-38,0,-1.06605e-13,0,0,-3.65097,0.111196,0.75859,-0.477826,0.0157031,0.0543196,-0.0123243,0,-0.601827,0.111196,249,-80,249,-80,370,-103,244,33,-0.0159699,-0.0872664,0,-1.5,3.94113e+12,0,0,0,-0.477826,0.0157031,0,0,0,0,0.0543196,-0.0123243,17136,0,0,0,0,12282,0,0,0,0,2,-0.0235547
13050,-3.21168e-12,2.48117e-38,-1.53642e-06,-3.27738e-12,2.48093e-38,0,-1.06606e-13,0,0,-3.65097,0.111196,0.75859,-0.476908,0.0154948,0.0538593,-0.0122199,0,-0.601827,0.111196,249,-80,249,-80,370,-103,244,33,-0.0156811,-0.0872664,0,-1.5,3.94113e+12,0,0,0,-0.476908,0.0154948,0,0,0,0,0.0538593,-0.0122199,17136,0,0,0,0,12282,0,0,0,0,2,-0.0232422
13071,-3.21168e-12,2.48117e-38,-1.53642e-06,-3.27738e-12,2.48093e-38,0,-1.06606e-13,0,0,-3.65097,0.111196,0.75859,-0.475785,0.01524,0.0532956,-0.012092,0,-0.601827,0.111196,249,-80,249,-80,370,-103,244,33,-0.0153284,-0.0872664,0,-1.5,3.94113e+12,0,0,0,-0.475785,0.01524,0,0,0,0,0.0532956,-0.012092,17136,0,0,0,0,12282,0,0,0,0,2,-0.02286
13088,-3.21168e-12,2.48117e-38,-1.53642e-06,-3.27738e-12,2.48093e-38,0,-1.06606e-13,0,0,-3.65097,0.111196,0.75859,-0.474884,0.0150356,0.052844,-0.0119895,0,-0.601827,0.111196,249,-80,249,-80,370,-103,244,33,-0.0150451,-0.0872664,0,-1.5,3.94113e+12,0,0,0,-0.474884,0.0150356,0,0,0,0,0.052844,-0.0119895,17136,0,0,0,0,12282,0,0,0,0,2,-0.0225534
13190,-3.21168e-12,2.48117e-38,-1.53642e-06,-3.27738e-12,2.48093e-38,0,-1.06606e-13,0,0,-3.65097,0.111196,0.75859,-0.469748,0.0138703,0.0501592,-0.0113804,0,-0.601827,0.111196,249,-80,249,-80,370,-103,244,33,-0.0134631,-0.0872664,0,-1.5,3.94113e+12,0,0,0,-0.469748,0.0138703,0,0,0,0,0.0501592,-0.0113804,17136,0,0,0,0,12282,0,0,0,0,2,-0.0208055
13260,-3.21168e-12,2.48117e-38,-1.53642e-06,-3.27738e-12,2.48093e-38,0,-1.06607e-13,0,0,-3.65097,0.111196,0.75859,-0.466347,0.0130986,0.0484101,-0.0109835,0,-0.601827,0.111196,249,-80,249,-80,370,-103,244,33,-0.0124068,-0.0872664,0,-1.5,3.94113e+12,0,0,0,-0.466347,0.0130986,0,0,0,0,0.0484101,-0.0109835,17136,0,0,0,0,12282,0,0,0,0,2,-0.019648
13293,-3.21168e-12,2.48117e-38,-1.53642e-06,-3.27738e-12,2.48093e-38,0,-1.06607e-13,0,0,-3.65097,0.111196,0.75859,-0.46477,0.0127409,0.047614,-0.0108029,0,-0.601827,0.111196,249,-80,249,-80,370,-103,244,33,-0.0119129,-0.0872664,0,-1.5,3.94113e+12,0,0,0,-0.46477,0.0127409,0,0,0,0,0.047614,-0.0108029,17136,0,0,0,0,12282,0,0,0,0,2,-0.0191114
13341,-3.21168e-12,2.48117e-38,-1.53642e-06,-3.27738e-12,2.48093e-38,0,-1.06607e-13,0,0,-3.65097,0.111196,0.75859,-0.462532,0.012233,0.0464754,-0.0105446,0,-0.601827,0.111196,249,-80,249,-80,370,-103,244,33,-0.0112139,-0.0872664,0,-1.5,3.94113e+12,0,0,0,-0.462532,0.012233,0,0,0,0,0.0464754,-0.0105446,17136,0,0,0,0,12282,0,0,0,0,2,-0.0183495
13381,-3.21168e-12,2.48117e-38,-1.53642e-06,-3.27738e-12,2.48093e-38,0,-1.06608e-13,0,0,-3.65097,0.111196,0.75859,-0.460703,0.011818,0.0455495,-0.0103345,0,-0.601827,0.111196,249,-80,249,-80,370,-103,244,33,-0.0106415,-0.0872664,0,-1.5,3.94113e+12,0,0,0,-0.460703,0.011818,0,0,0,0,0.0455495,-0.0103345,17136,0,0,0,0,12282,0,0,0,0,2,-0.017727
13398,-3.21168e-12,2.48117e-38,-1.53642e-06,-3.27738e-12,2.48093e-38,0,-1.06608e-13,0,0,-3.65097,0.111196,0.75859,-0.459932,0.0116433,0.0451635,-0.0102469,0,-0.601827,0.111196,249,-80,249,-80,370,-103,244,33,-0.0103994,-0.0872664,0,-1.5,3.94113e+12,0,0,0,-0.459932,0.0116433,0,0,0,0,0.0451635,-0.0102469,17136,0,0,0,0,12282,0,0,0,0,2,-0.0174649
13432,-3.21168e-12,2.48117e-38,-1.53642e-06,-3.27738e-12,2.48093e-38,0,-1.06608e-13,0,0,-3.65097,0.111196,0.75859,-0.458418,0.0112996,0.0443983,-0.0100733,0,-0.601827,0.111196,249,-80,249,-80,370,-103,244,33,-0.009925,-0.0872664,0,-1.5,3.94113e+12,0,0,0,-0.458418,0.0112996,0,0,0,0,0.0443983,-0.0100733,17136,0,0,0,0,12282,0,0,0,0,2,-0.0169494
13454,-3.21168e-12,2.48117e-38,-1.53642e-06,-3.27738e-12,2.48093e-38,0,-1.06608e-13,0,0,-3.65097,0.111196,0.75859,-0.457448,0.0110797,0.0439115,-0.00996287,0,-0.601827,0.111196,249,-80,249,-80,370,-103,244,33,-0.00962054,-0.0872664,0,-1.5,3.94113e+12,0,0,0,-0.457448,0.0110797,0,0,0,0,0.0439115,-0.00996287,17136,0,0,0,0,12282,0,0,0,0,2,-0.0166195
13471,-3.21168e-12,2.48117e-38,-1.53642e-06,-3.27738e-12,2.48093e-38,0,-1.06609e-13,0,0,-3.65097,0.111196,0.75859,-0.456706,0.0109112,0.0435394,-0.00987844,0,-0.601827,0.111196,249,-80,249,-80,370,-103,244,33,-0.00938714,-0.0872664,0,-1.5,3.94113e+12,0,0,0,-0.456706,0.0109112,0,0,0,0,0.0435394,-0.00987844,17136,0,0,0,0,12282,0,0,0,0,2,-0.0163669
13488,-3.21168e-12,2.48117e-38,-1.53642e-06,-3.27738e-12,2.48093e-38,0,-1.06609e-13,0,0,-3.65097,0.111196,0.75859,-0.45597,0.0107443,0.0431704,-0.00979471,0,-0.601827,0.111196,249,-80,249,-80,370,-103,244,33,-0.0091558,-0.0872664,0,-1.5,3.94113e+12,0,0,0,-0.45597,0.0107443,0,0,0,0,0.0431704,-0.00979471,17136,0,0,0,0,12282,0,0,0,0,2,-0.0161164
13540,-3.21168e-12,2.48117e-38,-1.53642e-06,-3.27738e-12,2.48093e-38,0,-1.06609e-13,0,0,-3.65097,0.111196,0.75859,-0.453775,0.0102461,0.0420524,-0.00954107,0,-0.601827,0.111196,249,-80,249,-80,370,-103,244,33,-0.00847072,-0.0872664,0,-1.5,3.94113e+12,0,0,0,-0.453775,0.0102461,0,0,0,0,0.0420524,-0.00954107,17136,0,0,0,0,12282,0,0,0,0,2,-0.0153692
13557,-3.21168e-12,2.48117e-38,-1.53642e-06,-3.27738e-12,2.48093e-38,0,-1.06609e-13,0,0,-3.65097,0.111196,0.75859,-0.453064,0.0100849,0.041696,-0.0094602,0,-0.601827,0.111196,249,-80,249,-80,370,-103,244,33,-0.00824728,-0.0872664,0,-1.5,3.94113e+12,0,0,0,-0.453064,0.0100849,0,0,0,0,0.041696,-0.0094602,17136,0,0,0,0,12282,0,0,0,0,2,-0.0151273
13574,-3.21168e-12,2.48117e-38,-1.53642e-06,-3.27738e-12,2.48093e-38,0,-1.0661e-13,0,0,-3.65097,0.111196,0.75859,-0.452359,0.00992494,0.0413426,-0.00938001,0,-0.601827,0.111196,249,-80,249,-80,370,-103,244,33,-0.00802574,-0.0872664,0,-1.5,3.94113e+12,0,0,0,-0.452359,0.00992494,0,0,0,0,0.0413426,-0.00938001,17136,0,0,0,0,12282,0,0,0,0,2,-0.0148874
13596,-3.21168e-12,2.48117e-38,-1.53642e-06,-3.27738e-12,2.48093e-38,0,-1.0661e-13,0,0,-3.65097,0.111196,0.75859,-0.451456,0.00972016,0.0408893,-0.00927718,0,-0.601827,0.111196,249,-80,249,-80,370,-103,244,33,-0.00774223,-0.0872664,0,-1.5,3.94113e+12,0,0,0,-0.451456,0.00972016,0,0,0,0,0.0408893,-0.00927718,17136,0,0,0,0,12282,0,0,0,0,2,-0.0145802
13610,-3.21168e-12,2.48117e-38,-1.53642e-06,-3.27738e-12,2.48093e-38,0,-1.0661e-13,0,0,-3.65097,0.111196,0.75859,-0.450886,0.00959084,0.0406039,-0.00921241,0,-0.601827,0.111196,249,-80,249,-80,370,-103,244,33,-0.00756296,-0.0872664,0,-1.5,3.94113e+12,0,0,0,-0.450886,0.00959084,0,0,0,0,0.0406039,-0.00921241,17136,0,0,0,0,12282,0,0,0,0,2,-0.0143863
13627,-3.21168e-12,2.48117e-38,-1.53642e-06,-3.27738e-12,2.48093e-38,0,-1.06611e-13,0,0,-3.65097,0.111196,0.75859,-0.4502,0.00943509,0.0402598,-0.00913434,0,-0.601827,0.111196,249,-80,249,-80,370,-103,244,33,-0.00734715,-0.0872664,0,-1.5,3.94113e+12,0,0,0,-0.4502,0.00943509,0,0,0,0,0.0402598,-0.00913434,17136,0,0,0,0,12282,0,0,0,0,2,-0.0141526
13643,-3.21168e-12,2.48117e-38,-1.53642e-06,-3.27738e-12,2.48093e-38,0,-1.06611e-13,0,0,-3.65097,0.111196,0.75859,-0.449559,0.00928971,0.0399386,-0.00906147,0,-0.601827,0.111196,249,-80,249,-80,370,-103,244,33,-0.0071457,-0.0872664,0,-1.5,3.94113e+12,0,0,0,-0.449559,0.00928971,0,0,0,0,0.0399386,-0.00906147,17136,0,0,0,0,12282,0,0,0,0,2,-0.0139346
13665,-3.21168e-12,2.48117e-38,-1.53642e-06,-3.27738e-12,2.48093e-38,0,-1.06611e-13,0,0,-3.65097,0.111196,0.75859,-0.448727,0.00910083,0.0395205,-0.00896661,0,-0.601827,0.111196,249,-80,249,-80,370,-103,244,33,-0.00688423,-0.0872664,0,-1.5,3.94113e+12,0,0,0,-0.448727,0.00910083,0,0,0,0,0.0395205,-0.00896661,17136,0,0,0,0,12282,0,0,0,0,2,-0.0136512
13682,-3.21168e-12,2.48117e-38,-1.53642e-06,-3.27738e-12,2.48093e-38,0,-1.06611e-13,0,0,-3.65097,0.111196,0.75859,-0.448059,0.00894926,0.0391855,-0.00889061,0,-0.601827,0.111196,249,-80,249,-80,370,-103,244,33,-0.00667424,-0.0872664,0,-1.5,3.94113e+12,0,0,0,-0.448059,0.00894926,0,0,0,0,0.0391855,-0.00889061,17136,0,0,0,0,12282,0,0,0,0,2,-0.0134239
13698,-3.21168e-12,2.48117e-38,-1.53642e-06,-3.27738e-12,2.48093e-38,0,-1.06612e-13,0,0,-3.65097,0.111196,0.75859,-0.447396,0.00879898,0.0388534,-0.00881525,0,-0.601827,0.111196,249,-80,249,-80,370,-103,244,33,-0.00646603,-0.0872664,0,-1.5,3.94113e+12,0,0,0,-0.447396,0.00879898,0,0,0,0,0.0388534,-0.00881525,17136,0,0,0,0,12282,0,0,0,0,2,-0.0131985
13720,-3.21168e-12,2.48117e-38,-1.53642e-06,-3.27738e-12,2.48093e-38,0,-1.06612e-13,0,0,-3.65097,0.111196,0.75859,-0.446586,0.00861524,0.0384467,-0.00872297,0,-0.601827,0.111196,249,-80,249,-80,370,-103,244,33,-0.00621167,-0.0872664,0,-1.5,3.94113e+12,0,0,0,-0.446586,0.00861524,0,0,0,0,0.0384467,-0.00872297,17136,0,0,0,0,12282,0,0,0,0,2,-0.0129229
13737,-3.21168e-12,2.48117e-38,-1.53642e-06,-3.27738e-12,2.48093e-38,0,-1.06612e-13,0,0,-3.65097,0.111196,0.75859,-0.445937,0.00846779,0.0381208,-0.00864904,0,-0.601827,0.111196,249,-80,249,-80,370,-103,244,33,-0.00600739,-0.0872664,0,-1.5,3.94113e+12,0,0,0,-0.445937,0.00846779,0,0,0,0,0.0381208,-0.00864904,17136,0,0,0,0,12282,0,0,0,0,2,-0.0127017
13753,-3.21168e-12,2.48117e-38,-1.53642e-06,-3.27738e-12,2.48093e-38,0,-1.06612e-13,0,0,-3.65097,0.111196,0.75859,-0.445292,0.00832159,0.0377977,-0.00857573,0,-0.601827,0.111196,249,-80,249,-80,370,-103,244,33,-0.00580484,-0.0872664,0,-1.5,3.94113e+12,0,0,0,-0.445292,0.00832159,0,0,0,0,0.0377977,-0.00857573,17136,0,0,0,0,12282,0,0,0,0,2,-0.0124824
13775,-3.21168e-12,2.48117e-38,-1.53642e-06,-3.27738e-12,2.48093e-38,0,-1.06613e-13,0,0,-3.65097,0.111196,0.75859,-0.444504,0.00814284,0.037402,-0.00848596,0,-0.601827,0.111196,249,-80,249,-80,370,-103,244,33,-0.00555738,-0.0872664,0,-1.5,3.94113e+12,0,0,0,-0.444504,0.00814284,0,0,0,0,0.037402,-0.00848596,17136,0,0,0,0,12282,0,0,0,0,2,-0.0122143
13810,-3.21168e-12,2.48117e-38,-1.53642e-06,-3.27738e-12,2.48093e-38,0,-1.06613e-13,0,0,-3.65097,0.111196,0.75859,-0.443214,0.00785001,0.0367497,-0.00833796,0,-0.601827,0.111196,249,-80,249,-80,370,-103,244,33,-0.0051532,-0.0872664,0,-1.5,3.94113e+12,0,0,0,-0.443214,0.00785001,0,0,0,0,0.0367497,-0.00833796,17136,0,0,0,0,12282,0,0,0,0,2,-0.011775
13824,-3.21168e-12,2.48117e-38,-1.53642e-06,-3.27738e-12,2.48093e-38,0,-1.06613e-13,0,0,-3.65097,0.111196,0.75859,-0.442665,0.00772552,0.0364749,-0.0082756,0,-0.601827,0.111196,249,-80,249,-80,370,-103,244,33,-0.00498067,-0.0872664,0,-1.5,3.94113e+12,0,0,0,-0.442665,0.00772552,0,0,0,0,0.0364749,-0.0082756,17136,0,0,0,0,12282,0,0,0,0,2,-0.0115883
13842,-3.21168e-12,2.48117e-38,-1.53642e-06,-3.27738e-12,2.48093e-38,0,-1.06614e-13,0,0,-3.65097,0.111196,0.75859,-0.442012,0.00757744,0.0361476,-0.00820135,0,-0.601827,0.111196,249,-80,249,-80,370,-103,244,33,-0.00477551,-0.0872664,0,-1.5,3.94113e+12,0,0,0,-0.442012,0.00757744,0,0,0,0,0.0361476,-0.00820135,17136,0,0,0,0,12282,0,0,0,0,2,-0.0113662
13859,-3.21168e-12,2.48117e-38,-1.53642e-06,-3.27738e-12,2.48093e-38,0,-1.06614e-13,0,0,-3.65097,0.111196,0.75859,-0.441401,0.00743881,0.0358412,-0.00813183,0,-0.601827,0.111196,249,-80,249,-80,370,-103,244,33,-0.00458345,-0.0872664,0,-1.5,3.94113e+12,0,0,0,-0.441401,0.00743881,0,0,0,0,0.0358412,-0.00813183,17136,0,0,0,0,12282,0,0,0,0,2,-0.0111582
13876,-3.21168e-12,2.48117e-38,-1.53642e-06,-3.27738e-12,2.48093e-38,0,-1.06614e-13,0,0,-3.65097,0.111196,0.75859,-0.440795,0.00730135,0.0355374,-0.00806291,0,-0.601827,0.111196,249,-80,249,-80,370,-103,244,33,-0.00439302,-0.0872664,0,-1.5,3.94113e+12,0,0,0,-0.440795,0.00730135,0,0,0,0,0.0355374,-0.00806291,17136,0,0,0,0,12282,0,0,0,0,2,-0.010952
13898,-3.21168e-12,2.48117e-38,-1.53642e-06,-3.27738e-12,2.48093e-38,0,-1.06614e-13,0,0,-3.65097,0.111196,0.75859,-0.44002,0.00712537,0.0351477,-0.00797449,0,-0.601827,0.111196,249,-80,249,-80,370,-103,244,33,-0.00414944,-0.0872664,0,-1.5,3.94113e+12,0,0,0,-0.44002,0.00712537,0,0,0,0,0.0351477,-0.00797449,17136,0,0,0,0,12282,0,0,0,0,2,-0.0106881
13916,-3.21168e-12,2.48117e-38,-1.53642e-06,-3.27738e-12,2.48093e-38,0,-1.06615e-13,0,0,-3.65097,0.111196,0.75859,-0.439391,0.00698268,0.0348324,-0.00790294,0,-0.601827,0.111196,249,-80,249,-80,370,-103,244,33,-0.00395175,-0.0872664,0,-1.5,3.94113e+12,0,0,0,-0.439391,0.00698268,0,0,0,0,0.0348324,-0.00790294,17136,0,0,0,0,12282,0,0,0,0,2,-0.010474
13932,-3.21168e-12,2.48117e-38,-1.53642e-06,-3.27738e-12,2.48093e-38,0,-1.06615e-13,0,0,-3.65097,0.111196,0.75859,-0.438836,0.00685689,0.0345545,-0.00783989,0,-0.601827,0.111196,249,-80,249,-80,370,-103,244,33,-0.00377746,-0.0872664,0,-1.5,3.94113e+12,0,0,0,-0.438836,0.00685689,0,0,0,0,0.0345545,-0.00783989,17136,0,0,0,0,12282,0,0,0,0,2,-0.0102853
13954,-3.21168e-12,2.48117e-38,-1.53642e-06,-3.27738e-12,2.48093e-38,0,-1.06615e-13,0,0,-3.65097,0.111196,0.75859,-0.438082,0.00668578,0.0341755,-0.00775392,0,-0.601827,0.111196,249,-80,249,-80,370,-103,244,33,-0.00354062,-0.0872664,0,-1.5,3.94113e+12,0,0,0,-0.438082,0.00668578,0,0,0,0,0.0341755,-0.00775392,17136,0,0,0,0,12282,0,0,0,0,2,-0.0100287
13971,-3.21168e-12,2.48117e-38,-1.53642e-06,-3.27738e-12,2.48093e-38,0,-1.06615e-13,0,0,-3.65097,0.111196,0.75859,-0.437505,0.00655471,0.0338859,-0.0076882,0,-0.601827,0.111196,249,-80,249,-80,370,-103,244,33,-0.00335903,-0.0872664,0,-1.5,3.94113e+12,0,0,0,-0.437505,0.00655471,0,0,0,0,0.0338859,-0.0076882,17136,0,0,0,0,12282,0,0,0,0,2,-0.00983206
14008,-3.21168e-12,2.48117e-38,-1.53642e-06,-3.27738e-12,2.48093e-38,0,-1.06616e-13,0,0,-3.65097,0.111196,0.75859,-0.43627,0.00627452,0.0332611,-0.00754646,0,-0.601827,0.111196,249,-80,249,-80,370,-103,244,33,-0.00297248,-0.0872664,0,-1.5,3.94113e+12,0,0,0,-0.43627,0.00627452,0,0,0,0,0.0332611,-0.00754646,17136,0,0,0,0,12282,0,0,0,0,2,-0.00941178
14025,-3.21168e-12,2.48117e-38,-1.53642e-06,-3.27738e-12,2.48093e-38,0,-1.06616e-13,0,0,-3.65097,0.111196,0.75859,-0.435707,0.00614696,0.0329792,-0.00748249,0,-0.601827,0.111196,249,-80,249,-80,370,-103,244,33,-0.00279575,-0.0872664,0,-1.5,3.94113e+12,0,0,0,-0.435707,0.00614696,0,0,0,0,0.0329792,-0.00748249,17136,0,0,0,0,12282,0,0,0,0,2,-0.00922044
14045,-3.21168e-12,2.48117e-38,-1.53642e-06,-3.27738e-12,2.48093e-38,0,-1.06616e-13,0,0,-3.65097,0.111196,0.75859,-0.435052,0.00599832,0.0326505,-0.00740791,0,-0.601827,0.111196,249,-80,249,-80,370,-103,244,33,-0.0025899,-0.0872664,0,-1.5,3.94113e+12,0,0,0,-0.435052,0.00599832,0,0,0,0,0.0326505,-0.00740791,17136,0,0,0,0,12282,0,0,0,0,2,-0.00899748
14085,-3.21168e-12,2.48117e-38,-1.53642e-06,-3.27738e-12,2.48093e-38,0,-1.06616e-13,0,0,-3.65097,0.111196,0.75859,-0.433767,0.00570678,0.032,-0.00726032,0,-0.601827,0.111196,249,-80,249,-80,370,-103,244,33,-0.00218782,-0.0872664,0,-1.5,3.94113e+12,0,0,0,-0.433767,0.00570678,0,0,0,0,0.032,-0.00726032,17136,0,0,0,0,12282,0,0,0,0,2,-0.00856018
14102,-3.21168e-12,2.48117e-38,-1.53642e-06,-3.27738e-12,2.48093e-38,0,-1.06617e-13,0,0,-3.65097,0.111196,0.75859,-0.433258,0.00559123,0.0317447,-0.0072024,0,-0.601827,0.111196,249,-80,249,-80,370,-103,244,33,-0.0020277,-0.0872664,0,-1.5,3.94113e+12,0,0,0,-0.433258,0.00559123,0,0,0,0,0.0317447,-0.0072024,17136,0,0,0,0,12282,0,0,0,0,2,-0.00838684
14124,-3.21168e-12,2.48117e-38,-1.53642e-06,-3.27738e-12,2.48093e-38,0,-1.06617e-13,0,0,-3.65097,0.111196,0.75859,-0.432534,0.00542691,0.0313809,-0.00711985,0,-0.601827,0.111196,249,-80,249,-80,370,-103,244,33,-0.00180027,-0.0872664,0,-1.5,3.94113e+12,0,0,0,-0.432534,0.00542691,0,0,0,0,0.0313809,-0.00711985,17136,0,0,0,0,12282,0,0,0,0,2,-0.00814037
14141,-3.21168e-12,2.48117e-38,-1.53642e-06,-3.27738e-12,2.48093e-38,0,-1.06617e-13,0,0,-3.65097,0.111196,0.75859,-0.432034,0.00531359,0.0311305,-0.00706305,0,-0.601827,0.111196,249,-80,249,-80,370,-103,244,33,-0.00164324,-0.0872664,0,-1.5,3.94113e+12,0,0,0,-0.432034,0.00531359,0,0,0,0,0.0311305,-0.00706305,17136,0,0,0,0,12282,0,0,0,0,2,-0.00797039
14158,-3.21168e-12,2.48117e-38,-1.53642e-06,-3.27738e-12,2.48093e-38,0,-1.06618e-13,0,0,-3.65097,0.111196,0.75859,-0.431477,0.00518721,0.0308512,-0.00699968,0,-0.601827,0.111196,249,-80,249,-80,370,-103,244,33,-0.00146815,-0.0872664,0,-1.5,3.94113e+12,0,0,0,-0.431477,0.00518721,0,0,0,0,0.0308512,-0.00699968,17136,0,0,0,0,12282,0,0,0,0,2,-0.00778082
14198,-3.21168e-12,2.48117e-38,-1.53642e-06,-3.27738e-12,2.48093e-38,0,-1.06618e-13,0,0,-3.65097,0.111196,0.75859,-0.430263,0.00491174,0.0302366,-0.00686022,0,-0.601827,0.111196,249,-80,249,-80,370,-103,244,33,-0.00108823,-0.0872664,0,-1.5,3.94113e+12,0,0,0,-0.430263,0.00491174,0,0,0,0,0.0302366,-0.00686022,17136,0,0,0,0,12282,0,0,0,0,2,-0.00736761
14215,-3.21168e-12,2.48117e-38,-1.53642e-06,-3.27738e-12,2.48093e-38,0,-1.06618e-13,0,0,-3.65097,0.111196,0.75859,-0.429752,0.00479576,0.0299803,-0.00680208,0,-0.601827,0.111196,249,-80,249,-80,370,-103,244,33,-0.000927521,-0.0872664,0,-1.5,3.94113e+12,0,0,0,-0.429752,0.00479576,0,0,0,0,0.0299803,-0.00680208,17136,0,0,0,0,12282,0,0,0,0,2,-0.00719363
14232,-3.21168e-12,2.48117e-38,-1.53642e-06,-3.27738e-12,2.48093e-38,0,-1.06618e-13,0,0,-3.65097,0.111196,0.75859,-0.429275,0.00468749,0.0297411,-0.00674782,0,-0.601827,0.111196,249,-80,249,-80,370,-103,244,33,-0.000777506,-0.0872664,0,-1.5,3.94113e+12,0,0,0,-0.429275,0.00468749,0,0,0,0,0.0297411,-0.00674782,17136,0,0,0,0,12282,0,0,0,0,2,-0.00703124
14271,-3.21168e-12,2.48117e-38,-1.53642e-06,-3.27738e-12,2.48093e-38,0,-1.06619e-13,0,0,-3.63071,0.099647,0.417488,-0.428105,0.00442203,0.0291484,-0.00661333,0,-0.574072,0.099647,247,-59,247,-59,374,-52,246,64,-0.000411521,-0.0872664,0,-1.5,3.94113e+12,0,0,0,-0.428105,0.00442203,0,0,0,0,0.0291484,-0.00661333,16896,0,0,0,0,14263,0,0,0,0,2,-0.00663305
14289,-3.21168e-12,2.48117e-38,-1.53642e-06,-3.27738e-12,2.48093e-38,0,-1.06619e-13,0,0,-3.65392,0.115573,0.457479,-0.427583,0.00430369,0.0288869,-0.006554,0,-0.605871,0.115573,246,-59,246,-59,370,-58,245,65,-0.000247576,-0.0872664,0,-1.5,3.94113e+12,0,0,0,-0.427583,0.00430369,0,0,0,0,0.0288869,-0.006554,15625,0,0,0,0,14280,0,0,0,0,2,-0.00645554
14305,-3.21168e-12,2.48117e-38,-1.53642e-06,-3.27738e-12,2.48093e-38,0,-1.06619e-13,0,0,-3.65392,0.115573,0.457479,-0.427124,0.00419938,0.0286564,-0.00650171,0,-0.605871,0.115573,246,-59,246,-59,370,-58,245,65,-0.000103032,-0.0872664,0,-1.5,3.94113e+12,0,0,0,-0.427124,0.00419938,0,0,0,0,0.0286564,-0.00650171,15625,0,0,0,0,14280,0,0,0,0,2,-0.00629907
14358,-3.21168e-12,2.48117e-38,-1.53642e-06,-3.27738e-12,2.48093e-38,0,-1.06619e-13,0,0,-3.66706,0.0991096,0.480438,-0.42564,0.00386267,0.0278998,-0.00633004,0,-0.623877,0.0991096,250,-63,250,-63,372,-58,246,61,0.000359763,-0.0872664,0,-1.5,3.94113e+12,0,0,0,-0.42564,0.00386267,0,0,0,0,0.0278998,-0.00633004,16380,0,0,0,0,14350,0,0,0,0,2,-0.005794
14372,-3.21168e-12,2.48117e-38,-1.53642e-06,-3.27738e-12,2.48093e-38,0,-1.0662e-13,0,0,-3.66706,0.0991096,0.480438,-0.425251,0.00377444,0.027705,-0.00628584,0,-0.623877,0.0991096,250,-63,250,-63,372,-58,246,61,0.000482052,-0.0872664,0,-1.5,3.94113e+12,0,0,0,-0.425251,0.00377444,0,0,0,0,0.027705,-0.00628584,16380,0,0,0,0,14350,0,0,0,0,2,-0.00566166
14392,-3.21168e-12,2.48117e-38,-1.53642e-06,-3.27738e-12,2.48093e-38,0,-1.0662e-13,0,0,-3.60713,0.114859,0.42595,-0.4247,0.00364954,0.0274289,-0.0062232,0,-0.541761,0.114859,249,-59,249,-59,370,-60,242,69,-0.225654,-0.0872664,0,-1.5,3.94113e+12,0,0,0,-0.535358,0.11479,0,0,0,0,0.582055,-0.00631057,16512,-0.116759,0.111141,0.554626,-8.73675e-05,14383,0,0,0,0,2,-0.172185
14413,-3.21168e-12,2.48117e-38,-1.53642e-06,-3.27738e-12,2.48093e-38,0,-1.0662e-13,0,0,-3.60713,0.114859,0.42595,-0.424128,0.00351982,0.0271418,-0.00615806,0,-0.541761,0.114859,249,-59,249,-59,370,-60,242,69,-0.22547,-0.0872664,0,-1.5,3.94113e+12,0,0,0,-0.52314,0.114658,0,0,0,0,0.581768,-0.00624543,16512,-0.116759,0.111141,0.554626,-8.73675e-05,14383,0,0,0,0,2,-0.171987
14433,-3.21168e-12,2.48117e-38,-1.53642e-06,-3.27738e-12,2.48093e-38,0,-1.06621e-13,0,0,-3.60218,0.112768,0.441219,-0.423589,0.0033975,0.0268712,-0.00609668,0,-0.53499,0.112768,247,-63,247,-63,370,-58,242,62,-0.2036,-0.0872664,0,-1.5,3.94113e+12,0,0,0,-0.525027,0.112378,0,0,0,0,0.498045,-0.019495,16640,-0.110861,0.109248,0.471174,-0.0133983,14422,0,0,0,0,2,-0.168567
14453,-3.21168e-12,2.48117e-38,-1.53642e-06,-3.27738e-12,2.48093e-38,0,-1.06621e-13,0,0,-3.63713,0.10867,0.463287,-0.423055,0.00327635,0.0266034,-0.00603592,0,-0.582875,0.10867,247,-59,247,-59,372,-62,245,62,-0.202886,-0.0872664,0,-1.5,3.94113e+12,0,0,0,-0.51507,0.111989,0,0,0,0,0.497777,-0.0194343,16256,-0.0971977,0.10886,0.471173,-0.0133984,14444,0,0,0,0,2,-0.167983
14470,-3.21168e-12,2.48117e-38,-1.53642e-06,-3.27738e-12,2.48093e-38,0,-1.06621e-13,0,0,-3.63713,0.10867,0.463287,-0.422606,0.0031743,0.026378,-0.00598477,0,-0.582875,0.10867,247,-59,247,-59,372,-62,245,62,-0.202281,-0.0872664,0,-1.5,3.94113e+12,0,0,0,-0.506611,0.111659,0,0,0,0,0.497551,-0.0193831,16256,-0.0971977,0.10886,0.471173,-0.0133984,14444,0,0,0,0,2,-0.167489
14494,-3.21168e-12,2.48117e-38,-1.53642e-06,-3.27738e-12,2.48093e-38,0,-1.06621e-13,0,0,-3.67563,0.107561,0.485468,-0.421978,0.00303194,0.0260625,-0.00591318,0,-0.635619,0.107561,250,-59,250,-59,370,-62,245,62,-0.165305,-0.0872664,0,-1.5,3.94113e+12,0,0,0,-0.575958,0.106603,0,0,0,0,0.132732,-0.0399035,16000,-0.15654,0.104387,0.10667,-0.0339903,14483,0,0,0,0,2,-0.159905
14511,-3.21168e-12,2.48117e-38,-1.53642e-06,-3.27738e-12,2.48093e-38,0,-1.06622e-13,0,0,-3.67563,0.107561,0.485468,-0.421537,0.00293196,0.0258416,-0.00586307,0,-0.635619,0.107561,250,-59,250,-59,370,-62,245,62,-0.163989,-0.0872664,0,-1.5,3.94113e+12,0,0,0,-0.573704,0.105925,0,0,0,0,0.132511,-0.0398533,16000,-0.15654,0.104387,0.10667,-0.0339903,14483,0,0,0,0,2,-0.158888
14531,-3.21168e-12,2.48117e-38,-1.53642e-06,-3.27738e-12,2.48093e-38,0,-1.06622e-13,0,0,-3.6368,0.112744,0.46749,-0.421024,0.0028155,0.025584,-0.00580463,0,-0.582417,0.112744,249,-61,249,-61,370,-62,243,62,-0.200119,-0.0872664,0,-1.5,3.94113e+12,0,0,0,-0.580496,0.110483,0,0,0,0,0.0959476,-0.0192029,16256,-0.16088,0.107935,0.0703636,-0.0133983,14520,0,0,0,0,2,-0.165724
14548,-3.21168e-12,2.48117e-38,-1.53642e-06,-3.27738e-12,2.48093e-38,0,-1.06622e-13,0,0,-3.6368,0.112744,0.46749,-0.420592,0.00271736,0.0253672,-0.00575544,0,-0.582417,0.112744,249,-61,249,-61,370,-62,243,62,-0.199519,-0.0872664,0,-1.5,3.94113e+12,0,0,0,-0.578868,0.110157,0,0,0,0,0.0957308,-0.0191537,16256,-0.16088,0.107935,0.0703636,-0.0133983,14520,0,0,0,0,2,-0.165236
14572,-3.21168e-12,2.48117e-38,-1.53642e-06,-3.27738e-12,2.48093e-38,0,-1.06625e-13,0,0,-3.58354,0.114695,0.434522,-0.419988,0.00258045,0.0250638,-0.00568659,0,-0.509448,0.114695,246,-63,246,-63,372,-60,242,62,-0.220062,-0.0872664,0,-1.5,3.94113e+12,0,0,0,-0.573373,0.111985,0,0,0,0,0.102341,-0.0062165,16900,-0.155239,0.109417,0.0772768,-0.000529904,14560,0,0,0,0,2,-0.167978
14590,-3.21168e-12,2.48117e-38,-1.53642e-06,-3.27738e-12,2.48093e-38,0,-1.06625e-13,0,0,-3.54443,0.121423,0.422449,-0.41954,0.00247867,0.0248389,-0.00563558,0,-0.455873,0.121423,243,-63,243,-63,372,-64,242,65,-0.248448,-0.0872664,0,-1.5,3.94113e+12,0,0,0,-0.50275,0.114538,0,0,0,0,0.323521,0.0116176,16770,-0.0855999,0.111922,0.298682,0.0172532,14584,0,0,0,0,2,-0.171808
14607,-3.21168e-12,2.48117e-38,-1.53642e-06,-3.27738e-12,2.48093e-38,0,-1.06622e-13,0,0,-3.54443,0.121423,0.422449,-0.41912,0.00238339,0.0246284,-0.00558782,0,-0.455873,0.121423,243,-63,243,-63,372,-64,242,65,-0.248914,-0.0872664,0,-1.5,3.94113e+12,0,0,0,-0.497253,0.114736,0,0,0,0,0.323311,0.0116654,16770,-0.0855999,0.111922,0.298682,0.0172532,14584,0,0,0,0,2,-0.172105
14663,-3.21168e-12,2.48117e-38,-1.53642e-06,-3.27738e-12,2.48093e-38,0,-1.06623e-13,0,0,-3.61241,0.110925,0.458346,-0.417773,0.00207796,0.0239416,-0.005432,0,-0.549003,0.110925,247,-64,247,-64,373,-58,242,61,-0.217928,-0.0872664,0,-1.5,3.94113e+12,0,0,0,-0.531457,0.11154,0,0,0,0,0.191378,-0.00716122,16768,-0.12306,0.109559,0.167437,-0.00172922,14651,0,0,0,0,2,-0.167311
14684,-3.21168e-12,2.48117e-38,-1.53642e-06,-3.27738e-12,2.48093e-38,0,-1.06623e-13,0,0,-3.61037,0.128322,0.463556,-0.417274,0.00196466,0.0236912,-0.00537518,0,-0.546212,0.128322,243,-66,243,-66,369,-58,242,61,-0.256765,-0.0872664,0,-1.5,3.94113e+12,0,0,0,-0.542132,0.116704,0,0,0,0,0.154087,0.014621,16383,-0.125902,0.11458,0.130396,0.0199962,14678,0,0,0,0,2,-0.175056
14722,-3.21168e-12,2.48117e-38,-1.53642e-06,-3.27738e-12,2.48093e-38,0,-1.06624e-13,0,0,-3.60297,0.117494,0.453092,-0.416387,0.00176331,0.0232432,-0.00527353,0,-0.53607,0.117494,244,-63,244,-63,373,-58,242,61,-0.260044,-0.0872664,0,-1.5,3.94113e+12,0,0,0,-0.535372,0.117506,0,0,0,0,0.152204,0.0158872,16506,-0.120017,0.115573,0.128961,0.0211608,14716,0,0,0,0,2,-0.176259
14739,-3.21168e-12,2.48117e-38,-1.53642e-06,-3.27738e-12,2.48093e-38,0,-1.06623e-13,0,0,-3.60297,0.117494,0.453092,-0.415994,0.00167417,0.0230462,-0.00522883,0,-0.53607,0.117494,244,-63,244,-63,373,-58,242,61,-0.260654,-0.0872664,0,-1.5,3.94113e+12,0,0,0,-0.532787,0.117777,0,0,0,0,0.152007,0.0159319,16506,-0.120017,0.115573,0.128961,0.0211608,14716,0,0,0,0,2,-0.176665
14818,-3.21168e-12,2.48117e-38,-1.53642e-06,-3.27738e-12,2.48093e-38,0,-1.06624e-13,0,0,-3.66961,0.109235,0.499918,-0.414235,0.00127517,0.0221407,-0.0050234,0,-0.627372,0.109235,249,-63,249,-63,370,-62,245,61,-0.264477,-0.0872664,0,-1.5,3.94113e+12,0,0,0,-0.5157,0.118894,0,0,0,0,0.159902,0.0171214,15750,-0.102567,0.117442,0.137762,0.0221448,14812,0,0,0,0,2,-0.178341
14836,-3.21168e-12,2.48117e-38,-1.53642e-06,-3.27738e-12,2.48093e-38,0,-1.06624e-13,0,0,-3.66961,0.109235,0.499918,-0.413861,0.00119026,0.0219531,-0.00498082,0,-0.627372,0.109235,249,-63,249,-63,370,-62,245,61,-0.265126,-0.0872664,0,-1.5,3.94113e+12,0,0,0,-0.512984,0.119186,0,0,0,0,0.159715,0.017164,15750,-0.102567,0.117442,0.137762,0.0221448,14812,0,0,0,0,2,-0.178778
14857,-3.21168e-12,2.48117e-38,-1.53642e-06,-3.27738e-12,2.48093e-38,0,-1.06628e-13,0,0,-3.63356,0.108112,0.479176,-0.413381,0.00108152,0.0217124,-0.00492622,0,-0.577979,0.108112,249,-63,249,-63,372,-62,243,61,-0.222241,-0.0872664,0,-1.5,3.94113e+12,0,0,0,-0.515636,0.111392,0,0,0,0,0.153947,-0.00361041,16254,-0.105164,0.110281,0.132235,0.0013158,14844,0,0,0,0,2,-0.167088
14878,-3.21168e-12,2.48117e-38,-1.53642e-06,-3.27738e-12,2.48093e-38,0,-1.06625e-13,0,0,-3.63356,0.108112,0.479176,-0.412929,0.000978812,0.0214852,-0.00487466,0,-0.577979,0.108112,249,-63,249,-63,372,-62,243,61,-0.222155,-0.0872664,0,-1.5,3.94113e+12,0,0,0,-0.512407,0.111317,0,0,0,0,0.15372,-0.00355886,16254,-0.105164,0.110281,0.132235,0.0013158,14844,0,0,0,0,2,-0.166975
14899,-3.21168e-12,2.48117e-38,-1.53642e-06,-3.27738e-12,2.48093e-38,0,-1.06628e-13,0,0,-3.59745,0.113337,0.458038,-0.412481,0.000877206,0.0212603,-0.00482363,0,-0.528507,0.113337,247,-64,247,-64,372,-62,242,61,-0.232568,-0.0872664,0,-1.5,3.94113e+12,0,0,0,-0.523458,0.11326,0,0,0,0,0.118853,0.0014056,16640,-0.113027,0.112252,0.097593,0.00622924,14887,0,0,0,0,2,-0.16989
14914,-3.21168e-12,2.48117e-38,-1.53642e-06,-3.27738e-12,2.48093e-38,0,-1.06628e-13,0,0,-3.59745,0.113337,0.458038,-0.412164,0.000805191,0.0211013,-0.00478756,0,-0.528507,0.113337,247,-64,247,-64,372,-62,242,61,-0.232658,-0.0872664,0,-1.5,3.94113e+12,0,0,0,-0.521677,0.113281,0,0,0,0,0.118694,0.00144168,16640,-0.113027,0.112252,0.097593,0.00622924,14887,0,0,0,0,2,-0.169922
14935,-3.21168e-12,2.48117e-38,-1.53642e-06,-3.27738e-12,2.48093e-38,0,-1.06629e-13,0,0,-3.58665,0.114386,0.446836,-0.411745,0.000710109,0.0208909,-0.00473983,0,-0.513709,0.114386,249,-63,249,-63,368,-65,242,66,-0.234199,-0.0872664,0,-1.5,3.94113e+12,0,0,0,-0.511614,0.113599,0,0,0,0,0.135919,0.00212831,16637,-0.10217,0.112752,0.115028,0.00686814,14922,0,0,0,0,2,-0.170399
14960,-3.21168e-12,2.48117e-38,-1.53642e-06,-3.27738e-12,2.48093e-38,0,-1.06627e-13,0,0,-3.55342,0.124195,0.427533,-0.411207,0.000588077,0.0206202,-0.00467841,0,-0.468183,0.124195,244,-63,244,-63,368,-65,242,66,-0.242172,-0.0872664,0,-1.5,3.94113e+12,0,0,0,-0.503428,0.115392,0,0,0,0,0.141449,0.00545217,16637,-0.0953632,0.11454,0.120829,0.0101306,14948,0,0,0,0,2,-0.173088
14982,-3.21168e-12,2.48117e-38,-1.53642e-06,-3.27738e-12,2.48093e-38,0,-1.0663e-13,0,0,-3.55342,0.124195,0.427533,-0.410756,0.000485882,0.0203942,-0.00462714,0,-0.468183,0.124195,244,-63,244,-63,368,-65,242,66,-0.264347,-0.0872664,0,-1.5,3.94113e+12,0,0,0,-0.504675,0.120583,0,0,0,0,0.135398,0.0143747,16637,-0.0947238,0.119964,0.115003,0.0190019,14977,0,0,0,0,2,-0.180875
14999,-3.21168e-12,2.48117e-38,-1.53642e-06,-3.27738e-12,2.48093e-38,0,-1.06629e-13,0,0,-3.55342,0.124195,0.427533,-0.410411,0.000407653,0.0202214,-0.00458793,0,-0.468183,0.124195,244,-63,244,-63,368,-65,242,66,-0.264897,-0.0872664,0,-1.5,3.94113e+12,0,0,0,-0.502375,0.120828,0,0,0,0,0.135225,0.0144139,16637,-0.0947238,0.119964,0.115003,0.0190019,14977,0,0,0,0,2,-0.181242
15155,-3.21168e-12,2.48117e-38,-1.53642e-06,-3.27738e-12,2.48093e-38,0,-1.06629e-13,0,0,-3.57552,0.11915,0.44958,-0.407497,-0.00025368,0.0186652,-0.00423485,0,-0.498466,0.11915,244,-65,244,-65,373,-62,242,61,-0.261271,-0.0872664,0,-1.5,3.94113e+12,0,0,0,-0.474475,0.120878,0,0,0,0,0.145294,0.0115458,16768,-0.0847067,0.118923,0.126629,0.0157806,15016,0,0,0,0,2,-0.181318
15179,-3.21168e-12,2.48117e-38,-1.53642e-06,-3.27738e-12,2.48093e-38,0,-1.06629e-13,0,0,-3.65353,0.119204,0.482251,-0.407034,-0.000358567,0.0184326,-0.00418208,0,-0.60534,0.119204,246,-63,246,-63,370,-58,243,61,-0.258036,-0.0872664,0,-1.5,3.94113e+12,0,0,0,-0.474236,0.12006,0,0,0,0,0.138355,0.0103392,16002,-0.0701997,0.120056,0.119922,0.0145213,15166,0,0,0,0,2,-0.180091
15201,-3.21168e-12,2.48117e-38,-1.53642e-06,-3.27738e-12,2.48093e-38,0,-1.06627e-13,0,0,-3.61965,0.120946,0.471139,-0.40665,-0.000445737,0.0182396,-0.0041383,0,-0.558918,0.120946,246,-63,246,-63,370,-62,242,61,-0.259762,-0.0872664,0,-1.5,3.94113e+12,0,0,0,-0.474546,0.120606,0,0,0,0,0.131051,0.0108121,16128,-0.0702649,0.120737,0.112812,0.0149504,15188,0,0,0,0,2,-0.180908
15217,-3.21168e-12,2.48117e-38,-1.53642e-06,-3.27738e-12,2.48093e-38,0,-1.06625e-13,0,0,-3.61965,0.120946,0.471139,-0.406342,-0.000515689,0.018085,-0.00410322,0,-0.558918,0.120946,246,-63,246,-63,370,-62,242,61,-0.260182,-0.0872664,0,-1.5,3.94113e+12,0,0,0,-0.47232,0.12079,0,0,0,0,0.130897,0.0108472,16128,-0.0702649,0.120737,0.112812,0.0149504,15188,0,0,0,0,2,-0.181185
15234,-3.21168e-12,2.48117e-38,-1.53642e-06,-3.27738e-12,2.48093e-38,0,-1.06626e-13,0,0,-3.61965,0.120946,0.471139,-0.406054,-0.000580997,0.0179408,-0.00407049,0,-0.558918,0.120946,246,-63,246,-63,370,-62,242,61,-0.260579,-0.0872664,0,-1.5,3.94113e+12,0,0,0,-0.470227,0.120964,0,0,0,0,0.130752,0.0108799,16128,-0.0702649,0.120737,0.112812,0.0149504,15188,0,0,0,0,2,-0.181446
15255,-3.21168e-12,2.48117e-38,-1.53642e-06,-3.27738e-12,2.48093e-38,0,-1.06626e-13,0,0,-3.5843,0.116453,0.444115,-0.405662,-0.000669912,0.0177442,-0.00402589,0,-0.510493,0.116453,244,-65,244,-65,373,-58,242,61,-0.260211,-0.0872664,0,-1.5,3.94113e+12,0,0,0,-0.504682,0.120931,0,0,0,0,0.067696,0.0106481,16899,-0.0993692,0.121498,0.0499518,0.014674,15251,0,0,0,0,2,-0.181396
15269,-3.21168e-12,2.48117e-38,-1.53642e-06,-3.27738e-12,2.48093e-38,0,-1.06626e-13,0,0,-3.5843,0.116453,0.444115,-0.405415,-0.000726031,0.0176203,-0.00399778,0,-0.510493,0.116453,244,-65,244,-65,373,-58,242,61,-0.260552,-0.0872664,0,-1.5,3.94113e+12,0,0,0,-0.503735,0.12108,0,0,0,0,0.0675721,0.0106762,16899,-0.0993692,0.121498,0.0499518,0.014674,15251,0,0,0,0,2,-0.18162
15291,-3.21168e-12,2.48117e-38,-1.53642e-06,-3.27738e-12,2.48093e-38,0,-1.0663e-13,0,0,-3.53886,0.120837,0.430013,-0.405047,-0.000809416,0.017436,-0.00395596,0,-0.448236,0.120837,243,-65,243,-65,370,-65,242,63,-0.25902,-0.0872664,0,-1.5,3.94113e+12,0,0,0,-0.458912,0.12066,0,0,0,0,0.138479,0.0101556,16384,-0.0548332,0.121357,0.121043,0.0141116,15284,0,0,0,0,2,-0.180991
15312,-3.21168e-12,2.48117e-38,-1.53642e-06,-3.27738e-12,2.48093e-38,0,-1.06627e-13,0,0,-3.53886,0.120837,0.430013,-0.404684,-0.000891873,0.0172535,-0.00391455,0,-0.448236,0.120837,243,-65,243,-65,370,-65,242,63,-0.259509,-0.0872664,0,-1.5,3.94113e+12,0,0,0,-0.456007,0.120874,0,0,0,0,0.138297,0.010197,16384,-0.0548332,0.121357,0.121043,0.0141116,15284,0,0,0,0,2,-0.181311
15357,-3.21168e-12,2.48117e-38,-1.53642e-06,-3.27738e-12,2.48093e-38,0,-1.0663e-13,0,0,-3.64477,0.113999,0.483586,-0.403921,-0.00106499,0.0168673,-0.00382693,0,-0.593328,0.113999,249,-66,249,-66,370,-58,242,61,-0.258587,-0.0872664,0,-1.5,3.94113e+12,0,0,0,-0.504732,0.121047,0,0,0,0,0.0555187,0.00921798,16512,-0.101313,0.121942,0.0386515,0.0130449,15346,0,0,0,0,2,-0.18157
15374,-3.21168e-12,2.48117e-38,-1.53642e-06,-3.27738e-12,2.48093e-38,0,-1.06631e-13,0,0,-3.64477,0.113999,0.483586,-0.403619,-0.00113347,0.0167159,-0.00379259,0,-0.593328,0.113999,249,-66,249,-66,370,-58,242,61,-0.258971,-0.0872664,0,-1.5,3.94113e+12,0,0,0,-0.503734,0.121213,0,0,0,0,0.0553674,0.00925231,16512,-0.101313,0.121942,0.0386515,0.0130449,15346,0,0,0,0,2,-0.181819
15396,-3.21168e-12,2.48117e-38,-1.53642e-06,-3.27738e-12,2.48093e-38,0,-1.06631e-13,0,0,-3.63197,0.110112,0.480385,-0.403254,-0.00121632,0.0165328,-0.00375104,0,-0.575798,0.110112,250,-64,250,-64,372,-62,242,61,-0.246302,-0.0872664,0,-1.5,3.94113e+12,0,0,0,-0.510589,0.117245,0,0,0,0,0.0456311,0.00572447,16510,-0.107714,0.118339,0.0290983,0.00947551,15385,0,0,0,0,2,-0.175868
15458,-3.21168e-12,2.48117e-38,-1.53642e-06,-3.27738e-12,2.48093e-38,0,-1.06631e-13,0,0,-3.59745,0.113337,0.458038,-0.402254,-0.00144306,0.0160233,-0.00363545,0,-0.528507,0.113337,247,-64,247,-64,372,-62,242,61,-0.2335,-0.0872664,0,-1.5,3.94113e+12,0,0,0,-0.528422,0.114247,0,0,0,0,0.0186044,0.00057583,16640,-0.12619,0.115652,0.00258111,0.00421128,15451,0,0,0,0,2,-0.17137
15475,-3.21168e-12,2.48117e-38,-1.53642e-06,-3.27738e-12,2.48093e-38,0,-1.06631e-13,0,0,-3.59745,0.113337,0.458038,-0.401984,-0.00150451,0.0158875,-0.00360464,0,-0.528507,0.113337,247,-64,247,-64,372,-62,242,61,-0.233561,-0.0872664,0,-1.5,3.94113e+12,0,0,0,-0.528107,0.114257,0,0,0,0,0.0184686,0.000606644,16640,-0.12619,0.115652,0.00258111,0.00421128,15451,0,0,0,0,2,-0.171386
15498,-3.21168e-12,2.48117e-38,-1.53642e-06,-3.27738e-12,2.48093e-38,0,-1.06632e-13,0,0,-3.61965,0.120946,0.471139,-0.401621,-0.00158675,0.0157054,-0.00356332,0,-0.558918,0.120946,246,-63,246,-63,370,-62,242,61,-0.246827,-0.0872664,0,-1.5,3.94113e+12,0,0,0,-0.528737,0.117694,0,0,0,0,0.0150455,0.00542474,16128,-0.127101,0.119074,-0.000659896,0.00898806,15484,0,0,0,0,2,-0.176541
15515,-3.21168e-12,2.48117e-38,-1.53642e-06,-3.27738e-12,2.48093e-38,0,-1.06632e-13,0,0,-3.61965,0.120946,0.471139,-0.401356,-0.00164699,0.0155723,-0.00353312,0,-0.558918,0.120946,246,-63,246,-63,370,-62,242,61,-0.247054,-0.0872664,0,-1.5,3.94113e+12,0,0,0,-0.528483,0.117787,0,0,0,0,0.0149124,0.00545494,16128,-0.127101,0.119074,-0.000659896,0.00898806,15484,0,0,0,0,2,-0.17668
15626,-3.21168e-12,2.48117e-38,-1.53642e-06,-3.27738e-12,2.48093e-38,0,-1.06632e-13,0,0,-3.62406,0.10765,0.475854,-0.399716,-0.00201908,0.0147117,-0.00333787,0,-0.564967,0.10765,250,-64,250,-64,372,-62,242,61,-0.245023,-0.0872664,0,-1.5,3.94113e+12,0,0,0,-0.558726,0.117285,0,0,0,0,-0.019776,0.00467794,16510,-0.155183,0.118415,-0.0344878,0.00801581,15612,0,0,0,0,2,-0.175928
16142,-3.21168e-12,2.48117e-38,-1.53642e-06,-3.27738e-12,2.48093e-38,0,-1.06632e-13,0,0,-3.60857,0.120086,0.459827,-0.550503,0.121476,-0.0120898,0.00639692,0,-0.543742,0.120086,247,-64,247,-64,369,-62,242,61,-0.255795,-0.0872664,0,-1.5,3.94113e+12,0,0,0,-0.550503,0.121476,0,0,0,0,-0.0120898,0.00639692,16510,0,0,0,0,16128,0,0,0,0,2,-0.182214
16405,-3.21168e-12,2.48117e-38,-1.53642e-06,-3.27738e-12,2.48093e-38,0,-1.06633e-13,0,0,-3.57345,0.123113,0.441516,-0.553268,0.122939,-0.0105122,0.0055622,0,-0.495627,0.123113,244,-65,244,-65,370,-62,242,61,-0.257691,-0.0872664,0,-1.5,3.94113e+12,0,0,0,-0.553268,0.122939,0,0,0,0,-0.0105122,0.0055622,16768,0,0,0,0,16396,0,0,0,0,2,-0.184409
16426,-3.21168e-12,2.48117e-38,-1.53642e-06,-3.27738e-12,2.48093e-38,0,-1.06633e-13,0,0,-3.58441,0.112699,0.445851,-0.553497,0.123061,-0.010397,0.00550121,0,-0.510639,0.112699,247,-64,247,-64,372,-62,242,61,-0.257859,-0.0872664,0,-1.5,3.94113e+12,0,0,0,-0.553497,0.123061,0,0,0,0,-0.010397,0.00550121,16900,0,0,0,0,16418,0,0,0,0,2,-0.184591
16443,-3.21168e-12,2.48117e-38,-1.53642e-06,-3.27738e-12,2.48093e-38,0,-1.06633e-13,0,0,-3.58441,0.112699,0.445851,-0.553673,0.123154,-0.0103088,0.00545459,0,-0.510639,0.112699,247,-64,247,-64,372,-62,242,61,-0.257988,-0.0872664,0,-1.5,3.94113e+12,0,0,0,-0.553673,0.123154,0,0,0,0,-0.0103088,0.00545459,16900,0,0,0,0,16418,0,0,0,0,2,-0.18473
16478,-3.21168e-12,2.48117e-38,-1.53642e-06,-3.27738e-12,2.48093e-38,0,-1.06634e-13,0,0,-3.63395,0.114648,0.477142,-0.554029,0.123342,-0.0101291,0.00535946,0,-0.578517,0.114648,249,-63,249,-63,370,-62,242,61,-0.258247,-0.0872664,0,-1.5,3.94113e+12,0,0,0,-0.554029,0.123342,0,0,0,0,-0.0101291,0.00535946,16256,0,0,0,0,16470,0,0,0,0,2,-0.185013
16502,-3.21168e-12,2.48117e-38,-1.53642e-06,-3.27738e-12,2.48093e-38,0,-1.06634e-13,0,0,-3.60103,0.117553,0.464248,-0.55427,0.123469,-0.0100079,0.00529535,0,-0.533405,0.117553,247,-66,247,-66,370,-62,242,61,-0.327774,-0.0872664,0,-1.5,3.94113e+12,0,0,0,-0.540783,0.119125,0,0,0,0,-0.307376,0.0654502,16640,0.0206233,-0.00578837,-0.297368,0.0601549,16491,0,0,0,0,2,-0.178687
16522,-3.21168e-12,2.48117e-38,-1.53642e-06,-3.27738e-12,2.48093e-38,0,-1.06634e-13,0,0,-3.582,0.112823,0.454797,-0.554468,0.123575,-0.00990811,0.00524256,0,-0.50734,0.112823,249,-66,249,-66,370,-65,242,61,-0.306217,-0.0872664,0,-1.5,3.94113e+12,0,0,0,-0.546929,0.118583,0,0,0,0,-0.307276,0.0497173,16896,0.0134867,-0.00588133,-0.297368,0.0444748,16511,0,0,0,0,2,-0.177874
16539,-3.21168e-12,2.48117e-38,-1.53642e-06,-3.27738e-12,2.48093e-38,0,-1.06634e-13,0,0,-3.582,0.112823,0.454797,-0.554636,0.123663,-0.00982413,0.00519812,0,-0.50734,0.112823,249,-66,249,-66,370,-65,242,61,-0.30788,-0.0872664,0,-1.5,3.94113e+12,0,0,0,-0.552151,0.119427,0,0,0,0,-0.307193,0.0496729,16896,0.0134867,-0.00588133,-0.297368,0.0444748,16511,0,0,0,0,2,-0.179141
16559,-3.21168e-12,2.48117e-38,-1.53642e-06,-3.27738e-12,2.48093e-38,0,-1.06635e-13,0,0,-3.56256,0.118733,0.443448,-0.554831,0.123766,-0.00972618,0.00514629,0,-0.480703,0.118733,246,-66,246,-66,370,-65,242,61,-0.30153,-0.0872664,0,-1.5,3.94113e+12,0,0,0,-0.466302,0.119623,0,0,0,0,0.720117,0.044481,16896,0.0739324,-0.00492971,0.729843,0.0393347,16548,0,0,0,0,2,-0.179435
16580,-3.21168e-12,2.48117e-38,-1.53642e-06,-3.27738e-12,2.48093e-38,0,-1.06635e-13,0,0,-3.56256,0.118733,0.443448,-0.555034,0.123874,-0.00962437,0.00509242,0,-0.480703,0.118733,246,-66,246,-66,370,-65,242,61,-0.303361,-0.0872664,0,-1.5,3.94113e+12,0,0,0,-0.451179,0.120557,0,0,0,0,0.720219,0.0444271,16896,0.0739324,-0.00492971,0.729843,0.0393347,16548,0,0,0,0,2,-0.180835
16600,-3.21168e-12,2.48117e-38,-1.53642e-06,-3.27738e-12,2.48093e-38,0,-1.06635e-13,0,0,-3.55373,0.117536,0.429798,-0.555225,0.123975,-0.00952844,0.00504166,0,-0.46861,0.117536,246,-64,246,-64,369,-65,242,66,-0.267429,-0.0872664,0,-1.5,3.94113e+12,0,0,0,-0.458674,0.117954,0,0,0,0,0.496832,0.0208658,16637,0.0864238,-0.00633745,0.50636,0.0158242,16589,0,0,0,0,2,-0.176931
16614,-3.21168e-12,2.48117e-38,-1.53642e-06,-3.27738e-12,2.48093e-38,0,-1.06635e-13,0,0,-3.55373,0.117536,0.429798,-0.555358,0.124045,-0.00946191,0.00500646,0,-0.46861,0.117536,246,-64,246,-64,369,-65,242,66,-0.267978,-0.0872664,0,-1.5,3.94113e+12,0,0,0,-0.451718,0.118246,0,0,0,0,0.496898,0.0208306,16637,0.0864238,-0.00633745,0.50636,0.0158242,16589,0,0,0,0,2,-0.177368
16635,-3.21168e-12,2.48117e-38,-1.53642e-06,-3.27738e-12,2.48093e-38,0,-1.06636e-13,0,0,-3.57005,0.118851,0.444155,-0.555555,0.124149,-0.00936289,0.00495407,0,-0.490967,0.118851,244,-65,244,-65,372,-62,242,61,-0.274786,-0.0872664,0,-1.5,3.94113e+12,0,0,0,-0.48789,0.119362,0,0,0,0,0.146546,0.0243182,16770,0.0643902,-0.00519414,0.155909,0.0193641,16624,0,0,0,0,2,-0.179043
16666,-3.21168e-12,2.48117e-38,-1.53642e-06,-3.27738e-12,2.48093e-38,0,-1.06638e-13,0,0,-3.58039,0.114039,0.445283,-0.555841,0.124301,-0.00921825,0.00487753,0,-0.505139,0.114039,249,-64,249,-64,368,-65,242,66,-0.273515,-0.0872664,0,-1.5,3.94113e+12,0,0,0,-0.496224,0.11954,0,0,0,0,0.0600883,0.0230613,16637,0.0574692,-0.00532465,0.0693065,0.0181838,16654,0,0,0,0,2,-0.17931
16687,-3.21168e-12,2.48117e-38,-1.53642e-06,-3.27738e-12,2.48093e-38,0,-1.06638e-13,0,0,-3.55111,0.117838,0.43062,-0.556034,0.124403,-0.00912181,0.00482651,0,-0.465023,0.117838,244,-66,244,-66,372,-62,242,61,-0.265989,-0.0872664,0,-1.5,3.94113e+12,0,0,0,-0.469611,0.119085,0,0,0,0,0.201849,0.0179858,17160,0.0851571,-0.00539723,0.210971,0.0131593,16684,0,0,0,0,2,-0.178627
16704,-3.21168e-12,2.48117e-38,-1.53642e-06,-3.27738e-12,2.48093e-38,0,-1.06636e-13,0,0,-3.55111,0.117838,0.43062,-0.556188,0.124484,-0.00904451,0.00478561,0,-0.465023,0.117838,244,-66,244,-66,372,-62,242,61,-0.266557,-0.0872664,0,-1.5,3.94113e+12,0,0,0,-0.466179,0.11939,0,0,0,0,0.201926,0.0179449,17160,0.0851571,-0.00539723,0.210971,0.0131593,16684,0,0,0,0,2,-0.179085
