timestamp,A_x,A_y,A_z,P,Q,R,Phi,Theta,Psi,poseX,poseY,poseZ,state_X,state_Y,state_Z,state_VzB,state_Bx,state_By,state_Bz,p1_x,p1_y,p2_x,p2_y,p3_x,p3_y,p4_x,p4_y,roll,pitch,yaw,alt,targetHeading,highLevelState,lowLevelState,gateNumber,filtered_x,filtered_y,x_OT,y_OT,vx_OT,vy_OT,filtered_vx,filtered_vygateArearansac_corr_x,ransac_corr_y,ransac_corr_vx,ransac_corr_vy,detectionTimeStamppTermX,dTermX,pTermY,dTermY,vxcmd,vycmd
8395,0,0,0,0,0,0,0,0,0,0,0,0,0,0,0,0,0,0,0,0,0,0,0,0,0,0,0,0,-0.174533,0,-1.5,-nan,0,0,0,0,0,0,0,0,0,0,0,1.9603e-19,0,0,0,0,0,0,0,0,0,2,0
8410,0,0,0,0,0,0,0,0,0,0,0,0,0,0,0,0,0,0,0,0,0,0,0,0,0,0,0,0,-0.174533,0,-1.5,-nan,0,0,0,0,0,0,0,0,0,0,0,1.9603e-19,0,0,0,0,0,0,0,0,0,2,0
8947,-3.21172e-12,9.0407e-38,-1.53875e-06,-3.27738e-12,9.04023e-38,0,-1.06589e-13,0,0,0,0,0,0,0,0,0,0,0,0,0,0,0,0,0,0,0,0,0,-0.174533,0,-1.5,-nan,0,0,0,0,0,0,0,0,0,0,0,1.9603e-19,0,0,0,0,0,0,0,0,0,2,0
8963,-3.21172e-12,9.0407e-38,-1.53875e-06,-3.27738e-12,9.04023e-38,0,-1.0659e-13,0,0,0,0,0,0,0,0,0,0,0,0,0,0,0,0,0,0,0,0,0,-0.174533,0,-1.5,-nan,0,0,0,0,0,0,0,0,0,0,0,1.9603e-19,0,0,0,0,0,0,0,0,0,2,0
8979,-3.21172e-12,9.0407e-38,-1.53875e-06,-3.27738e-12,9.04023e-38,0,-1.0659e-13,0,0,0,0,0,0,0,0,0,0,0,0,0,0,0,0,0,0,0,0,0,-0.174533,0,-1.5,-nan,0,0,0,0,0,0,0,0,0,0,0,1.9603e-19,0,0,0,0,0,0,0,0,0,2,0
8995,-3.21172e-12,9.0407e-38,-1.53875e-06,-3.27738e-12,9.04023e-38,0,-1.0659e-13,0,0,0,0,0,0,0,0,0,0,0,0,0,0,0,0,0,0,0,0,0,-0.174533,0,-1.5,-nan,0,0,0,0,0,0,0,0,0,0,0,1.9603e-19,0,0,0,0,0,0,0,0,0,2,0
9011,-3.21172e-12,9.0407e-38,-1.53875e-06,-3.27738e-12,9.04023e-38,0,-1.0659e-13,0,0,0,0,0,0,0,0,0,0,0,0,0,0,0,0,0,0,0,0,0,-0.174533,0,-1.5,-nan,0,0,0,0,0,0,0,0,0,0,0,1.9603e-19,0,0,0,0,0,0,0,0,0,2,0
9026,-3.21172e-12,9.0407e-38,-1.53875e-06,-3.27738e-12,9.04023e-38,0,-1.06591e-13,0,0,0,0,0,0,0,0,0,0,0,0,0,0,0,0,0,0,0,0,0,-0.174533,0,-1.5,-nan,0,0,0,0,0,0,0,0,0,0,0,1.9603e-19,0,0,0,0,0,0,0,0,0,2,0
9042,-3.21172e-12,9.0407e-38,-1.53875e-06,-3.27738e-12,9.04023e-38,0,-1.06591e-13,0,0,0,0,0,0,0,0,0,0,0,0,0,0,0,0,0,0,0,0,0,-0.174533,0,-1.5,-nan,0,0,0,0,0,0,0,0,0,0,0,1.9603e-19,0,0,0,0,0,0,0,0,0,2,0
9058,-3.21172e-12,9.0407e-38,-1.53875e-06,-3.27738e-12,9.04023e-38,0,-1.06591e-13,0,0,0,0,0,0,0,0,0,0,0,0,0,0,0,0,0,0,0,0,0,-0.174533,0,-1.5,-nan,0,0,0,0,0,0,0,0,0,0,0,1.9603e-19,0,0,0,0,0,0,0,0,0,2,0
9074,-3.21172e-12,9.0407e-38,-1.53875e-06,-3.27738e-12,9.04023e-38,0,-1.06591e-13,0,0,0,0,0,0,0,0,0,0,0,0,0,0,0,0,0,0,0,0,0,-0.174533,0,-1.5,-nan,0,0,0,0,0,0,0,0,0,0,0,1.9603e-19,0,0,0,0,0,0,0,0,0,2,0
9090,-3.21172e-12,9.0407e-38,-1.53875e-06,-3.27738e-12,9.04023e-38,0,-1.06592e-13,0,0,0,0,0,0,0,0,0,0,0,0,0,0,0,0,0,0,0,0,0,-0.174533,0,-1.5,-nan,0,0,0,0,0,0,0,0,0,0,0,1.9603e-19,0,0,0,0,0,0,0,0,0,2,0
9106,-3.21172e-12,9.0407e-38,-1.53875e-06,-3.27738e-12,9.04023e-38,0,-1.06592e-13,0,0,0,0,0,0,0,0,0,0,0,0,0,0,0,0,0,0,0,0,0,-0.174533,0,-1.5,-nan,0,0,0,0,0,0,0,0,0,0,0,1.9603e-19,0,0,0,0,0,0,0,0,0,2,0
9122,-3.21172e-12,9.0407e-38,-1.53875e-06,-3.27738e-12,9.04023e-38,0,-1.06592e-13,0,0,0,0,0,0,0,0,0,0,0,0,0,0,0,0,0,0,0,0,0,-0.174533,0,-1.5,-nan,0,0,0,0,0,0,0,0,0,0,0,1.9603e-19,0,0,0,0,0,0,0,0,0,2,0
9138,-3.21172e-12,9.0407e-38,-1.53875e-06,-3.27738e-12,9.04023e-38,0,-1.06593e-13,0,0,0,0,0,0,0,0,0,0,0,0,0,0,0,0,0,0,0,0,0,-0.174533,0,-1.5,-nan,0,0,0,0,0,0,0,0,0,0,0,1.9603e-19,0,0,0,0,0,0,0,0,0,2,0
9155,-3.21172e-12,9.0407e-38,-1.53875e-06,-3.27738e-12,9.04023e-38,0,-1.06593e-13,0,0,0,0,0,0,0,0,0,0,0,0,0,0,0,0,0,0,0,0,0,-0.174533,0,-1.5,-nan,0,0,0,0,0,0,0,0,0,0,0,1.9603e-19,0,0,0,0,0,0,0,0,0,2,0
9226,-3.21172e-12,9.0407e-38,-1.53875e-06,-3.27738e-12,9.04023e-38,0,-1.06593e-13,0,0,0,0,0,0,0,0,0,0,0,0,0,0,0,0,0,0,0,0,0,-0.174533,0,-1.5,-nan,0,0,0,0,0,0,0,0,0,0,0,1.9603e-19,0,0,0,0,0,0,0,0,0,2,0
9242,-3.21172e-12,9.0407e-38,-1.53875e-06,-3.27738e-12,9.04023e-38,0,-1.06593e-13,0,0,0,0,0,0,0,0,0,0,0,0,0,0,0,0,0,0,0,0,0,-0.174533,0,-1.5,-nan,0,0,0,0,0,0,0,0,0,0,0,1.9603e-19,0,0,0,0,0,0,0,0,0,2,0
9258,-3.21172e-12,9.0407e-38,-1.53875e-06,-3.27738e-12,9.04023e-38,0,-1.06594e-13,0,0,0,0,0,0,0,0,0,0,0,0,0,0,0,0,0,0,0,0,0,-0.174533,0,-1.5,-nan,0,0,0,0,0,0,0,0,0,0,0,1.9603e-19,0,0,0,0,0,0,0,0,0,2,0
9275,-3.21172e-12,9.0407e-38,-1.53875e-06,-3.27738e-12,9.04023e-38,0,-1.06594e-13,0,0,0,0,0,0,0,0,0,0,0,0,0,0,0,0,0,0,0,0,0,-0.174533,0,-1.5,-nan,0,0,0,0,0,0,0,0,0,0,0,1.9603e-19,0,0,0,0,0,0,0,0,0,2,0
9300,-3.21172e-12,9.0407e-38,-1.53875e-06,-3.27738e-12,9.04023e-38,0,-1.06594e-13,0,0,0,0,0,0,0,0,0,0,0,0,0,0,0,0,0,0,0,0,0,-0.174533,0,-1.5,-nan,0,0,0,0,0,0,0,0,0,0,0,1.9603e-19,0,0,0,0,0,0,0,0,0,2,0
9313,-3.21172e-12,9.0407e-38,-1.53875e-06,-3.27738e-12,9.04023e-38,0,-1.06594e-13,0,0,0,0,0,0,0,0,0,0,0,0,0,0,0,0,0,0,0,0,0,-0.174533,0,-1.5,-nan,0,0,0,0,0,0,0,0,0,0,0,1.9603e-19,0,0,0,0,0,0,0,0,0,2,0
9328,-3.21172e-12,9.0407e-38,-1.53875e-06,-3.27738e-12,9.04023e-38,0,-1.06595e-13,0,0,0,0,0,0,0,0,0,0,0,0,0,0,0,0,0,0,0,0,0,-0.174533,0,-1.5,-nan,0,0,0,0,0,0,0,0,0,0,0,1.9603e-19,0,0,0,0,0,0,0,0,0,2,0
9344,-3.21172e-12,9.0407e-38,-1.53875e-06,-3.27738e-12,9.04023e-38,0,-1.06595e-13,0,0,0,0,0,0,0,0,0,0,0,0,0,0,0,0,0,0,0,0,0,-0.174533,0,-1.5,-nan,0,0,0,0,0,0,0,0,0,0,0,1.9603e-19,0,0,0,0,0,0,0,0,0,2,0
9359,-3.21172e-12,9.0407e-38,-1.53875e-06,-3.27738e-12,9.04023e-38,0,-1.06595e-13,0,0,0,0,0,0,0,0,0,0,0,0,0,0,0,0,0,0,0,0,0,-0.174533,0,-1.5,-nan,0,0,0,0,0,0,0,0,0,0,0,1.9603e-19,0,0,0,0,0,0,0,0,0,2,0
9376,-3.21172e-12,9.0407e-38,-1.53875e-06,-3.27738e-12,9.04023e-38,0,-1.06596e-13,0,0,0,0,0,0,0,0,0,0,0,0,0,0,0,0,0,0,0,0,0,-0.174533,0,-1.5,-nan,0,0,0,0,0,0,0,0,0,0,0,1.9603e-19,0,0,0,0,0,0,0,0,0,2,0
9392,-3.21172e-12,9.0407e-38,-1.53875e-06,-3.27738e-12,9.04023e-38,0,-1.06596e-13,0,0,0,0,0,0,0,0,0,0,0,0,0,0,0,0,0,0,0,0,0,-0.174533,0,-1.5,-nan,0,0,0,0,0,0,0,0,0,0,0,1.9603e-19,0,0,0,0,0,0,0,0,0,2,0
9408,-3.21172e-12,9.0407e-38,-1.53875e-06,-3.27738e-12,9.04023e-38,0,-1.06596e-13,0,0,0,0,0,0,0,0,0,0,0,0,0,0,0,0,0,0,0,0,0,-0.174533,0,-1.5,-nan,0,0,0,0,0,0,0,0,0,0,0,1.9603e-19,0,0,0,0,0,0,0,0,0,2,0
9424,-3.21172e-12,9.0407e-38,-1.53875e-06,-3.27738e-12,9.04023e-38,0,-1.06596e-13,0,0,0,0,0,0,0,0,0,0,0,0,0,0,0,0,0,0,0,0,0,-0.174533,0,-1.5,-nan,0,0,0,0,0,0,0,0,0,0,0,1.9603e-19,0,0,0,0,0,0,0,0,0,2,0
9440,-3.21172e-12,9.0407e-38,-1.53875e-06,-3.27738e-12,9.04023e-38,0,-1.06597e-13,0,0,0,0,0,0,0,0,0,0,0,0,0,0,0,0,0,0,0,0,0,-0.174533,0,-1.5,-nan,0,0,0,0,0,0,0,0,0,0,0,1.9603e-19,0,0,0,0,0,0,0,0,0,2,0
9457,-3.21172e-12,9.0407e-38,-1.53875e-06,-3.27738e-12,9.04023e-38,0,-1.06597e-13,0,0,0,0,0,0,0,0,0,0,0,0,0,0,0,0,0,0,0,0,0,-0.174533,0,-1.5,-nan,0,0,0,0,0,0,0,0,0,0,0,1.9603e-19,0,0,0,0,0,0,0,0,0,2,0
9473,-3.21172e-12,9.0407e-38,-1.53875e-06,-3.27738e-12,9.04023e-38,0,-1.06597e-13,0,0,0,0,0,0,0,0,0,0,0,0,0,0,0,0,0,0,0,0,0,-0.174533,0,-1.5,-nan,0,0,0,0,0,0,0,0,0,0,0,1.9603e-19,0,0,0,0,0,0,0,0,0,2,0
9489,-3.21172e-12,9.0407e-38,-1.53875e-06,-3.27738e-12,9.04023e-38,0,-1.06597e-13,0,0,0,0,0,0,0,0,0,0,0,0,0,0,0,0,0,0,0,0,0,-0.174533,0,-1.5,-nan,0,0,0,0,0,0,0,0,0,0,0,1.9603e-19,0,0,0,0,0,0,0,0,0,2,0
9504,-3.21172e-12,9.0407e-38,-1.53875e-06,-3.27738e-12,9.04023e-38,0,-1.06598e-13,0,0,0,0,0,0,0,0,0,0,0,0,0,0,0,0,0,0,0,0,0,-0.174533,0,-1.5,-nan,0,0,0,0,0,0,0,0,0,0,0,1.9603e-19,0,0,0,0,0,0,0,0,0,2,0
9520,-3.21172e-12,9.0407e-38,-1.53875e-06,-3.27738e-12,9.04023e-38,0,-1.06598e-13,0,0,0,0,0,0,0,0,0,0,0,0,0,0,0,0,0,0,0,0,0,-0.174533,0,-1.5,-nan,0,0,0,0,0,0,0,0,0,0,0,1.9603e-19,0,0,0,0,0,0,0,0,0,2,0
9537,-3.21172e-12,9.0407e-38,-1.53875e-06,-3.27738e-12,9.04023e-38,0,-1.06598e-13,0,0,0,0,0,0,0,0,0,0,0,0,0,0,0,0,0,0,0,0,0,-0.174533,0,-1.5,-nan,0,0,0,0,0,0,0,0,0,0,0,1.9603e-19,0,0,0,0,0,0,0,0,0,2,0
9553,-3.21172e-12,9.0407e-38,-1.53875e-06,-3.27738e-12,9.04023e-38,0,-1.06599e-13,0,0,0,0,0,0,0,0,0,0,0,0,0,0,0,0,0,0,0,0,0,-0.174533,0,-1.5,-nan,0,0,0,0,0,0,0,0,0,0,0,1.9603e-19,0,0,0,0,0,0,0,0,0,2,0
9569,-3.21172e-12,9.0407e-38,-1.53875e-06,-3.27738e-12,9.04023e-38,0,-1.06599e-13,0,0,0,0,0,0,0,0,0,0,0,0,0,0,0,0,0,0,0,0,0,-0.174533,0,-1.5,-nan,0,0,0,0,0,0,0,0,0,0,0,1.9603e-19,0,0,0,0,0,0,0,0,0,2,0
9585,-3.21172e-12,9.0407e-38,-1.53875e-06,-3.27738e-12,9.04023e-38,0,-1.06599e-13,0,0,0,0,0,0,0,0,0,0,0,0,0,0,0,0,0,0,0,0,0,-0.174533,0,-1.5,-nan,0,0,0,0,0,0,0,0,0,0,0,1.9603e-19,0,0,0,0,0,0,0,0,0,2,0
9601,-3.21172e-12,9.0407e-38,-1.53875e-06,-3.27738e-12,9.04023e-38,0,-1.06599e-13,0,0,0,0,0,0,0,0,0,0,0,0,0,0,0,0,0,0,0,0,0,-0.174533,0,-1.5,-nan,0,0,0,0,0,0,0,0,0,0,0,1.9603e-19,0,0,0,0,0,0,0,0,0,2,0
9618,-3.21172e-12,9.0407e-38,-1.53875e-06,-3.27738e-12,9.04023e-38,0,-1.066e-13,0,0,0,0,0,0,0,0,0,0,0,0,0,0,0,0,0,0,0,0,0,-0.174533,0,-1.5,-nan,0,0,0,0,0,0,0,0,0,0,0,1.9603e-19,0,0,0,0,0,0,0,0,0,2,0
9632,-3.21172e-12,9.0407e-38,-1.53875e-06,-3.27738e-12,9.04023e-38,0,-1.066e-13,0,0,0,0,0,0,0,0,0,0,0,0,0,0,0,0,0,0,0,0,0,-0.174533,0,-1.5,-nan,0,0,0,0,0,0,0,0,0,0,0,1.9603e-19,0,0,0,0,0,0,0,0,0,2,0
9646,-3.21172e-12,9.0407e-38,-1.53875e-06,-3.27738e-12,9.04023e-38,0,-1.066e-13,0,0,0,0,0,0,0,0,0,0,0,0,0,0,0,0,0,0,0,0,0,-0.174533,0,-1.5,-nan,0,0,0,0,0,0,0,0,0,0,0,1.9603e-19,0,0,0,0,0,0,0,0,0,2,0
9662,-3.21172e-12,9.0407e-38,-1.53875e-06,-3.27738e-12,9.04023e-38,0,-1.066e-13,0,0,0,0,0,0,0,0,0,0,0,0,0,0,0,0,0,0,0,0,0,-0.174533,0,-1.5,-nan,0,0,0,0,0,0,0,0,0,0,0,1.9603e-19,0,0,0,0,0,0,0,0,0,2,0
9677,-3.21172e-12,9.0407e-38,-1.53875e-06,-3.27738e-12,9.04023e-38,0,-1.06601e-13,0,0,0,0,0,0,0,0,0,0,0,0,0,0,0,0,0,0,0,0,0,-0.174533,0,-1.5,-nan,0,0,0,0,0,0,0,0,0,0,0,1.9603e-19,0,0,0,0,0,0,0,0,0,2,0
9694,-3.21172e-12,9.0407e-38,-1.53875e-06,-3.27738e-12,9.04023e-38,0,-1.06601e-13,0,0,0,0,0,0,0,0,0,0,0,0,0,0,0,0,0,0,0,0,0,-0.174533,0,-1.5,-nan,0,0,0,0,0,0,0,0,0,0,0,1.9603e-19,0,0,0,0,0,0,0,0,0,2,0
9711,-3.21172e-12,9.0407e-38,-1.53875e-06,-3.27738e-12,9.04023e-38,0,-1.06601e-13,0,0,0,0,0,0,0,0,0,0,0,0,0,0,0,0,0,0,0,0,0,-0.174533,0,-1.5,-nan,0,0,0,0,0,0,0,0,0,0,0,1.9603e-19,0,0,0,0,0,0,0,0,0,2,0
9727,-3.21172e-12,9.0407e-38,-1.53875e-06,-3.27738e-12,9.04023e-38,0,-1.06602e-13,0,0,0,0,0,0,0,0,0,0,0,0,0,0,0,0,0,0,0,0,0,-0.174533,0,-1.5,-nan,0,0,0,0,0,0,0,0,0,0,0,1.9603e-19,0,0,0,0,0,0,0,0,0,2,0
9743,-3.21172e-12,9.0407e-38,-1.53875e-06,-3.27738e-12,9.04023e-38,0,-1.06602e-13,0,0,0,0,0,0,0,0,0,0,0,0,0,0,0,0,0,0,0,0,0,-0.174533,0,-1.5,-nan,0,0,0,0,0,0,0,0,0,0,0,1.9603e-19,0,0,0,0,0,0,0,0,0,2,0
9759,-3.21172e-12,9.0407e-38,-1.53875e-06,-3.27738e-12,9.04023e-38,0,-1.06602e-13,0,0,0,0,0,0,0,0,0,0,0,0,0,0,0,0,0,0,0,0,0,-0.174533,0,-1.5,-nan,0,0,0,0,0,0,0,0,0,0,0,1.9603e-19,0,0,0,0,0,0,0,0,0,2,0
9776,-3.21172e-12,9.0407e-38,-1.53875e-06,-3.27738e-12,9.04023e-38,0,-1.06602e-13,0,0,0,0,0,0,0,0,0,0,0,0,0,0,0,0,0,0,0,0,0,-0.174533,0,-1.5,-nan,0,0,0,0,0,0,0,0,0,0,0,1.9603e-19,0,0,0,0,0,0,0,0,0,2,0
9792,-3.21172e-12,9.0407e-38,-1.53875e-06,-3.27738e-12,9.04023e-38,0,-1.06603e-13,0,0,0,0,0,0,0,0,0,0,0,0,0,0,0,0,0,0,0,0,0,-0.174533,0,-1.5,-nan,0,0,0,0,0,0,0,0,0,0,0,1.9603e-19,0,0,0,0,0,0,0,0,0,2,0
9809,-3.21172e-12,9.0407e-38,-1.53875e-06,-3.27738e-12,9.04023e-38,0,-1.06603e-13,0,0,0,0,0,0,0,0,0,0,0,0,0,0,0,0,0,0,0,0,0,-0.174533,0,-1.5,-nan,0,0,0,0,0,0,0,0,0,0,0,1.9603e-19,0,0,0,0,0,0,0,0,0,2,0
9825,-3.21172e-12,9.0407e-38,-1.53875e-06,-3.27738e-12,9.04023e-38,0,-1.06603e-13,0,0,0,0,0,0,0,0,0,0,0,0,0,0,0,0,0,0,0,0,0,-0.174533,0,-1.5,-nan,0,0,0,0,0,0,0,0,0,0,0,1.9603e-19,0,0,0,0,0,0,0,0,0,2,0
9842,-3.21172e-12,9.0407e-38,-1.53875e-06,-3.27738e-12,9.04023e-38,0,-1.06603e-13,0,0,0,0,0,0,0,0,0,0,0,0,0,0,0,0,0,0,0,0,0,-0.174533,0,-1.5,-nan,0,0,0,0,0,0,0,0,0,0,0,1.9603e-19,0,0,0,0,0,0,0,0,0,2,0
9858,-3.21172e-12,9.0407e-38,-1.53875e-06,-3.27738e-12,9.04023e-38,0,-1.06604e-13,0,0,0,0,0,0,0,0,0,0,0,0,0,0,0,0,0,0,0,0,0,-0.174533,0,-1.5,-nan,0,0,0,0,0,0,0,0,0,0,0,1.9603e-19,0,0,0,0,0,0,0,0,0,2,0
9874,-3.21172e-12,9.0407e-38,-1.53875e-06,-3.27738e-12,9.04023e-38,0,-1.06604e-13,0,0,0,0,0,0,0,0,0,0,0,0,0,0,0,0,0,0,0,0,0,-0.174533,0,-1.5,-nan,0,0,0,0,0,0,0,0,0,0,0,1.9603e-19,0,0,0,0,0,0,0,0,0,2,0
9890,-3.21172e-12,9.0407e-38,-1.53875e-06,-3.27738e-12,9.04023e-38,0,-1.06604e-13,0,0,0,0,0,0,0,0,0,0,0,0,0,0,0,0,0,0,0,0,0,-0.174533,0,-1.5,-nan,0,0,0,0,0,0,0,0,0,0,0,1.9603e-19,0,0,0,0,0,0,0,0,0,2,0
9934,-3.21172e-12,9.0407e-38,-1.53875e-06,-3.27738e-12,9.04023e-38,0,-1.06605e-13,0,0,0,0,0,0,0,0,0,0,0,0,0,0,0,0,0,0,0,0,0,-0.174533,0,-1.5,-nan,0,0,0,0,0,0,0,0,0,0,0,1.9603e-19,0,0,0,0,0,0,0,0,0,2,0
9950,-3.21172e-12,9.0407e-38,-1.53875e-06,-3.27738e-12,9.04023e-38,0,-1.06605e-13,0,0,0,0,0,0,0,0,0,0,0,0,0,0,0,0,0,0,0,0,0,-0.174533,0,-1.5,-nan,0,0,0,0,0,0,0,0,0,0,0,1.9603e-19,0,0,0,0,0,0,0,0,0,2,0
9969,-3.21172e-12,9.0407e-38,-1.53875e-06,-3.27738e-12,9.04023e-38,0,-1.06605e-13,0,0,0,0,0,0,0,0,0,0,0,0,0,0,0,0,0,0,0,0,0,-0.174533,0,-1.5,-nan,0,0,0,0,0,0,0,0,0,0,0,1.9603e-19,0,0,0,0,0,0,0,0,0,2,0
9983,-3.21172e-12,9.0407e-38,-1.53875e-06,-3.27738e-12,9.04023e-38,0,-1.06605e-13,0,0,0,0,0,0,0,0,0,0,0,0,0,0,0,0,0,0,0,0,0,-0.174533,0,-1.5,-nan,0,0,0,0,0,0,0,0,0,0,0,1.9603e-19,0,0,0,0,0,0,0,0,0,2,0
9997,-3.21172e-12,9.0407e-38,-1.53875e-06,-3.27738e-12,9.04023e-38,0,-1.06606e-13,0,0,0,0,0,0,0,0,0,0,0,0,0,0,0,0,0,0,0,0,0,-0.174533,0,-1.5,-nan,0,0,0,0,0,0,0,0,0,0,0,1.9603e-19,0,0,0,0,0,0,0,0,0,2,0
10011,-3.21172e-12,9.0407e-38,-1.53875e-06,-3.27738e-12,9.04023e-38,0,-1.06606e-13,0,0,0,0,0,0,0,0,0,0,0,0,0,0,0,0,0,0,0,0,0,-0.174533,0,-1.5,-nan,0,0,0,0,0,0,0,0,0,0,0,1.9603e-19,0,0,0,0,0,0,0,0,0,2,0
10027,-3.21172e-12,9.0407e-38,-1.53875e-06,-3.27738e-12,9.04023e-38,0,-1.06606e-13,0,0,0,0,0,0,0,0,0,0,0,0,0,0,0,0,0,0,0,0,0,-0.174533,0,-1.5,-nan,0,0,0,0,0,0,0,0,0,0,0,1.9603e-19,0,0,0,0,0,0,0,0,0,2,0
10067,-3.21172e-12,9.0407e-38,-1.53875e-06,-3.27738e-12,9.04023e-38,0,-1.06606e-13,0,0,0,0,0,0,0,0,0,0,0,0,0,0,0,0,0,0,0,0,0,-0.174533,0,-1.5,-nan,0,0,0,0,0,0,0,0,0,0,0,1.9603e-19,0,0,0,0,0,0,0,0,0,2,0
10083,-3.21172e-12,9.0407e-38,-1.53875e-06,-3.27738e-12,9.04023e-38,0,-1.06607e-13,0,0,0,0,0,0,0,0,0,0,0,0,0,0,0,0,0,0,0,0,0,-0.174533,0,-1.5,-nan,0,0,0,0,0,0,0,0,0,0,0,1.9603e-19,0,0,0,0,0,0,0,0,0,2,0
10099,-3.21172e-12,9.0407e-38,-1.53875e-06,-3.27738e-12,9.04023e-38,0,-1.06607e-13,0,0,0,0,0,0,0,0,0,0,0,0,0,0,0,0,0,0,0,0,0,-0.174533,0,-1.5,-nan,0,0,0,0,0,0,0,0,0,0,0,1.9603e-19,0,0,0,0,0,0,0,0,0,2,0
10115,-3.21172e-12,9.0407e-38,-1.53875e-06,-3.27738e-12,9.04023e-38,0,-1.06607e-13,0,0,0,0,0,0,0,0,0,0,0,0,0,0,0,0,0,0,0,0,0,-0.174533,0,-1.5,-nan,0,0,0,0,0,0,0,0,0,0,0,1.9603e-19,0,0,0,0,0,0,0,0,0,2,0
10131,-3.21172e-12,9.0407e-38,-1.53875e-06,-3.27738e-12,9.04023e-38,0,-1.06607e-13,0,0,0,0,0,0,0,0,0,0,0,0,0,0,0,0,0,0,0,0,0,-0.174533,0,-1.5,-nan,0,0,0,0,0,0,0,0,0,0,0,1.9603e-19,0,0,0,0,0,0,0,0,0,2,0
10147,-3.21172e-12,9.0407e-38,-1.53875e-06,-3.27738e-12,9.04023e-38,0,-1.06608e-13,0,0,0,0,0,0,0,0,0,0,0,0,0,0,0,0,0,0,0,0,0,-0.174533,0,-1.5,-nan,0,0,0,0,0,0,0,0,0,0,0,1.9603e-19,0,0,0,0,0,0,0,0,0,2,0
10162,-3.21172e-12,9.0407e-38,-1.53875e-06,-3.27738e-12,9.04023e-38,0,-1.06608e-13,0,0,0,0,0,0,0,0,0,0,0,0,0,0,0,0,0,0,0,0,0,-0.174533,0,-1.5,-nan,0,0,0,0,0,0,0,0,0,0,0,1.9603e-19,0,0,0,0,0,0,0,0,0,2,0
10178,-3.21172e-12,9.0407e-38,-1.53875e-06,-3.27738e-12,9.04023e-38,0,-1.06608e-13,0,0,0,0,0,0,0,0,0,0,0,0,0,0,0,0,0,0,0,0,0,-0.174533,0,-1.5,-nan,0,0,0,0,0,0,0,0,0,0,0,1.9603e-19,0,0,0,0,0,0,0,0,0,2,0
10194,-3.21172e-12,9.0407e-38,-1.53875e-06,-3.27738e-12,9.04023e-38,0,-1.06609e-13,0,0,0,0,0,0,0,0,0,0,0,0,0,0,0,0,0,0,0,0,0,-0.174533,0,-1.5,-nan,0,0,0,0,0,0,0,0,0,0,0,1.9603e-19,0,0,0,0,0,0,0,0,0,2,0
10210,-3.21172e-12,9.0407e-38,-1.53875e-06,-3.27738e-12,9.04023e-38,0,-1.06609e-13,0,0,0,0,0,0,0,0,0,0,0,0,0,0,0,0,0,0,0,0,0,-0.174533,0,-1.5,-nan,0,0,0,0,0,0,0,0,0,0,0,1.9603e-19,0,0,0,0,0,0,0,0,0,2,0
10226,-3.21172e-12,9.0407e-38,-1.53875e-06,-3.27738e-12,9.04023e-38,0,-1.06609e-13,0,0,0,0,0,0,0,0,0,0,0,0,0,0,0,0,0,0,0,0,0,-0.174533,0,-1.5,-nan,0,0,0,0,0,0,0,0,0,0,0,1.9603e-19,0,0,0,0,0,0,0,0,0,2,0
10241,-3.21172e-12,9.0407e-38,-1.53875e-06,-3.27738e-12,9.04023e-38,0,-1.06609e-13,0,0,0,0,0,0,0,0,0,0,0,0,0,0,0,0,0,0,0,0,0,-0.174533,0,-1.5,-nan,0,0,0,0,0,0,0,0,0,0,0,1.9603e-19,0,0,0,0,0,0,0,0,0,2,0
10257,-3.21172e-12,9.0407e-38,-1.53875e-06,-3.27738e-12,9.04023e-38,0,-1.0661e-13,0,0,0,0,0,0,0,0,0,0,0,0,0,0,0,0,0,0,0,0,0,-0.174533,0,-1.5,-nan,0,0,0,0,0,0,0,0,0,0,0,1.9603e-19,0,0,0,0,0,0,0,0,0,2,0
10274,-3.21172e-12,9.0407e-38,-1.53875e-06,-3.27738e-12,9.04023e-38,0,-1.0661e-13,0,0,0,0,0,0,0,0,0,0,0,0,0,0,0,0,0,0,0,0,0,-0.174533,0,-1.5,-nan,0,0,0,0,0,0,0,0,0,0,0,1.9603e-19,0,0,0,0,0,0,0,0,0,2,0
10290,-3.21172e-12,9.0407e-38,-1.53875e-06,-3.27738e-12,9.04023e-38,0,-1.0661e-13,0,0,0,0,0,0,0,0,0,0,0,0,0,0,0,0,0,0,0,0,0,-0.174533,0,-1.5,-nan,0,0,0,0,0,0,0,0,0,0,0,1.9603e-19,0,0,0,0,0,0,0,0,0,2,0
10306,-3.21172e-12,9.0407e-38,-1.53875e-06,-3.27738e-12,9.04023e-38,0,-1.0661e-13,0,0,0,0,0,0,0,0,0,0,0,0,0,0,0,0,0,0,0,0,0,-0.174533,0,-1.5,-nan,0,0,0,0,0,0,0,0,0,0,0,1.9603e-19,0,0,0,0,0,0,0,0,0,2,0
10322,-3.21172e-12,9.0407e-38,-1.53875e-06,-3.27738e-12,9.04023e-38,0,-1.06611e-13,0,0,0,0,0,0,0,0,0,0,0,0,0,0,0,0,0,0,0,0,0,-0.174533,0,-1.5,-nan,0,0,0,0,0,0,0,0,0,0,0,1.9603e-19,0,0,0,0,0,0,0,0,0,2,0
10336,-3.21172e-12,9.0407e-38,-1.53875e-06,-3.27738e-12,9.04023e-38,0,-1.06611e-13,0,0,0,0,0,0,0,0,0,0,0,0,0,0,0,0,0,0,0,0,0,-0.174533,0,-1.5,-nan,0,0,0,0,0,0,0,0,0,0,0,1.9603e-19,0,0,0,0,0,0,0,0,0,2,0
10349,-3.21172e-12,9.0407e-38,-1.53875e-06,-3.27738e-12,9.04023e-38,0,-1.06611e-13,0,0,0,0,0,0,0,0,0,0,0,0,0,0,0,0,0,0,0,0,0,-0.174533,0,-1.5,-nan,0,0,0,0,0,0,0,0,0,0,0,1.9603e-19,0,0,0,0,0,0,0,0,0,2,0
10365,-3.21172e-12,9.0407e-38,-1.53875e-06,-3.27738e-12,9.04023e-38,0,-1.06612e-13,0,0,0,0,0,0,0,0,0,0,0,0,0,0,0,0,0,0,0,0,0,-0.174533,0,-1.5,-nan,0,0,0,0,0,0,0,0,0,0,0,1.9603e-19,0,0,0,0,0,0,0,0,0,2,0
10381,-3.21172e-12,9.0407e-38,-1.53875e-06,-3.27738e-12,9.04023e-38,0,-1.06612e-13,0,0,0,0,0,0,0,0,0,0,0,0,0,0,0,0,0,0,0,0,0,-0.174533,0,-1.5,-nan,0,0,0,0,0,0,0,0,0,0,0,1.9603e-19,0,0,0,0,0,0,0,0,0,2,0
10398,-3.21172e-12,9.0407e-38,-1.53875e-06,-3.27738e-12,9.04023e-38,0,-1.06612e-13,0,0,0,0,0,0,0,0,0,0,0,0,0,0,0,0,0,0,0,0,0,-0.174533,0,-1.5,-nan,0,0,0,0,0,0,0,0,0,0,0,1.9603e-19,0,0,0,0,0,0,0,0,0,2,0
10413,-3.21172e-12,9.0407e-38,-1.53875e-06,-3.27738e-12,9.04023e-38,0,-1.06612e-13,0,0,0,0,0,0,0,0,0,0,0,0,0,0,0,0,0,0,0,0,0,-0.174533,0,-1.5,-nan,0,0,0,0,0,0,0,0,0,0,0,1.9603e-19,0,0,0,0,0,0,0,0,0,2,0
10428,-3.21172e-12,9.0407e-38,-1.53875e-06,-3.27738e-12,9.04023e-38,0,-1.06613e-13,0,0,0,0,0,0,0,0,0,0,0,0,0,0,0,0,0,0,0,0,0,-0.174533,0,-1.5,-nan,0,0,0,0,0,0,0,0,0,0,0,1.9603e-19,0,0,0,0,0,0,0,0,0,2,0
10443,-3.21172e-12,9.0407e-38,-1.53875e-06,-3.27738e-12,9.04023e-38,0,-1.06613e-13,0,0,0,0,0,0,0,0,0,0,0,0,0,0,0,0,0,0,0,0,0,-0.174533,0,-1.5,-nan,0,0,0,0,0,0,0,0,0,0,0,1.9603e-19,0,0,0,0,0,0,0,0,0,2,0
10465,-3.21172e-12,9.0407e-38,-1.53875e-06,-3.27738e-12,9.04023e-38,0,-1.06613e-13,0,0,0,0,0,0,0,0,0,0,4.4,0,1986618469,1970435186,1986618469,1970435186,0,40066911,50331648,33554432,0,-0.174533,0,-1.5,-nan,0,0,0,0,0,0,0,0,0,0,0,0,0,0,0,0,10458,0,0,0,0,2,0
10481,-3.21172e-12,9.0407e-38,-1.53875e-06,-3.27738e-12,9.04023e-38,0,-1.06613e-13,0,0,0,0,0,0,0,0,0,0,4.4,0,1986618469,1970435186,1986618469,1970435186,0,40066911,50331648,33554432,0,-0.174533,0,-1.5,-nan,0,0,0,0,0,0,0,0,0,0,0,0,0,0,0,0,10458,0,0,0,0,2,0
10497,-3.21172e-12,9.0407e-38,-1.53875e-06,-3.27738e-12,9.04023e-38,0,-1.06614e-13,0,0,0,0,0,0,0,0,0,0,4.4,0,1986618469,1970435186,1986618469,1970435186,0,40066911,50331648,33554432,0,-0.174533,0,-1.5,-nan,0,0,0,0,0,0,0,0,0,0,0,0,0,0,0,0,10458,0,0,0,0,2,0
10513,-3.21172e-12,9.0407e-38,-1.53875e-06,-3.27738e-12,9.04023e-38,0,-1.06614e-13,0,0,0,0,0,0,0,0,0,0,4.4,0,1986618469,1970435186,1986618469,1970435186,0,40066911,50331648,33554432,0,-0.174533,0,-1.5,-nan,0,0,0,0,0,0,0,0,0,0,0,0,0,0,0,0,10458,0,0,0,0,2,0
10528,-3.21172e-12,9.0407e-38,-1.53875e-06,-3.27738e-12,9.04023e-38,0,-1.06614e-13,0,0,0,0,0,0,0,0,0,0,4.4,0,1986618469,1970435186,1986618469,1970435186,0,40066911,50331648,33554432,0,-0.174533,0,-1.5,-nan,0,0,0,0,0,0,0,0,0,0,0,0,0,0,0,0,10458,0,0,0,0,2,0
10544,-3.21172e-12,9.0407e-38,-1.53875e-06,-3.27738e-12,9.04023e-38,0,-1.06615e-13,0,0,-3.44184,0.39267,0.589953,0,0,0,0,0,-0.315318,0.39267,206,-92,206,-92,335,-96,213,46,0,-0.174533,0,-1.5,-nan,0,0,0,0,0,0,0,0,0,0,0,19028,0,0,0,0,10535,0,0,0,0,2,0
10559,-3.21172e-12,9.0407e-38,-1.53875e-06,-3.27738e-12,9.04023e-38,0,-1.06615e-13,0,0,-3.44184,0.39267,0.589953,0,0,0,0,0,-0.315318,0.39267,206,-92,206,-92,335,-96,213,46,0,-0.174533,0,-1.5,-nan,0,0,0,0,0,0,0,0,0,0,0,19028,0,0,0,0,10535,0,0,0,0,2,0
10575,-3.21172e-12,9.0407e-38,-1.53875e-06,-3.27738e-12,9.04023e-38,0,-1.06615e-13,0,0,-3.44184,0.39267,0.589953,0,0,0,0,0,-0.315318,0.39267,206,-92,206,-92,335,-96,213,46,0,-0.174533,0,-1.5,-nan,0,0,0,0,0,0,0,0,0,0,0,19028,0,0,0,0,10535,0,0,0,0,2,0
10590,-3.21172e-12,9.0407e-38,-1.53875e-06,-3.27738e-12,9.04023e-38,0,-1.06615e-13,0,0,-3.44184,0.39267,0.589953,0,0,0,0,0,-0.315318,0.39267,206,-92,206,-92,335,-96,213,46,0,-0.174533,0,-1.5,-nan,0,0,0,0,0,0,0,0,0,0,0,19028,0,0,0,0,10535,0,0,0,0,2,0
10606,-3.21172e-12,9.0407e-38,-1.53875e-06,-3.27738e-12,9.04023e-38,0,-1.06616e-13,0,0,-3.44184,0.39267,0.589953,0,0,0,0,0,-0.315318,0.39267,206,-92,206,-92,335,-96,213,46,0,-0.174533,0,-1.5,-nan,0,0,0,0,0,0,0,0,0,0,0,19028,0,0,0,0,10535,0,0,0,0,2,0
10620,-3.21172e-12,9.0407e-38,-1.53875e-06,-3.27738e-12,9.04023e-38,0,-1.06616e-13,0,0,-3.44184,0.39267,0.589953,0,0,0,0,0,-0.315318,0.39267,206,-92,206,-92,335,-96,213,46,0,-0.174533,0,-1.5,-nan,0,0,0,0,0,0,0,0,0,0,0,19028,0,0,0,0,10535,0,0,0,0,2,0
10634,-3.21172e-12,9.0407e-38,-1.53875e-06,-3.27738e-12,9.04023e-38,0,-1.06616e-13,0,0,-3.44184,0.39267,0.589953,0,0,0,0,0,-0.315318,0.39267,206,-92,206,-92,335,-96,213,46,0,-0.174533,0,-1.5,-nan,0,0,0,0,0,0,0,0,0,0,0,19028,0,0,0,0,10535,0,0,0,0,2,0
10649,-3.21172e-12,9.0407e-38,-1.53875e-06,-3.27738e-12,9.04023e-38,0,-1.06616e-13,0,0,-3.44184,0.39267,0.589953,0,0,0,0,0,-0.315318,0.39267,206,-92,206,-92,335,-96,213,46,0,-0.174533,0,-1.5,-nan,0,0,0,0,0,0,0,0,0,0,0,19028,0,0,0,0,10535,0,0,0,0,2,0
10665,-3.21172e-12,9.0407e-38,-1.53875e-06,-3.27738e-12,9.04023e-38,0,-1.06617e-13,0,0,-3.44184,0.39267,0.589953,0,0,0,0,0,-0.315318,0.39267,206,-92,206,-92,335,-96,213,46,0,-0.174533,0,-1.5,-nan,0,0,0,0,0,0,0,0,0,0,0,19028,0,0,0,0,10535,0,0,0,0,2,0
10680,-3.21172e-12,9.0407e-38,-1.53875e-06,-3.27738e-12,9.04023e-38,0,-1.06617e-13,0,0,-3.44184,0.39267,0.589953,0,0,0,0,0,-0.315318,0.39267,206,-92,206,-92,335,-96,213,46,0,-0.174533,0,-1.5,-nan,0,0,0,0,0,0,0,0,0,0,0,19028,0,0,0,0,10535,0,0,0,0,2,0
10695,-3.21172e-12,9.0407e-38,-1.53875e-06,-3.27738e-12,9.04023e-38,0,-1.06617e-13,0,0,-3.44184,0.39267,0.589953,0,0,0,0,0,-0.315318,0.39267,206,-92,206,-92,335,-96,213,46,0,-0.174533,0,-1.5,-nan,0,0,0,0,0,0,0,0,0,0,0,19028,0,0,0,0,10535,0,0,0,0,2,0
10710,-3.21172e-12,9.0407e-38,-1.53875e-06,-3.27738e-12,9.04023e-38,0,-1.06618e-13,0,0,-3.44184,0.39267,0.589953,0,0,0,0,0,-0.315318,0.39267,206,-92,206,-92,335,-96,213,46,0,-0.174533,0,-1.5,-nan,0,0,0,0,0,0,0,0,0,0,0,19028,0,0,0,0,10535,0,0,0,0,2,0
10726,-3.21172e-12,9.0407e-38,-1.53875e-06,-3.27738e-12,9.04023e-38,0,-1.06618e-13,0,0,-3.44184,0.39267,0.589953,0,0,0,0,0,-0.315318,0.39267,206,-92,206,-92,335,-96,213,46,0,-0.174533,0,-1.5,-nan,0,0,0,0,0,0,0,0,0,0,0,19028,0,0,0,0,10535,0,0,0,0,2,0
10741,-3.21172e-12,9.0407e-38,-1.53875e-06,-3.27738e-12,9.04023e-38,0,-1.06618e-13,0,0,-3.44184,0.39267,0.589953,0,0,0,0,0,-0.315318,0.39267,206,-92,206,-92,335,-96,213,46,0,-0.174533,0,-1.5,-nan,0,0,0,0,0,0,0,0,0,0,0,19028,0,0,0,0,10535,0,0,0,0,2,0
10756,-3.21172e-12,9.0407e-38,-1.53875e-06,-3.27738e-12,9.04023e-38,0,-1.06618e-13,0,0,-3.44184,0.39267,0.589953,0,0,0,0,0,-0.315318,0.39267,206,-92,206,-92,335,-96,213,46,0,-0.174533,0,-1.5,-nan,0,0,0,0,0,0,0,0,0,0,0,19028,0,0,0,0,10535,0,0,0,0,2,0
10772,-3.21172e-12,9.0407e-38,-1.53875e-06,-3.27738e-12,9.04023e-38,0,-1.06619e-13,0,0,-3.3594,0.311685,0.535044,0,0,0,0,0,-0.202384,0.311685,216,-100,216,-100,344,-96,220,47,0,-0.174533,0,-1.5,-nan,0,0,0,0,0,0,0,0,0,0,0,19404,0,0,0,0,10768,0,0,0,0,2,0
10787,-3.21172e-12,9.0407e-38,-1.53875e-06,-3.27738e-12,9.04023e-38,0,-1.06619e-13,0,0,-3.3594,0.311685,0.535044,0,0,0,0,0,-0.202384,0.311685,216,-100,216,-100,344,-96,220,47,0,-0.174533,0,-1.5,-nan,0,0,0,0,0,0,0,0,0,0,0,19404,0,0,0,0,10768,0,0,0,0,2,0
10809,-3.21172e-12,9.0407e-38,-1.53875e-06,-3.27738e-12,9.04023e-38,0,-1.06619e-13,0,0,-3.44544,0.369053,0.553124,0,0,0,0,0,-0.320251,0.369053,210,-86,210,-86,340,-91,213,46,-0.0311103,-0.174533,0,-1.5,-nan,0,0,0,-0.320433,0.368182,0,0,0,0,-0.0182055,-0.0871434,18084,-0.320251,0.369053,-0.0182055,-0.0871434,10801,0,0,0,0,2,-0.294546
10824,-3.21172e-12,9.0407e-38,-1.53875e-06,-3.27738e-12,9.04023e-38,0,-1.06619e-13,0,0,-3.44544,0.369053,0.553124,0,0,0,0,0,-0.320251,0.369053,210,-86,210,-86,340,-91,213,46,-0.0309535,-0.174533,0,-1.5,-nan,0,0,0,-0.320707,0.366875,0,0,0,0,-0.0182055,-0.0871434,18084,-0.320251,0.369053,-0.0182055,-0.0871434,10801,0,0,0,0,2,-0.2935
10843,-3.21172e-12,9.0407e-38,-1.53875e-06,-3.27738e-12,9.04023e-38,0,-1.0662e-13,0,0,-3.41716,0.395252,0.519298,0,0,0,0,0,-0.281513,0.395252,203,-92,203,-92,334,-85,213,49,-0.0307548,-0.174533,0,-1.5,-nan,0,0,0,-0.280174,0.365219,0,0,0,0,0.111565,-0.0871432,19317,-0.281513,0.366265,0.111565,-0.0871432,10834,0,0,0,0,2,-0.292175
10856,-3.21172e-12,9.0407e-38,-1.53875e-06,-3.27738e-12,9.04023e-38,0,-1.0662e-13,0,0,-3.41716,0.395252,0.519298,0,0,0,0,0,-0.281513,0.395252,203,-92,203,-92,334,-85,213,49,-0.0306189,-0.174533,0,-1.5,-nan,0,0,0,-0.278724,0.364086,0,0,0,0,0.111565,-0.0871432,19317,-0.281513,0.366265,0.111565,-0.0871432,10834,0,0,0,0,2,-0.291269
10872,-3.21172e-12,9.0407e-38,-1.53875e-06,-3.27738e-12,9.04023e-38,0,-1.0662e-13,0,0,-3.55253,0.434365,0.555624,0,0,0,0,0,-0.466967,0.434365,203,-78,203,-78,329,-82,213,52,-0.0487505,-0.174533,0,-1.5,-nan,0,0,0,-0.32158,0.395601,0,0,0,0,-0.0182055,0.00852217,17688,-0.321453,0.395542,-0.0182055,0.00852217,10867,0,0,0,0,2,-0.316481
10888,-3.21172e-12,9.0407e-38,-1.53875e-06,-3.27738e-12,9.04023e-38,0,-1.0662e-13,0,0,-3.55253,0.434365,0.555624,0,0,0,0,0,-0.466967,0.434365,203,-78,203,-78,329,-82,213,52,-0.0487658,-0.174533,0,-1.5,-nan,0,0,0,-0.321854,0.395729,0,0,0,0,-0.0182055,0.00852217,17688,-0.321453,0.395542,-0.0182055,0.00852217,10867,0,0,0,0,2,-0.316583
10906,-3.21172e-12,9.0407e-38,-1.53875e-06,-3.27738e-12,9.04023e-38,0,-1.06621e-13,0,0,-3.31926,0.410762,0.469617,0,0,0,0,0,-0.147387,0.410762,195,-102,195,-102,328,-85,213,51,-0.0487853,-0.174533,0,-1.5,-nan,0,0,0,-0.273145,0.395891,0,0,0,0,0.111565,0.00852217,22185,-0.273926,0.395832,0.111565,0.00852217,10901,0,0,0,0,2,-0.316713
10922,-3.21172e-12,9.0407e-38,-1.53875e-06,-3.27738e-12,9.04023e-38,0,-1.06621e-13,0,0,-3.31926,0.410762,0.469617,0,0,0,0,0,-0.147387,0.410762,195,-102,195,-102,328,-85,213,51,-0.0488006,-0.174533,0,-1.5,-nan,0,0,0,-0.271472,0.396019,0,0,0,0,0.111565,0.00852217,22185,-0.273926,0.395832,0.111565,0.00852217,10901,0,0,0,0,2,-0.316815
10940,-3.21172e-12,9.0407e-38,-1.53875e-06,-3.27738e-12,9.04023e-38,0,-1.06621e-13,0,0,-3.42971,0.409999,0.550445,0,0,0,0,0,-0.298702,0.409999,200,-92,200,-92,331,-89,213,46,-0.0556961,-0.174533,0,-1.5,-nan,0,0,0,-0.298331,0.410386,0,0,0,0,0.0412285,0.0429989,19320,-0.298702,0.409999,0.0412285,0.0429989,10933,0,0,0,0,2,-0.328308
10956,-3.21172e-12,9.0407e-38,-1.53875e-06,-3.27738e-12,9.04023e-38,0,-1.06622e-13,0,0,-3.42971,0.409999,0.550445,0,0,0,0,0,-0.298702,0.409999,200,-92,200,-92,331,-89,213,46,-0.0557735,-0.174533,0,-1.5,-nan,0,0,0,-0.297713,0.411031,0,0,0,0,0.0412285,0.0429989,19320,-0.298702,0.409999,0.0412285,0.0429989,10933,0,0,0,0,2,-0.328824
10975,-3.21172e-12,9.0407e-38,-1.53875e-06,-3.27738e-12,9.04023e-38,0,-1.06624e-13,0,0,-3.49215,0.401289,0.584896,0,0,0,0,0,-0.384242,0.401289,206,-81,206,-81,334,-94,213,46,-0.0540511,-0.174533,0,-1.5,-nan,0,0,0,-0.304223,0.40671,0,0,0,0,0.0323889,0.0349727,18760,-0.304482,0.40643,0.0323889,0.0349727,10969,0,0,0,0,2,-0.325368
10990,-3.21172e-12,9.0407e-38,-1.53875e-06,-3.27738e-12,9.04023e-38,0,-1.06622e-13,0,0,-3.49215,0.401289,0.584896,0,0,0,0,0,-0.384242,0.401289,206,-81,206,-81,334,-94,213,46,-0.054114,-0.174533,0,-1.5,-nan,0,0,0,-0.303737,0.407234,0,0,0,0,0.0323889,0.0349727,18760,-0.304482,0.40643,0.0323889,0.0349727,10969,0,0,0,0,2,-0.325787
11009,-3.21172e-12,9.0407e-38,-1.53875e-06,-3.27738e-12,9.04023e-38,0,-1.06625e-13,0,0,-3.48288,0.385173,0.580689,0,0,0,0,0,-0.371546,0.385173,207,-83,207,-83,335,-94,216,47,-0.0507338,-0.174533,0,-1.5,-nan,0,0,0,-0.343215,0.400558,0,0,0,0,-0.0919937,0.0177788,19035,-0.342571,0.400434,-0.0919937,0.0177788,11004,0,0,0,0,2,-0.320447
11024,-3.21172e-12,9.0407e-38,-1.53875e-06,-3.27738e-12,9.04023e-38,0,-1.06625e-13,0,0,-3.48288,0.385173,0.580689,0,0,0,0,0,-0.371546,0.385173,207,-83,207,-83,335,-94,216,47,-0.0507658,-0.174533,0,-1.5,-nan,0,0,0,-0.344595,0.400825,0,0,0,0,-0.0919937,0.0177788,19035,-0.342571,0.400434,-0.0919937,0.0177788,11004,0,0,0,0,2,-0.32066
11040,-3.21172e-12,9.0407e-38,-1.53875e-06,-3.27738e-12,9.04023e-38,0,-1.06622e-13,0,0,-3.48288,0.385173,0.580689,0,0,0,0,0,-0.371546,0.385173,207,-83,207,-83,335,-94,216,47,-0.0508,-0.174533,0,-1.5,-nan,0,0,0,-0.346067,0.401109,0,0,0,0,-0.0919937,0.0177788,19035,-0.342571,0.400434,-0.0919937,0.0177788,11004,0,0,0,0,2,-0.320888
11058,-3.21172e-12,9.0407e-38,-1.53875e-06,-3.27738e-12,9.04023e-38,0,-1.06622e-13,0,0,-3.48288,0.385173,0.580689,0,0,0,0,0,-0.371546,0.385173,207,-83,207,-83,335,-94,216,47,-0.0508384,-0.174533,0,-1.5,-nan,0,0,0,-0.347723,0.401429,0,0,0,0,-0.0919937,0.0177788,19035,-0.342571,0.400434,-0.0919937,0.0177788,11004,0,0,0,0,2,-0.321144
11075,-3.21172e-12,9.0407e-38,-1.53875e-06,-3.27738e-12,9.04023e-38,0,-1.06623e-13,0,0,-3.3335,0.383918,0.517588,0,0,0,0,0,-0.166893,0.383918,201,-107,201,-107,335,-89,214,46,-0.0493392,-0.174533,0,-1.5,-nan,0,0,0,-0.287309,0.398185,0,0,0,0,0.0832779,0.0103797,21267,-0.288725,0.398009,0.0832779,0.0103797,11063,0,0,0,0,2,-0.318548
11091,-3.21172e-12,9.0407e-38,-1.53875e-06,-3.27738e-12,9.04023e-38,0,-1.06623e-13,0,0,-3.3335,0.383918,0.517588,0,0,0,0,0,-0.166893,0.383918,201,-107,201,-107,335,-89,214,46,-0.0493591,-0.174533,0,-1.5,-nan,0,0,0,-0.285977,0.398351,0,0,0,0,0.0832779,0.0103797,21267,-0.288725,0.398009,0.0832779,0.0103797,11063,0,0,0,0,2,-0.318681
11107,-3.21172e-12,9.0407e-38,-1.53875e-06,-3.27738e-12,9.04023e-38,0,-1.06623e-13,0,0,-3.3335,0.383918,0.517588,0,0,0,0,0,-0.166893,0.383918,201,-107,201,-107,335,-89,214,46,-0.049379,-0.174533,0,-1.5,-nan,0,0,0,-0.284644,0.398517,0,0,0,0,0.0832779,0.0103797,21267,-0.288725,0.398009,0.0832779,0.0103797,11063,0,0,0,0,2,-0.318814
11155,-3.21172e-12,9.0407e-38,-1.53875e-06,-3.27738e-12,9.04023e-38,0,-1.06624e-13,0,0,-3.3335,0.383918,0.517588,0,0,0,0,0,-0.166893,0.383918,201,-107,201,-107,335,-89,214,46,-0.0494388,-0.174533,0,-1.5,-nan,0,0,0,-0.280647,0.399016,0,0,0,0,0.0832779,0.0103797,21267,-0.288725,0.398009,0.0832779,0.0103797,11063,0,0,0,0,2,-0.319212
11171,-3.21172e-12,9.0407e-38,-1.53875e-06,-3.27738e-12,9.04023e-38,0,-1.06624e-13,0,0,-3.3335,0.383918,0.517588,0,0,0,0,0,-0.166893,0.383918,201,-107,201,-107,335,-89,214,46,-0.0494575,-0.174533,0,-1.5,-nan,0,0,0,-0.279398,0.399171,0,0,0,0,0.0832779,0.0103797,21267,-0.288725,0.398009,0.0832779,0.0103797,11063,0,0,0,0,2,-0.319337
11186,-3.21172e-12,9.0407e-38,-1.53875e-06,-3.27738e-12,9.04023e-38,0,-1.06624e-13,0,0,-3.3335,0.383918,0.517588,0,0,0,0,0,-0.166893,0.383918,201,-107,201,-107,335,-89,214,46,-0.0494774,-0.174533,0,-1.5,-nan,0,0,0,-0.278065,0.399337,0,0,0,0,0.0832779,0.0103797,21267,-0.288725,0.398009,0.0832779,0.0103797,11063,0,0,0,0,2,-0.31947
11202,-3.21172e-12,9.0407e-38,-1.53875e-06,-3.27738e-12,9.04023e-38,0,-1.06625e-13,0,0,-3.3335,0.383918,0.517588,0,0,0,0,0,-0.166893,0.383918,201,-107,201,-107,335,-89,214,46,-0.0494974,-0.174533,0,-1.5,-nan,0,0,0,-0.276733,0.399503,0,0,0,0,0.0832779,0.0103797,21267,-0.288725,0.398009,0.0832779,0.0103797,11063,0,0,0,0,2,-0.319603
11217,-3.21172e-12,9.0407e-38,-1.53875e-06,-3.27738e-12,9.04023e-38,0,-1.06626e-13,0,0,-3.3335,0.383918,0.517588,0,0,0,0,0,-0.166893,0.383918,201,-107,201,-107,335,-89,214,46,-0.0495161,-0.174533,0,-1.5,-nan,0,0,0,-0.275484,0.399659,0,0,0,0,0.0832779,0.0103797,21267,-0.288725,0.398009,0.0832779,0.0103797,11063,0,0,0,0,2,-0.319727
11233,-3.21172e-12,9.0407e-38,-1.53875e-06,-3.27738e-12,9.04023e-38,0,-1.06626e-13,0,0,-3.3335,0.383918,0.517588,0,0,0,0,0,-0.166893,0.383918,201,-107,201,-107,335,-89,214,46,-0.049536,-0.174533,0,-1.5,-nan,0,0,0,-0.274151,0.399825,0,0,0,0,0.0832779,0.0103797,21267,-0.288725,0.398009,0.0832779,0.0103797,11063,0,0,0,0,2,-0.31986
11248,-3.21172e-12,9.0407e-38,-1.53875e-06,-3.27738e-12,9.04023e-38,0,-1.06626e-13,0,0,-3.3335,0.383918,0.517588,0,0,0,0,0,-0.166893,0.383918,201,-107,201,-107,335,-89,214,46,-0.0495547,-0.174533,0,-1.5,-nan,0,0,0,-0.272902,0.399981,0,0,0,0,0.0832779,0.0103797,21267,-0.288725,0.398009,0.0832779,0.0103797,11063,0,0,0,0,2,-0.319985
11264,-3.21172e-12,9.0407e-38,-1.53875e-06,-3.27738e-12,9.04023e-38,0,-1.06626e-13,0,0,-3.3335,0.383918,0.517588,0,0,0,0,0,-0.166893,0.383918,201,-107,201,-107,335,-89,214,46,-0.0495746,-0.174533,0,-1.5,-nan,0,0,0,-0.27157,0.400147,0,0,0,0,0.0832779,0.0103797,21267,-0.288725,0.398009,0.0832779,0.0103797,11063,0,0,0,0,2,-0.320118
11279,-3.21172e-12,9.0407e-38,-1.53875e-06,-3.27738e-12,9.04023e-38,0,-1.06627e-13,0,0,-3.3335,0.383918,0.517588,0,0,0,0,0,-0.166893,0.383918,201,-107,201,-107,335,-89,214,46,-0.0495933,-0.174533,0,-1.5,-nan,0,0,0,-0.27032,0.400303,0,0,0,0,0.0832779,0.0103797,21267,-0.288725,0.398009,0.0832779,0.0103797,11063,0,0,0,0,2,-0.320242
11292,-3.21172e-12,9.0407e-38,-1.53875e-06,-3.27738e-12,9.04023e-38,0,-1.06627e-13,0,0,-3.3335,0.383918,0.517588,0,0,0,0,0,-0.166893,0.383918,201,-107,201,-107,335,-89,214,46,-0.0496095,-0.174533,0,-1.5,-nan,0,0,0,-0.269238,0.400438,0,0,0,0,0.0832779,0.0103797,21267,-0.288725,0.398009,0.0832779,0.0103797,11063,0,0,0,0,2,-0.32035
11306,-3.21172e-12,9.0407e-38,-1.53875e-06,-3.27738e-12,9.04023e-38,0,-1.06627e-13,0,0,-3.3335,0.383918,0.517588,0,0,0,0,0,-0.166893,0.383918,201,-107,201,-107,335,-89,214,46,-0.0496269,-0.174533,0,-1.5,-nan,0,0,0,-0.268072,0.400583,0,0,0,0,0.0832779,0.0103797,21267,-0.288725,0.398009,0.0832779,0.0103797,11063,0,0,0,0,2,-0.320466
11321,-3.21172e-12,9.0407e-38,-1.53875e-06,-3.27738e-12,9.04023e-38,0,-1.06627e-13,0,0,-3.3335,0.383918,0.517588,0,0,0,0,0,-0.166893,0.383918,201,-107,201,-107,335,-89,214,46,-0.0496456,-0.174533,0,-1.5,-nan,0,0,0,-0.266823,0.400739,0,0,0,0,0.0832779,0.0103797,21267,-0.288725,0.398009,0.0832779,0.0103797,11063,0,0,0,0,2,-0.320591
11337,-3.21172e-12,9.0407e-38,-1.53875e-06,-3.27738e-12,9.04023e-38,0,-1.06628e-13,0,0,-3.3335,0.383918,0.517588,0,0,0,0,0,-0.166893,0.383918,201,-107,201,-107,335,-89,214,46,-0.0496655,-0.174533,0,-1.5,-nan,0,0,0,-0.26549,0.400905,0,0,0,0,0.0832779,0.0103797,21267,-0.288725,0.398009,0.0832779,0.0103797,11063,0,0,0,0,2,-0.320724
11352,-3.21172e-12,9.0407e-38,-1.53875e-06,-3.27738e-12,9.04023e-38,0,-1.06628e-13,0,0,-3.3335,0.383918,0.517588,0,0,0,0,0,-0.166893,0.383918,201,-107,201,-107,335,-89,214,46,-0.0496842,-0.174533,0,-1.5,-nan,0,0,0,-0.264241,0.40106,0,0,0,0,0.0832779,0.0103797,21267,-0.288725,0.398009,0.0832779,0.0103797,11063,0,0,0,0,2,-0.320848
11368,-3.21172e-12,9.0407e-38,-1.53875e-06,-3.27738e-12,9.04023e-38,0,-1.06628e-13,0,0,-3.3335,0.383918,0.517588,0,0,0,0,0,-0.166893,0.383918,201,-107,201,-107,335,-89,214,46,-0.0497041,-0.174533,0,-1.5,-nan,0,0,0,-0.262908,0.401226,0,0,0,0,0.0832779,0.0103797,21267,-0.288725,0.398009,0.0832779,0.0103797,11063,0,0,0,0,2,-0.320981
11383,-3.21172e-12,9.0407e-38,-1.53875e-06,-3.27738e-12,9.04023e-38,0,-1.06629e-13,0,0,-3.3335,0.383918,0.517588,0,0,0,0,0,-0.166893,0.383918,201,-107,201,-107,335,-89,214,46,-0.0497228,-0.174533,0,-1.5,-nan,0,0,0,-0.261659,0.401382,0,0,0,0,0.0832779,0.0103797,21267,-0.288725,0.398009,0.0832779,0.0103797,11063,0,0,0,0,2,-0.321106
11399,-3.21172e-12,9.0407e-38,-1.53875e-06,-3.27738e-12,9.04023e-38,0,-1.06629e-13,0,0,-3.3335,0.383918,0.517588,0,0,0,0,0,-0.166893,0.383918,201,-107,201,-107,335,-89,214,46,-0.0497428,-0.174533,0,-1.5,-nan,0,0,0,-0.260327,0.401548,0,0,0,0,0.0832779,0.0103797,21267,-0.288725,0.398009,0.0832779,0.0103797,11063,0,0,0,0,2,-0.321239
11414,-3.21172e-12,9.0407e-38,-1.53875e-06,-3.27738e-12,9.04023e-38,0,-1.06629e-13,0,0,-3.3335,0.383918,0.517588,0,0,0,0,0,-0.166893,0.383918,201,-107,201,-107,335,-89,214,46,-0.0497614,-0.174533,0,-1.5,-nan,0,0,0,-0.259078,0.401704,0,0,0,0,0.0832779,0.0103797,21267,-0.288725,0.398009,0.0832779,0.0103797,11063,0,0,0,0,2,-0.321363
11430,-3.21172e-12,9.0407e-38,-1.53875e-06,-3.27738e-12,9.04023e-38,0,-1.06629e-13,0,0,-3.3335,0.383918,0.517588,0,0,0,0,0,-0.166893,0.383918,201,-107,201,-107,335,-89,214,46,-0.0497801,-0.174533,0,-1.5,-nan,0,0,0,-0.257828,0.40186,0,0,0,0,0.0832779,0.0103797,21267,-0.288725,0.398009,0.0832779,0.0103797,11063,0,0,0,0,2,-0.321488
11445,-3.21172e-12,9.0407e-38,-1.53875e-06,-3.27738e-12,9.04023e-38,0,-1.0663e-13,0,0,-3.3335,0.383918,0.517588,0,0,0,0,0,-0.166893,0.383918,201,-107,201,-107,335,-89,214,46,-0.0498001,-0.174533,0,-1.5,-nan,0,0,0,-0.256496,0.402026,0,0,0,0,0.0832779,0.0103797,21267,-0.288725,0.398009,0.0832779,0.0103797,11063,0,0,0,0,2,-0.321621
11460,-3.21172e-12,9.0407e-38,-1.53875e-06,-3.27738e-12,9.04023e-38,0,-1.0663e-13,0,0,-3.3335,0.383918,0.517588,0,0,0,0,0,-0.166893,0.383918,201,-107,201,-107,335,-89,214,46,-0.0498187,-0.174533,0,-1.5,-nan,0,0,0,-0.255247,0.402181,0,0,0,0,0.0832779,0.0103797,21267,-0.288725,0.398009,0.0832779,0.0103797,11063,0,0,0,0,2,-0.321745
11474,-3.21172e-12,9.0407e-38,-1.53875e-06,-3.27738e-12,9.04023e-38,0,-1.0663e-13,0,0,-3.3335,0.383918,0.517588,0,0,0,0,0,-0.166893,0.383918,201,-107,201,-107,335,-89,214,46,-0.0498362,-0.174533,0,-1.5,-nan,0,0,0,-0.254081,0.402327,0,0,0,0,0.0832779,0.0103797,21267,-0.288725,0.398009,0.0832779,0.0103797,11063,0,0,0,0,2,-0.321861
11487,-3.21172e-12,9.0407e-38,-1.53875e-06,-3.27738e-12,9.04023e-38,0,-1.0663e-13,0,0,-3.3335,0.383918,0.517588,0,0,0,0,0,-0.166893,0.383918,201,-107,201,-107,335,-89,214,46,-0.0498524,-0.174533,0,-1.5,-nan,0,0,0,-0.252998,0.402462,0,0,0,0,0.0832779,0.0103797,21267,-0.288725,0.398009,0.0832779,0.0103797,11063,0,0,0,0,2,-0.321969
11503,-3.21172e-12,9.0407e-38,-1.53875e-06,-3.27738e-12,9.04023e-38,0,-1.06631e-13,0,0,-3.3335,0.383918,0.517588,0,0,0,0,0,-0.166893,0.383918,201,-107,201,-107,335,-89,214,46,-0.0498723,-0.174533,0,-1.5,-nan,0,0,0,-0.251666,0.402628,0,0,0,0,0.0832779,0.0103797,21267,-0.288725,0.398009,0.0832779,0.0103797,11063,0,0,0,0,2,-0.322102
11518,-3.21172e-12,9.0407e-38,-1.53875e-06,-3.27738e-12,9.04023e-38,0,-1.06631e-13,0,0,-3.3335,0.383918,0.517588,0,0,0,0,0,-0.166893,0.383918,201,-107,201,-107,335,-89,214,46,-0.049891,-0.174533,0,-1.5,-nan,0,0,0,-0.250416,0.402783,0,0,0,0,0.0832779,0.0103797,21267,-0.288725,0.398009,0.0832779,0.0103797,11063,0,0,0,0,2,-0.322227
11534,-3.21172e-12,9.0407e-38,-1.53875e-06,-3.27738e-12,9.04023e-38,0,-1.06631e-13,0,0,-3.3335,0.383918,0.517588,0,0,0,0,0,-0.166893,0.383918,201,-107,201,-107,335,-89,214,46,-0.0499109,-0.174533,0,-1.5,-nan,0,0,0,-0.249084,0.40295,0,0,0,0,0.0832779,0.0103797,21267,-0.288725,0.398009,0.0832779,0.0103797,11063,0,0,0,0,2,-0.32236
11549,-3.21172e-12,9.0407e-38,-1.53875e-06,-3.27738e-12,9.04023e-38,0,-1.06632e-13,0,0,-3.3335,0.383918,0.517588,0,0,0,0,0,-0.166893,0.383918,201,-107,201,-107,335,-89,214,46,-0.0499296,-0.174533,0,-1.5,-nan,0,0,0,-0.247835,0.403105,0,0,0,0,0.0832779,0.0103797,21267,-0.288725,0.398009,0.0832779,0.0103797,11063,0,0,0,0,2,-0.322484
11565,-3.21172e-12,9.0407e-38,-1.53875e-06,-3.27738e-12,9.04023e-38,0,-1.06632e-13,0,0,-3.3335,0.383918,0.517588,-0.246503,0.403271,0.0830283,0.0103486,0,-0.166893,0.383918,201,-107,201,-107,335,-89,214,46,-0.0499448,-0.174533,0,-1.5,-nan,0,0,0,-0.246503,0.403271,0,0,0,0,0.0830283,0.0103486,21267,0,0,0,0,11063,0,0,0,0,2,-0.322617
11580,-3.21172e-12,9.0407e-38,-1.53875e-06,-3.27738e-12,9.04023e-38,0,-1.06632e-13,0,0,-3.3335,0.383918,0.517588,-0.245264,0.403426,0.0824073,0.0102712,0,-0.166893,0.383918,201,-107,201,-107,335,-89,214,46,-0.0499518,-0.174533,0,-1.5,-nan,0,0,0,-0.245264,0.403426,0,0,0,0,0.0824073,0.0102712,21267,0,0,0,0,11063,0,0,0,0,2,-0.322741
11596,-3.21172e-12,9.0407e-38,-1.53875e-06,-3.27738e-12,9.04023e-38,0,-1.06632e-13,0,0,-3.3335,0.383918,0.517588,-0.243952,0.403589,0.0817499,0.0101893,0,-0.166893,0.383918,201,-107,201,-107,335,-89,214,46,-0.0499591,-0.174533,0,-1.5,-nan,0,0,0,-0.243952,0.403589,0,0,0,0,0.0817499,0.0101893,21267,0,0,0,0,11063,0,0,0,0,2,-0.322871
11611,-3.21172e-12,9.0407e-38,-1.53875e-06,-3.27738e-12,9.04023e-38,0,-1.06633e-13,0,0,-3.3335,0.383918,0.517588,-0.242732,0.403741,0.0811385,0.0101131,0,-0.166893,0.383918,201,-107,201,-107,335,-89,214,46,-0.0499659,-0.174533,0,-1.5,-nan,0,0,0,-0.242732,0.403741,0,0,0,0,0.0811385,0.0101131,21267,0,0,0,0,11063,0,0,0,0,2,-0.322993
11626,-3.21172e-12,9.0407e-38,-1.53875e-06,-3.27738e-12,9.04023e-38,0,-1.06633e-13,0,0,-3.3335,0.383918,0.517588,-0.24152,0.403892,0.0805316,0.0100374,0,-0.166893,0.383918,201,-107,201,-107,335,-89,214,46,-0.0499727,-0.174533,0,-1.5,-nan,0,0,0,-0.24152,0.403892,0,0,0,0,0.0805316,0.0100374,21267,0,0,0,0,11063,0,0,0,0,2,-0.323114
11642,-3.21172e-12,9.0407e-38,-1.53875e-06,-3.27738e-12,9.04023e-38,0,-1.06633e-13,0,0,-3.3335,0.383918,0.517588,-0.240239,0.404052,0.0798891,0.00995737,0,-0.166893,0.383918,201,-107,201,-107,335,-89,214,46,-0.0499799,-0.174533,0,-1.5,-nan,0,0,0,-0.240239,0.404052,0,0,0,0,0.0798891,0.00995737,21267,0,0,0,0,11063,0,0,0,0,2,-0.323242
11657,-3.21172e-12,9.0407e-38,-1.53875e-06,-3.27738e-12,9.04023e-38,0,-1.06633e-13,0,0,-3.3335,0.383918,0.517588,-0.239046,0.404201,0.0792915,0.00988289,0,-0.166893,0.383918,201,-107,201,-107,335,-89,214,46,-0.0499865,-0.174533,0,-1.5,-nan,0,0,0,-0.239046,0.404201,0,0,0,0,0.0792915,0.00988289,21267,0,0,0,0,11063,0,0,0,0,2,-0.323361
11671,-3.21172e-12,9.0407e-38,-1.53875e-06,-3.27738e-12,9.04023e-38,0,-1.06634e-13,0,0,-3.3335,0.383918,0.517588,-0.237941,0.404338,0.078738,0.00981389,0,-0.166893,0.383918,201,-107,201,-107,335,-89,214,46,-0.0499927,-0.174533,0,-1.5,-nan,0,0,0,-0.237941,0.404338,0,0,0,0,0.078738,0.00981389,21267,0,0,0,0,11063,0,0,0,0,2,-0.323471
11686,-3.21172e-12,9.0407e-38,-1.53875e-06,-3.27738e-12,9.04023e-38,0,-1.06634e-13,0,0,-3.3335,0.383918,0.517588,-0.236765,0.404485,0.078149,0.00974048,0,-0.166893,0.383918,201,-107,201,-107,335,-89,214,46,-0.0499993,-0.174533,0,-1.5,-nan,0,0,0,-0.236765,0.404485,0,0,0,0,0.078149,0.00974048,21267,0,0,0,0,11063,0,0,0,0,2,-0.323588
11702,-3.21172e-12,9.0407e-38,-1.53875e-06,-3.27738e-12,9.04023e-38,0,-1.06634e-13,0,0,-3.3335,0.383918,0.517588,-0.235522,0.40464,0.0775255,0.00966277,0,-0.166893,0.383918,201,-107,201,-107,335,-89,214,46,-0.0500062,-0.174533,0,-1.5,-nan,0,0,0,-0.235522,0.40464,0,0,0,0,0.0775255,0.00966277,21267,0,0,0,0,11063,0,0,0,0,2,-0.323712
11717,-3.21172e-12,9.0407e-38,-1.53875e-06,-3.27738e-12,9.04023e-38,0,-1.06635e-13,0,0,-3.3335,0.383918,0.517588,-0.234364,0.404784,0.0769456,0.00959049,0,-0.166893,0.383918,201,-107,201,-107,335,-89,214,46,-0.0500127,-0.174533,0,-1.5,-nan,0,0,0,-0.234364,0.404784,0,0,0,0,0.0769456,0.00959049,21267,0,0,0,0,11063,0,0,0,0,2,-0.323827
11733,-3.21172e-12,9.0407e-38,-1.53875e-06,-3.27738e-12,9.04023e-38,0,-1.06635e-13,0,0,-3.3335,0.383918,0.517588,-0.23314,0.404937,0.0763318,0.00951398,0,-0.166893,0.383918,201,-107,201,-107,335,-89,214,46,-0.0500195,-0.174533,0,-1.5,-nan,0,0,0,-0.23314,0.404937,0,0,0,0,0.0763318,0.00951398,21267,0,0,0,0,11063,0,0,0,0,2,-0.32395
11748,-3.21172e-12,9.0407e-38,-1.53875e-06,-3.27738e-12,9.04023e-38,0,-1.06635e-13,0,0,-3.3335,0.383918,0.517588,-0.232,0.405079,0.0757608,0.00944282,0,-0.166893,0.383918,201,-107,201,-107,335,-89,214,46,-0.0500259,-0.174533,0,-1.5,-nan,0,0,0,-0.232,0.405079,0,0,0,0,0.0757608,0.00944282,21267,0,0,0,0,11063,0,0,0,0,2,-0.324063
11764,-3.21172e-12,9.0407e-38,-1.53875e-06,-3.27738e-12,9.04023e-38,0,-1.06635e-13,0,0,-3.3335,0.383918,0.517588,-0.230794,0.405229,0.0751564,0.00936748,0,-0.166893,0.383918,201,-107,201,-107,335,-89,214,46,-0.0500326,-0.174533,0,-1.5,-nan,0,0,0,-0.230794,0.405229,0,0,0,0,0.0751564,0.00936748,21267,0,0,0,0,11063,0,0,0,0,2,-0.324183
11780,-3.21172e-12,9.0407e-38,-1.53875e-06,-3.27738e-12,9.04023e-38,0,-1.06636e-13,0,0,-3.3335,0.383918,0.517588,-0.229672,0.405369,0.0745942,0.00929741,0,-0.166893,0.383918,201,-107,201,-107,335,-89,214,46,-0.0500389,-0.174533,0,-1.5,-nan,0,0,0,-0.229672,0.405369,0,0,0,0,0.0745942,0.00929741,21267,0,0,0,0,11063,0,0,0,0,2,-0.324295
11795,-3.21172e-12,9.0407e-38,-1.53875e-06,-3.27738e-12,9.04023e-38,0,-1.06636e-13,0,0,-3.3335,0.383918,0.517588,-0.228485,0.405517,0.0739991,0.00922324,0,-0.166893,0.383918,201,-107,201,-107,335,-89,214,46,-0.0500455,-0.174533,0,-1.5,-nan,0,0,0,-0.228485,0.405517,0,0,0,0,0.0739991,0.00922324,21267,0,0,0,0,11063,0,0,0,0,2,-0.324414
11810,-3.21172e-12,9.0407e-38,-1.53875e-06,-3.27738e-12,9.04023e-38,0,-1.06636e-13,0,0,-3.3335,0.383918,0.517588,-0.227381,0.405655,0.0734456,0.00915425,0,-0.166893,0.383918,201,-107,201,-107,335,-89,214,46,-0.0500517,-0.174533,0,-1.5,-nan,0,0,0,-0.227381,0.405655,0,0,0,0,0.0734456,0.00915425,21267,0,0,0,0,11063,0,0,0,0,2,-0.324524
11825,-3.21172e-12,9.0407e-38,-1.53875e-06,-3.27738e-12,9.04023e-38,0,-1.06636e-13,0,0,-3.3335,0.383918,0.517588,-0.226284,0.405791,0.0728963,0.00908578,0,-0.166893,0.383918,201,-107,201,-107,335,-89,214,46,-0.0500578,-0.174533,0,-1.5,-nan,0,0,0,-0.226284,0.405791,0,0,0,0,0.0728963,0.00908578,21267,0,0,0,0,11063,0,0,0,0,2,-0.324633
11843,-3.21172e-12,9.0407e-38,-1.53875e-06,-3.27738e-12,9.04023e-38,0,-1.06637e-13,0,0,-3.3335,0.383918,0.517588,-0.22498,0.405954,0.0722421,0.00900425,0,-0.166893,0.383918,201,-107,201,-107,335,-89,214,46,-0.0500651,-0.174533,0,-1.5,-nan,0,0,0,-0.22498,0.405954,0,0,0,0,0.0722421,0.00900425,21267,0,0,0,0,11063,0,0,0,0,2,-0.324763
11857,-3.21172e-12,9.0407e-38,-1.53875e-06,-3.27738e-12,9.04023e-38,0,-1.06637e-13,0,0,-3.3335,0.383918,0.517588,-0.223973,0.406079,0.0717377,0.00894138,0,-0.166893,0.383918,201,-107,201,-107,335,-89,214,46,-0.0500707,-0.174533,0,-1.5,-nan,0,0,0,-0.223973,0.406079,0,0,0,0,0.0717377,0.00894138,21267,0,0,0,0,11063,0,0,0,0,2,-0.324864
11871,-3.21172e-12,9.0407e-38,-1.53875e-06,-3.27738e-12,9.04023e-38,0,-1.06637e-13,0,0,-3.3335,0.383918,0.517588,-0.222973,0.406204,0.0712369,0.00887896,0,-0.166893,0.383918,201,-107,201,-107,335,-89,214,46,-0.0500763,-0.174533,0,-1.5,-nan,0,0,0,-0.222973,0.406204,0,0,0,0,0.0712369,0.00887896,21267,0,0,0,0,11063,0,0,0,0,2,-0.324963
11886,-3.21172e-12,9.0407e-38,-1.53875e-06,-3.27738e-12,9.04023e-38,0,-1.06638e-13,0,0,-3.3335,0.383918,0.517588,-0.22191,0.406337,0.0707041,0.00881255,0,-0.166893,0.383918,201,-107,201,-107,335,-89,214,46,-0.0500823,-0.174533,0,-1.5,-nan,0,0,0,-0.22191,0.406337,0,0,0,0,0.0707041,0.00881255,21267,0,0,0,0,11063,0,0,0,0,2,-0.325069
11902,-3.21172e-12,9.0407e-38,-1.53875e-06,-3.27738e-12,9.04023e-38,0,-1.06638e-13,0,0,-3.3335,0.383918,0.517588,-0.220854,0.406468,0.0701752,0.00874663,0,-0.166893,0.383918,201,-107,201,-107,335,-89,214,46,-0.0500882,-0.174533,0,-1.5,-nan,0,0,0,-0.220854,0.406468,0,0,0,0,0.0701752,0.00874663,21267,0,0,0,0,11063,0,0,0,0,2,-0.325175
11917,-3.21172e-12,9.0407e-38,-1.53875e-06,-3.27738e-12,9.04023e-38,0,-1.06638e-13,0,0,-3.3335,0.383918,0.517588,-0.219737,0.406607,0.0696154,0.00867686,0,-0.166893,0.383918,201,-107,201,-107,335,-89,214,46,-0.0500944,-0.174533,0,-1.5,-nan,0,0,0,-0.219737,0.406607,0,0,0,0,0.0696154,0.00867686,21267,0,0,0,0,11063,0,0,0,0,2,-0.325286
11932,-3.21172e-12,9.0407e-38,-1.53875e-06,-3.27738e-12,9.04023e-38,0,-1.06638e-13,0,0,-3.3335,0.383918,0.517588,-0.218698,0.406737,0.0690947,0.00861196,0,-0.166893,0.383918,201,-107,201,-107,335,-89,214,46,-0.0501002,-0.174533,0,-1.5,-nan,0,0,0,-0.218698,0.406737,0,0,0,0,0.0690947,0.00861196,21267,0,0,0,0,11063,0,0,0,0,2,-0.32539
11948,-3.21172e-12,9.0407e-38,-1.53875e-06,-3.27738e-12,9.04023e-38,0,-1.06639e-13,0,0,-3.3335,0.383918,0.517588,-0.217666,0.406866,0.0685779,0.00854754,0,-0.166893,0.383918,201,-107,201,-107,335,-89,214,46,-0.050106,-0.174533,0,-1.5,-nan,0,0,0,-0.217666,0.406866,0,0,0,0,0.0685779,0.00854754,21267,0,0,0,0,11063,0,0,0,0,2,-0.325492
11963,-3.21172e-12,9.0407e-38,-1.53875e-06,-3.27738e-12,9.04023e-38,0,-1.06639e-13,0,0,-3.3335,0.383918,0.517588,-0.216575,0.407002,0.0680308,0.00847935,0,-0.166893,0.383918,201,-107,201,-107,335,-89,214,46,-0.0501121,-0.174533,0,-1.5,-nan,0,0,0,-0.216575,0.407002,0,0,0,0,0.0680308,0.00847935,21267,0,0,0,0,11063,0,0,0,0,2,-0.325601
11978,-3.21172e-12,9.0407e-38,-1.53875e-06,-3.27738e-12,9.04023e-38,0,-1.06639e-13,0,0,-3.3335,0.383918,0.517588,-0.215559,0.407128,0.0675219,0.00841592,0,-0.166893,0.383918,201,-107,201,-107,335,-89,214,46,-0.0501178,-0.174533,0,-1.5,-nan,0,0,0,-0.215559,0.407128,0,0,0,0,0.0675219,0.00841592,21267,0,0,0,0,11063,0,0,0,0,2,-0.325703
11993,-3.21172e-12,9.0407e-38,-1.53875e-06,-3.27738e-12,9.04023e-38,0,-1.06639e-13,0,0,-3.3335,0.383918,0.517588,-0.214551,0.407254,0.0670168,0.00835297,0,-0.166893,0.383918,201,-107,201,-107,335,-89,214,46,-0.0501234,-0.174533,0,-1.5,-nan,0,0,0,-0.214551,0.407254,0,0,0,0,0.0670168,0.00835297,21267,0,0,0,0,11063,0,0,0,0,2,-0.325803
12009,-3.21172e-12,9.0407e-38,-1.53875e-06,-3.27738e-12,9.04023e-38,0,-1.0664e-13,0,0,-3.3335,0.383918,0.517588,-0.213485,0.407387,0.0664821,0.00828633,0,-0.166893,0.383918,201,-107,201,-107,335,-89,214,46,-0.0501294,-0.174533,0,-1.5,-nan,0,0,0,-0.213485,0.407387,0,0,0,0,0.0664821,0.00828633,21267,0,0,0,0,11063,0,0,0,0,2,-0.325909
12024,-3.21172e-12,9.0407e-38,-1.53875e-06,-3.27738e-12,9.04023e-38,0,-1.0664e-13,0,0,-3.3335,0.383918,0.517588,-0.212492,0.40751,0.0659849,0.00822435,0,-0.166893,0.383918,201,-107,201,-107,335,-89,214,46,-0.0501349,-0.174533,0,-1.5,-nan,0,0,0,-0.212492,0.40751,0,0,0,0,0.0659849,0.00822435,21267,0,0,0,0,11063,0,0,0,0,2,-0.326008
12038,-3.21172e-12,9.0407e-38,-1.53875e-06,-3.27738e-12,9.04023e-38,0,-1.0664e-13,0,0,-3.3335,0.383918,0.517588,-0.211573,0.407625,0.0655242,0.00816693,0,-0.166893,0.383918,201,-107,201,-107,335,-89,214,46,-0.05014,-0.174533,0,-1.5,-nan,0,0,0,-0.211573,0.407625,0,0,0,0,0.0655242,0.00816693,21267,0,0,0,0,11063,0,0,0,0,2,-0.3261
12051,-3.21172e-12,9.0407e-38,-1.53875e-06,-3.27738e-12,9.04023e-38,0,-1.0664e-13,0,0,-3.3335,0.383918,0.517588,-0.210724,0.407731,0.0650994,0.00811398,0,-0.166893,0.383918,201,-107,201,-107,335,-89,214,46,-0.0501448,-0.174533,0,-1.5,-nan,0,0,0,-0.210724,0.407731,0,0,0,0,0.0650994,0.00811398,21267,0,0,0,0,11063,0,0,0,0,2,-0.326185
12067,-3.21172e-12,9.0407e-38,-1.53875e-06,-3.27738e-12,9.04023e-38,0,-1.06641e-13,0,0,-3.3335,0.383918,0.517588,-0.209688,0.40786,0.0645801,0.00804926,0,-0.166893,0.383918,201,-107,201,-107,335,-89,214,46,-0.0501506,-0.174533,0,-1.5,-nan,0,0,0,-0.209688,0.40786,0,0,0,0,0.0645801,0.00804926,21267,0,0,0,0,11063,0,0,0,0,2,-0.326288
12082,-3.21172e-12,9.0407e-38,-1.53875e-06,-3.27738e-12,9.04023e-38,0,-1.06641e-13,0,0,-3.3335,0.383918,0.517588,-0.208724,0.40798,0.0640971,0.00798906,0,-0.166893,0.383918,201,-107,201,-107,335,-89,214,46,-0.050156,-0.174533,0,-1.5,-nan,0,0,0,-0.208724,0.40798,0,0,0,0,0.0640971,0.00798906,21267,0,0,0,0,11063,0,0,0,0,2,-0.326384
12098,-3.21172e-12,9.0407e-38,-1.53875e-06,-3.27738e-12,9.04023e-38,0,-1.06641e-13,0,0,-3.3335,0.383918,0.517588,-0.207704,0.408107,0.0635857,0.00792532,0,-0.166893,0.383918,201,-107,201,-107,335,-89,214,46,-0.0501617,-0.174533,0,-1.5,-nan,0,0,0,-0.207704,0.408107,0,0,0,0,0.0635857,0.00792532,21267,0,0,0,0,11063,0,0,0,0,2,-0.326486
12113,-3.21172e-12,9.0407e-38,-1.53875e-06,-3.27738e-12,9.04023e-38,0,-1.06642e-13,0,0,-3.3335,0.383918,0.517588,-0.206754,0.408226,0.0631101,0.00786604,0,-0.166893,0.383918,201,-107,201,-107,335,-89,214,46,-0.050167,-0.174533,0,-1.5,-nan,0,0,0,-0.206754,0.408226,0,0,0,0,0.0631101,0.00786604,21267,0,0,0,0,11063,0,0,0,0,2,-0.32658
12129,-3.21172e-12,9.0407e-38,-1.53875e-06,-3.27738e-12,9.04023e-38,0,-1.06642e-13,0,0,-3.3335,0.383918,0.517588,-0.20575,0.408351,0.0626067,0.00780329,0,-0.166893,0.383918,201,-107,201,-107,335,-89,214,46,-0.0501726,-0.174533,0,-1.5,-nan,0,0,0,-0.20575,0.408351,0,0,0,0,0.0626067,0.00780329,21267,0,0,0,0,11063,0,0,0,0,2,-0.326681
12144,-3.21172e-12,9.0407e-38,-1.53875e-06,-3.27738e-12,9.04023e-38,0,-1.06642e-13,0,0,-3.3335,0.383918,0.517588,-0.204815,0.408467,0.0621385,0.00774493,0,-0.166893,0.383918,201,-107,201,-107,335,-89,214,46,-0.0501778,-0.174533,0,-1.5,-nan,0,0,0,-0.204815,0.408467,0,0,0,0,0.0621385,0.00774493,21267,0,0,0,0,11063,0,0,0,0,2,-0.326774
12159,-3.21172e-12,9.0407e-38,-1.53875e-06,-3.27738e-12,9.04023e-38,0,-1.06642e-13,0,0,-3.3335,0.383918,0.517588,-0.203888,0.408583,0.0616737,0.007687,0,-0.166893,0.383918,201,-107,201,-107,335,-89,214,46,-0.050183,-0.174533,0,-1.5,-nan,0,0,0,-0.203888,0.408583,0,0,0,0,0.0616737,0.007687,21267,0,0,0,0,11063,0,0,0,0,2,-0.326866
12175,-3.21172e-12,9.0407e-38,-1.53875e-06,-3.27738e-12,9.04023e-38,0,-1.06643e-13,0,0,-3.3335,0.383918,0.517588,-0.202906,0.408705,0.0611817,0.00762568,0,-0.166893,0.383918,201,-107,201,-107,335,-89,214,46,-0.0501885,-0.174533,0,-1.5,-nan,0,0,0,-0.202906,0.408705,0,0,0,0,0.0611817,0.00762568,21267,0,0,0,0,11063,0,0,0,0,2,-0.326964
12190,-3.21172e-12,9.0407e-38,-1.53875e-06,-3.27738e-12,9.04023e-38,0,-1.06643e-13,0,0,-3.3335,0.383918,0.517588,-0.201992,0.408819,0.0607241,0.00756864,0,-0.166893,0.383918,201,-107,201,-107,335,-89,214,46,-0.0501936,-0.174533,0,-1.5,-nan,0,0,0,-0.201992,0.408819,0,0,0,0,0.0607241,0.00756864,21267,0,0,0,0,11063,0,0,0,0,2,-0.327055
12206,-3.21172e-12,9.0407e-38,-1.53875e-06,-3.27738e-12,9.04023e-38,0,-1.06643e-13,0,0,-3.3335,0.383918,0.517588,-0.201026,0.40894,0.0602396,0.00750826,0,-0.166893,0.383918,201,-107,201,-107,335,-89,214,46,-0.050199,-0.174533,0,-1.5,-nan,0,0,0,-0.201026,0.40894,0,0,0,0,0.0602396,0.00750826,21267,0,0,0,0,11063,0,0,0,0,2,-0.327152
12221,-3.21172e-12,9.0407e-38,-1.53875e-06,-3.27738e-12,9.04023e-38,0,-1.06643e-13,0,0,-3.3335,0.383918,0.517588,-0.200127,0.409052,0.059789,0.0074521,0,-0.166893,0.383918,201,-107,201,-107,335,-89,214,46,-0.050204,-0.174533,0,-1.5,-nan,0,0,0,-0.200127,0.409052,0,0,0,0,0.059789,0.0074521,21267,0,0,0,0,11063,0,0,0,0,2,-0.327241
12235,-3.21172e-12,9.0407e-38,-1.53875e-06,-3.27738e-12,9.04023e-38,0,-1.06644e-13,0,0,-3.3335,0.383918,0.517588,-0.199293,0.409156,0.0593716,0.00740008,0,-0.166893,0.383918,201,-107,201,-107,335,-89,214,46,-0.0502087,-0.174533,0,-1.5,-nan,0,0,0,-0.199293,0.409156,0,0,0,0,0.0593716,0.00740008,21267,0,0,0,0,11063,0,0,0,0,2,-0.327324
12250,-3.21172e-12,9.0407e-38,-1.53875e-06,-3.27738e-12,9.04023e-38,0,-1.06644e-13,0,0,-3.3335,0.383918,0.517588,-0.198407,0.409266,0.0589275,0.00734472,0,-0.166893,0.383918,201,-107,201,-107,335,-89,214,46,-0.0502136,-0.174533,0,-1.5,-nan,0,0,0,-0.198407,0.409266,0,0,0,0,0.0589275,0.00734472,21267,0,0,0,0,11063,0,0,0,0,2,-0.327413
12266,-3.21172e-12,9.0407e-38,-1.53875e-06,-3.27738e-12,9.04023e-38,0,-1.06644e-13,0,0,-3.3335,0.383918,0.517588,-0.197469,0.409383,0.0584574,0.00728613,0,-0.166893,0.383918,201,-107,201,-107,335,-89,214,46,-0.0502189,-0.174533,0,-1.5,-nan,0,0,0,-0.197469,0.409383,0,0,0,0,0.0584574,0.00728613,21267,0,0,0,0,11063,0,0,0,0,2,-0.327506
12281,-3.21172e-12,9.0407e-38,-1.53875e-06,-3.27738e-12,9.04023e-38,0,-1.06645e-13,0,0,-3.3335,0.383918,0.517588,-0.196596,0.409492,0.0580201,0.00723163,0,-0.166893,0.383918,201,-107,201,-107,335,-89,214,46,-0.0502237,-0.174533,0,-1.5,-nan,0,0,0,-0.196596,0.409492,0,0,0,0,0.0580201,0.00723163,21267,0,0,0,0,11063,0,0,0,0,2,-0.327593
12297,-3.21172e-12,9.0407e-38,-1.53875e-06,-3.27738e-12,9.04023e-38,0,-1.06645e-13,0,0,-3.3335,0.383918,0.517588,-0.195673,0.409607,0.0575572,0.00717393,0,-0.166893,0.383918,201,-107,201,-107,335,-89,214,46,-0.0502289,-0.174533,0,-1.5,-nan,0,0,0,-0.195673,0.409607,0,0,0,0,0.0575572,0.00717393,21267,0,0,0,0,11063,0,0,0,0,2,-0.327685
12313,-3.21172e-12,9.0407e-38,-1.53875e-06,-3.27738e-12,9.04023e-38,0,-1.06645e-13,0,0,-3.3335,0.383918,0.517588,-0.194814,0.409714,0.0571267,0.00712027,0,-0.166893,0.383918,201,-107,201,-107,335,-89,214,46,-0.0502337,-0.174533,0,-1.5,-nan,0,0,0,-0.194814,0.409714,0,0,0,0,0.0571267,0.00712027,21267,0,0,0,0,11063,0,0,0,0,2,-0.327771
12328,-3.21172e-12,9.0407e-38,-1.53875e-06,-3.27738e-12,9.04023e-38,0,-1.06645e-13,0,0,-3.3335,0.383918,0.517588,-0.193905,0.409827,0.056671,0.00706346,0,-0.166893,0.383918,201,-107,201,-107,335,-89,214,46,-0.0502388,-0.174533,0,-1.5,-nan,0,0,0,-0.193905,0.409827,0,0,0,0,0.056671,0.00706346,21267,0,0,0,0,11063,0,0,0,0,2,-0.327862
12343,-3.21172e-12,9.0407e-38,-1.53875e-06,-3.27738e-12,9.04023e-38,0,-1.06646e-13,0,0,-3.3335,0.383918,0.517588,-0.193059,0.409932,0.0562471,0.00701063,0,-0.166893,0.383918,201,-107,201,-107,335,-89,214,46,-0.0502435,-0.174533,0,-1.5,-nan,0,0,0,-0.193059,0.409932,0,0,0,0,0.0562471,0.00701063,21267,0,0,0,0,11063,0,0,0,0,2,-0.327946
12359,-3.21172e-12,9.0407e-38,-1.53875e-06,-3.27738e-12,9.04023e-38,0,-1.06646e-13,0,0,-3.3335,0.383918,0.517588,-0.192219,0.410037,0.0558263,0.00695819,0,-0.166893,0.383918,201,-107,201,-107,335,-89,214,46,-0.0502482,-0.174533,0,-1.5,-nan,0,0,0,-0.192219,0.410037,0,0,0,0,0.0558263,0.00695819,21267,0,0,0,0,11063,0,0,0,0,2,-0.32803
12374,-3.21172e-12,9.0407e-38,-1.53875e-06,-3.27738e-12,9.04023e-38,0,-1.06646e-13,0,0,-3.3335,0.383918,0.517588,-0.191331,0.410148,0.0553809,0.00690268,0,-0.166893,0.383918,201,-107,201,-107,335,-89,214,46,-0.0502531,-0.174533,0,-1.5,-nan,0,0,0,-0.191331,0.410148,0,0,0,0,0.0553809,0.00690268,21267,0,0,0,0,11063,0,0,0,0,2,-0.328118
12390,-3.21172e-12,9.0407e-38,-1.53875e-06,-3.27738e-12,9.04023e-38,0,-1.06646e-13,0,0,-3.3335,0.383918,0.517588,-0.190504,0.410251,0.0549667,0.00685104,0,-0.166893,0.383918,201,-107,201,-107,335,-89,214,46,-0.0502578,-0.174533,0,-1.5,-nan,0,0,0,-0.190504,0.410251,0,0,0,0,0.0549667,0.00685104,21267,0,0,0,0,11063,0,0,0,0,2,-0.328201
12405,-3.21172e-12,9.0407e-38,-1.53875e-06,-3.27738e-12,9.04023e-38,0,-1.06647e-13,0,0,-3.3335,0.383918,0.517588,-0.189629,0.41036,0.0545282,0.00679639,0,-0.166893,0.383918,201,-107,201,-107,335,-89,214,46,-0.0502627,-0.174533,0,-1.5,-nan,0,0,0,-0.189629,0.41036,0,0,0,0,0.0545282,0.00679639,21267,0,0,0,0,11063,0,0,0,0,2,-0.328288
12419,-3.21172e-12,9.0407e-38,-1.53875e-06,-3.27738e-12,9.04023e-38,0,-1.06647e-13,0,0,-3.3335,0.383918,0.517588,-0.188923,0.410448,0.0541746,0.00675232,0,-0.166893,0.383918,201,-107,201,-107,335,-89,214,46,-0.0502666,-0.174533,0,-1.5,-nan,0,0,0,-0.188923,0.410448,0,0,0,0,0.0541746,0.00675232,21267,0,0,0,0,11063,0,0,0,0,2,-0.328358
12432,-3.21172e-12,9.0407e-38,-1.53875e-06,-3.27738e-12,9.04023e-38,0,-1.06647e-13,0,0,-3.3335,0.383918,0.517588,-0.188168,0.410542,0.0537964,0.00670517,0,-0.166893,0.383918,201,-107,201,-107,335,-89,214,46,-0.0502708,-0.174533,0,-1.5,-nan,0,0,0,-0.188168,0.410542,0,0,0,0,0.0537964,0.00670517,21267,0,0,0,0,11063,0,0,0,0,2,-0.328434
12448,-3.21172e-12,9.0407e-38,-1.53875e-06,-3.27738e-12,9.04023e-38,0,-1.06648e-13,0,0,-3.3335,0.383918,0.517588,-0.187365,0.410642,0.053394,0.00665502,0,-0.166893,0.383918,201,-107,201,-107,335,-89,214,46,-0.0502753,-0.174533,0,-1.5,-nan,0,0,0,-0.187365,0.410642,0,0,0,0,0.053394,0.00665502,21267,0,0,0,0,11063,0,0,0,0,2,-0.328514
12463,-3.21172e-12,9.0407e-38,-1.53875e-06,-3.27738e-12,9.04023e-38,0,-1.06648e-13,0,0,-3.3335,0.383918,0.517588,-0.186515,0.410748,0.052968,0.00660193,0,-0.166893,0.383918,201,-107,201,-107,335,-89,214,46,-0.0502801,-0.174533,0,-1.5,-nan,0,0,0,-0.186515,0.410748,0,0,0,0,0.052968,0.00660193,21267,0,0,0,0,11063,0,0,0,0,2,-0.328598
12478,-3.21172e-12,9.0407e-38,-1.53875e-06,-3.27738e-12,9.04023e-38,0,-1.06648e-13,0,0,-3.3335,0.383918,0.517588,-0.185724,0.410847,0.0525718,0.00655255,0,-0.166893,0.383918,201,-107,201,-107,335,-89,214,46,-0.0502845,-0.174533,0,-1.5,-nan,0,0,0,-0.185724,0.410847,0,0,0,0,0.0525718,0.00655255,21267,0,0,0,0,11063,0,0,0,0,2,-0.328677
12494,-3.21172e-12,9.0407e-38,-1.53875e-06,-3.27738e-12,9.04023e-38,0,-1.06648e-13,0,0,-3.3335,0.383918,0.517588,-0.184887,0.410951,0.0521525,0.00650028,0,-0.166893,0.383918,201,-107,201,-107,335,-89,214,46,-0.0502892,-0.174533,0,-1.5,-nan,0,0,0,-0.184887,0.410951,0,0,0,0,0.0521525,0.00650028,21267,0,0,0,0,11063,0,0,0,0,2,-0.328761
