timestamp,A_x,A_y,A_z,P,Q,R,Phi,Theta,Psi,poseX,poseY,poseZ,state_X,state_Y,state_Z,state_VzB,state_Bx,state_By,state_Bz,p1_x,p1_y,p2_x,p2_y,p3_x,p3_y,p4_x,p4_y,roll,pitch,yaw,alt,targetHeading,highLevelState,lowLevelState,gateNumber,filtered_x,filtered_y,x_OT,y_OT,vx_OT,vy_OT,filtered_vx,filtered_vygateArearansac_corr_x,ransac_corr_y,ransac_corr_vx,ransac_corr_vy,detectionTimeStamppTermX,dTermX,pTermY,dTermY,vxcmd,vycmd
8432,0,0,0,0,0,0,0,0,0,0,0,0,0,0,0,0,0,0,0,0,0,0,0,0,0,0,0,0,-0.375,0.0141372,-1.5,-nan,0,0,2,0,0,0,0,0,0,0,0,1.9603e-19,0,0,0,0,0,0,0,0,0,2.5,0
8972,-3.21173e-12,6.12064e-38,-1.54527e-06,-3.27738e-12,6.12017e-38,0,-1.06589e-13,0,0,0,0,0,0,0,0,0,0,0,0,0,0,0,0,0,0,0,0,0,-0.375,0.862366,-1.5,-nan,0,0,2,0,0,0,0,0,0,0,0,1.9603e-19,0,0,0,0,0,0,0,0,0,2.5,0
8988,-3.21173e-12,6.12064e-38,-1.54527e-06,-3.27738e-12,6.12017e-38,0,-1.0659e-13,0,0,0,0,0,0,0,0,0,0,0,0,0,0,0,0,0,0,0,0,0,-0.375,0.887499,-1.5,-nan,0,0,2,0,0,0,0,0,0,0,0,1.9603e-19,0,0,0,0,0,0,0,0,0,2.5,0
9004,-3.21173e-12,6.12064e-38,-1.54527e-06,-3.27738e-12,6.12017e-38,0,-1.0659e-13,0,0,0,0,0,0,0,0,0,0,0,0,0,0,0,0,0,0,0,0,0,-0.375,0.912632,-1.5,-nan,0,0,2,0,0,0,0,0,0,0,0,1.9603e-19,0,0,0,0,0,0,0,0,0,2.5,0
9020,-3.21173e-12,6.12064e-38,-1.54527e-06,-3.27738e-12,6.12017e-38,0,-1.0659e-13,0,0,0,0,0,0,0,0,0,0,0,0,0,0,0,0,0,0,0,0,0,-0.375,0.936194,-1.5,-nan,0,0,2,0,0,0,0,0,0,0,0,1.9603e-19,0,0,0,0,0,0,0,0,0,2.5,0
9035,-3.21173e-12,6.12064e-38,-1.54527e-06,-3.27738e-12,6.12017e-38,0,-1.0659e-13,0,0,0,0,0,0,0,0,0,0,0,0,0,0,0,0,0,0,0,0,0,-0.375,0.961326,-1.5,-nan,0,0,2,0,0,0,0,0,0,0,0,1.9603e-19,0,0,0,0,0,0,0,0,0,2.5,0
9051,-3.21173e-12,6.12064e-38,-1.54527e-06,-3.27738e-12,6.12017e-38,0,-1.06591e-13,0,0,0,0,0,0,0,0,0,0,0,0,0,0,0,0,0,0,0,0,0,-0.375,0.986459,-1.5,-nan,0,0,2,0,0,0,0,0,0,0,0,1.9603e-19,0,0,0,0,0,0,0,0,0,2.5,0
9066,-3.21173e-12,6.12064e-38,-1.54527e-06,-3.27738e-12,6.12017e-38,0,-1.06591e-13,0,0,0,0,0,0,0,0,0,0,0,0,0,0,0,0,0,0,0,0,0,-0.375,1.01002,-1.5,-nan,0,0,2,0,0,0,0,0,0,0,0,1.9603e-19,0,0,0,0,0,0,0,0,0,2.5,0
9082,-3.21173e-12,6.12064e-38,-1.54527e-06,-3.27738e-12,6.12017e-38,0,-1.06591e-13,0,0,0,0,0,0,0,0,0,0,0,0,0,0,0,0,0,0,0,0,0,-0.375,1.03515,-1.5,-nan,0,0,2,0,0,0,0,0,0,0,0,1.9603e-19,0,0,0,0,0,0,0,0,0,2.5,0
9100,-3.21173e-12,6.12064e-38,-1.54527e-06,-3.27738e-12,6.12017e-38,0,-1.06591e-13,0,0,0,0,0,0,0,0,0,0,0,0,0,0,0,0,0,0,0,0,0,-0.375,1.06186,-1.5,-nan,0,0,2,0,0,0,0,0,0,0,0,1.9603e-19,0,0,0,0,0,0,0,0,0,2.5,0
9131,-3.21173e-12,6.12064e-38,-1.54527e-06,-3.27738e-12,6.12017e-38,0,-1.06592e-13,0,0,0,0,0,0,0,0,0,0,0,0,0,0,0,0,0,0,0,0,0,-0.375,1.11212,-1.5,-nan,0,0,2,0,0,0,0,0,0,0,0,1.9603e-19,0,0,0,0,0,0,0,0,0,2.5,0
9146,-3.21173e-12,6.12064e-38,-1.54527e-06,-3.27738e-12,6.12017e-38,0,-1.06592e-13,0,0,0,0,0,0,0,0,0,0,0,0,0,0,0,0,0,0,0,0,0,-0.375,1.13569,-1.5,-nan,0,0,2,0,0,0,0,0,0,0,0,1.9603e-19,0,0,0,0,0,0,0,0,0,2.5,0
9162,-3.21173e-12,6.12064e-38,-1.54527e-06,-3.27738e-12,6.12017e-38,0,-1.06592e-13,0,0,0,0,0,0,0,0,0,0,0,0,0,0,0,0,0,0,0,0,0,-0.375,1.16082,-1.5,-nan,0,0,2,0,0,0,0,0,0,0,0,1.9603e-19,0,0,0,0,0,0,0,0,0,2.5,0
9178,-3.21173e-12,6.12064e-38,-1.54527e-06,-3.27738e-12,6.12017e-38,0,-1.06593e-13,0,0,0,0,0,0,0,0,0,0,0,0,0,0,0,0,0,0,0,0,0,-0.375,1.18595,-1.5,-nan,0,0,2,0,0,0,0,0,0,0,0,1.9603e-19,0,0,0,0,0,0,0,0,0,2.5,0
9195,-3.21173e-12,6.12064e-38,-1.54527e-06,-3.27738e-12,6.12017e-38,0,-1.06593e-13,0,0,0,0,0,0,0,0,0,0,0,0,0,0,0,0,0,0,0,0,0,-0.375,1.21265,-1.5,-nan,0,0,2,0,0,0,0,0,0,0,0,1.9603e-19,0,0,0,0,0,0,0,0,0,2.5,0
9265,-3.21173e-12,6.12064e-38,-1.54527e-06,-3.27738e-12,6.12017e-38,0,-1.06593e-13,0,0,0,0,0,0,0,0,0,0,0,0,0,0,0,0,0,0,0,0,0,-0.375,1.32261,-1.5,-nan,0,0,2,0,0,0,0,0,0,0,0,1.9603e-19,0,0,0,0,0,0,0,0,0,2.5,0
9281,-3.21173e-12,6.12064e-38,-1.54527e-06,-3.27738e-12,6.12017e-38,0,-1.06593e-13,0,0,0,0,0,0,0,0,0,0,0,0,0,0,0,0,0,0,0,0,0,-0.375,1.34617,-1.5,-nan,0,0,2,0,0,0,0,0,0,0,0,1.9603e-19,0,0,0,0,0,0,0,0,0,2.5,0
9297,-3.21173e-12,6.12064e-38,-1.54527e-06,-3.27738e-12,6.12017e-38,0,-1.06594e-13,0,0,0,0,0,0,0,0,0,0,0,0,0,0,0,0,0,0,0,0,0,-0.375,1.37288,-1.5,-nan,0,0,2,0,0,0,0,0,0,0,0,1.9603e-19,0,0,0,0,0,0,0,0,0,2.5,0
9313,-3.21173e-12,6.12064e-38,-1.54527e-06,-3.27738e-12,6.12017e-38,0,-1.06594e-13,0,0,0,0,0,0,0,0,0,0,0,0,0,0,0,0,0,0,0,0,0,-0.375,1.39644,-1.5,-nan,0,0,2,0,0,0,0,0,0,0,0,1.9603e-19,0,0,0,0,0,0,0,0,0,2.5,0
9329,-3.21173e-12,6.12064e-38,-1.54527e-06,-3.27738e-12,6.12017e-38,0,-1.06594e-13,0,0,0,0,0,0,0,0,0,0,0,0,0,0,0,0,0,0,0,0,0,-0.375,1.42314,-1.5,-nan,0,0,2,0,0,0,0,0,0,0,0,1.9603e-19,0,0,0,0,0,0,0,0,0,2.5,0
9342,-3.21173e-12,6.12064e-38,-1.54527e-06,-3.27738e-12,6.12017e-38,0,-1.06594e-13,0,0,0,0,0,0,0,0,0,0,0,0,0,0,0,0,0,0,0,0,0,-0.375,1.44199,-1.5,-nan,0,0,2,0,0,0,0,0,0,0,0,1.9603e-19,0,0,0,0,0,0,0,0,0,2.5,0
9355,-3.21173e-12,6.12064e-38,-1.54527e-06,-3.27738e-12,6.12017e-38,0,-1.06595e-13,0,0,0,0,0,0,0,0,0,0,0,0,0,0,0,0,0,0,0,0,0,-0.375,1.46398,-1.5,-nan,0,0,2,0,0,0,0,0,0,0,0,1.9603e-19,0,0,0,0,0,0,0,0,0,2.5,0
9371,-3.21173e-12,6.12064e-38,-1.54527e-06,-3.27738e-12,6.12017e-38,0,-1.06595e-13,0,0,0,0,0,0,0,0,0,0,0,0,0,0,0,0,0,0,0,0,0,-0.375,1.48755,-1.5,-nan,0,0,2,0,0,0,0,0,0,0,0,1.9603e-19,0,0,0,0,0,0,0,0,0,2.5,0
9386,-3.21173e-12,6.12064e-38,-1.54527e-06,-3.27738e-12,6.12017e-38,0,-1.06595e-13,0,0,0,0,0,0,0,0,0,0,0,0,0,0,0,0,0,0,0,0,0,-0.375,1.51268,-1.5,-nan,0,0,2,0,0,0,0,0,0,0,0,1.9603e-19,0,0,0,0,0,0,0,0,0,2.5,0
9402,-3.21173e-12,6.12064e-38,-1.54527e-06,-3.27738e-12,6.12017e-38,0,-1.06596e-13,0,0,0,0,0,0,0,0,0,0,0,0,0,0,0,0,0,0,0,0,0,-0.375,1.53781,-1.5,-nan,0,0,2,0,0,0,0,0,0,0,0,1.9603e-19,0,0,0,0,0,0,0,0,0,2.5,0
9418,-3.21173e-12,6.12064e-38,-1.54527e-06,-3.27738e-12,6.12017e-38,0,-1.06596e-13,0,0,0,0,0,0,0,0,0,0,0,0,0,0,0,0,0,0,0,0,0,-0.375,1.56294,-1.5,-nan,0,0,2,0,0,0,0,0,0,0,0,1.9603e-19,0,0,0,0,0,0,0,0,0,2.5,0
9435,-3.21173e-12,6.12064e-38,-1.54527e-06,-3.27738e-12,6.12017e-38,0,-1.06596e-13,0,0,0,0,0,0,0,0,0,0,0,0,0,0,0,0,0,0,0,0,0,-0.375,1.58965,-1.5,-nan,0,0,2,0,0,0,0,0,0,0,0,1.9603e-19,0,0,0,0,0,0,0,0,0,2.5,0
9450,-3.21173e-12,6.12064e-38,-1.54527e-06,-3.27738e-12,6.12017e-38,0,-1.06596e-13,0,0,0,0,0,0,0,0,0,0,0,0,0,0,0,0,0,0,0,0,0,-0.375,1.61321,-1.5,-nan,0,0,2,0,0,0,0,0,0,0,0,1.9603e-19,0,0,0,0,0,0,0,0,0,2.5,0
9466,-3.21173e-12,6.12064e-38,-1.54527e-06,-3.27738e-12,6.12017e-38,0,-1.06597e-13,0,0,0,0,0,0,0,0,0,0,0,0,0,0,0,0,0,0,0,0,0,-0.375,1.63834,-1.5,-nan,0,0,2,0,0,0,0,0,0,0,0,1.9603e-19,0,0,0,0,0,0,0,0,0,2.5,0
9482,-3.21173e-12,6.12064e-38,-1.54527e-06,-3.27738e-12,6.12017e-38,0,-1.06597e-13,0,0,0,0,0,0,0,0,0,0,0,0,0,0,0,0,0,0,0,0,0,-0.375,1.66347,-1.5,-nan,0,0,2,0,0,0,0,0,0,0,0,1.9603e-19,0,0,0,0,0,0,0,0,0,2.5,0
9498,-3.21173e-12,6.12064e-38,-1.54527e-06,-3.27738e-12,6.12017e-38,0,-1.06597e-13,0,0,0,0,0,0,0,0,0,0,0,0,0,0,0,0,0,0,0,0,0,-0.375,1.68861,-1.5,-nan,0,0,2,0,0,0,0,0,0,0,0,1.9603e-19,0,0,0,0,0,0,0,0,0,2.5,0
9514,-3.21173e-12,6.12064e-38,-1.54527e-06,-3.27738e-12,6.12017e-38,0,-1.06597e-13,0,0,0,0,0,0,0,0,0,0,0,0,0,0,0,0,0,0,0,0,0,-0.375,1.71374,-1.5,-nan,0,0,2,0,0,0,0,0,0,0,0,1.9603e-19,0,0,0,0,0,0,0,0,0,2.5,0
9530,-3.21173e-12,6.12064e-38,-1.54527e-06,-3.27738e-12,6.12017e-38,0,-1.06598e-13,0,0,0,0,0,0,0,0,0,0,0,0,0,0,0,0,0,0,0,0,0,-0.375,1.73887,-1.5,-nan,0,0,2,0,0,0,0,0,0,0,0,1.9603e-19,0,0,0,0,0,0,0,0,0,2.5,0
9546,-3.21173e-12,6.12064e-38,-1.54527e-06,-3.27738e-12,6.12017e-38,0,-1.06598e-13,0,0,0,0,0,0,0,0,0,0,0,0,0,0,0,0,0,0,0,0,0,-0.375,1.76401,-1.5,-nan,0,0,2,0,0,0,0,0,0,0,0,1.9603e-19,0,0,0,0,0,0,0,0,0,2.5,0
9562,-3.21173e-12,6.12064e-38,-1.54527e-06,-3.27738e-12,6.12017e-38,0,-1.06598e-13,0,0,0,0,0,0,0,0,0,0,0,0,0,0,0,0,0,0,0,0,0,-0.375,1.78914,-1.5,-nan,0,0,2,0,0,0,0,0,0,0,0,1.9603e-19,0,0,0,0,0,0,0,0,0,2.5,0
9578,-3.21173e-12,6.12064e-38,-1.54527e-06,-3.27738e-12,6.12017e-38,0,-1.06599e-13,0,0,0,0,0,0,0,0,0,0,0,0,0,0,0,0,0,0,0,0,0,-0.375,1.8127,-1.5,-nan,0,0,2,0,0,0,0,0,0,0,0,1.9603e-19,0,0,0,0,0,0,0,0,0,2.5,0
9595,-3.21173e-12,6.12064e-38,-1.54527e-06,-3.27738e-12,6.12017e-38,0,-1.06599e-13,0,0,0,0,0,0,0,0,0,0,0,0,0,0,0,0,0,0,0,0,0,-0.375,1.84098,-1.5,-nan,0,0,2,0,0,0,0,0,0,0,0,1.9603e-19,0,0,0,0,0,0,0,0,0,2.5,0
9610,-3.21173e-12,6.12064e-38,-1.54527e-06,-3.27738e-12,6.12017e-38,0,-1.06599e-13,0,0,0,0,0,0,0,0,0,0,0,0,0,0,0,0,0,0,0,0,0,-0.375,1.86454,-1.5,-nan,0,0,2,0,0,0,0,0,0,0,0,1.9603e-19,0,0,0,0,0,0,0,0,0,2.5,0
9626,-3.21173e-12,6.12064e-38,-1.54527e-06,-3.27738e-12,6.12017e-38,0,-1.06599e-13,0,0,0,0,0,0,0,0,0,0,0,0,0,0,0,0,0,0,0,0,0,-0.375,1.8881,-1.5,-nan,0,0,2,0,0,0,0,0,0,0,0,1.9603e-19,0,0,0,0,0,0,0,0,0,2.5,0
9639,-3.21173e-12,6.12064e-38,-1.54527e-06,-3.27738e-12,6.12017e-38,0,-1.066e-13,0,0,0,0,0,0,0,0,0,0,0,0,0,0,0,0,0,0,0,0,0,-0.375,1.91009,-1.5,-nan,0,0,2,0,0,0,0,0,0,0,0,1.9603e-19,0,0,0,0,0,0,0,0,0,2.5,0
9652,-3.21173e-12,6.12064e-38,-1.54527e-06,-3.27738e-12,6.12017e-38,0,-1.066e-13,0,0,0,0,0,0,0,0,0,0,0,0,0,0,0,0,0,0,0,0,0,-0.375,1.93051,-1.5,-nan,0,0,2,0,0,0,0,0,0,0,0,1.9603e-19,0,0,0,0,0,0,0,0,0,2.5,0
9667,-3.21173e-12,6.12064e-38,-1.54527e-06,-3.27738e-12,6.12017e-38,0,-1.066e-13,0,0,0,0,0,0,0,0,0,0,0,0,0,0,0,0,0,0,0,0,0,-0.375,1.95407,-1.5,-nan,0,0,2,0,0,0,0,0,0,0,0,1.9603e-19,0,0,0,0,0,0,0,0,0,2.5,0
9683,-3.21173e-12,6.12064e-38,-1.54527e-06,-3.27738e-12,6.12017e-38,0,-1.066e-13,0,0,0,0,0,0,0,0,0,0,0,0,0,0,0,0,0,0,0,0,0,-0.375,1.97764,-1.5,-nan,0,0,2,0,0,0,0,0,0,0,0,1.9603e-19,0,0,0,0,0,0,0,0,0,2.5,0
9699,-3.21173e-12,6.12064e-38,-1.54527e-06,-3.27738e-12,6.12017e-38,0,-1.06601e-13,0,0,0,0,0,0,0,0,0,0,0,0,0,0,0,0,0,0,0,0,0,-0.375,2.00277,-1.5,-nan,0,0,2,0,0,0,0,0,0,0,0,1.9603e-19,0,0,0,0,0,0,0,0,0,2.5,0
9714,-3.21173e-12,6.12064e-38,-1.54527e-06,-3.27738e-12,6.12017e-38,0,-1.06601e-13,0,0,0,0,0,0,0,0,0,0,0,0,0,0,0,0,0,0,0,0,0,-0.375,2.0279,-1.5,-nan,0,0,2,0,0,0,0,0,0,0,0,1.9603e-19,0,0,0,0,0,0,0,0,0,2.5,0
9730,-3.21173e-12,6.12064e-38,-1.54527e-06,-3.27738e-12,6.12017e-38,0,-1.06601e-13,0,0,0,0,0,0,0,0,0,0,0,0,0,0,0,0,0,0,0,0,0,-0.375,2.05303,-1.5,-nan,0,0,2,0,0,0,0,0,0,0,0,1.9603e-19,0,0,0,0,0,0,0,0,0,2.5,0
9747,-3.21173e-12,6.12064e-38,-1.54527e-06,-3.27738e-12,6.12017e-38,0,-1.06602e-13,0,0,0,0,0,0,0,0,0,0,0,0,0,0,0,0,0,0,0,0,0,-0.375,2.07974,-1.5,-nan,0,0,2,0,0,0,0,0,0,0,0,1.9603e-19,0,0,0,0,0,0,0,0,0,2.5,0
9763,-3.21173e-12,6.12064e-38,-1.54527e-06,-3.27738e-12,6.12017e-38,0,-1.06602e-13,0,0,0,0,0,0,0,0,0,0,0,0,0,0,0,0,0,0,0,0,0,-0.375,2.10487,-1.5,-nan,0,0,2,0,0,0,0,0,0,0,0,1.9603e-19,0,0,0,0,0,0,0,0,0,2.5,0
9778,-3.21173e-12,6.12064e-38,-1.54527e-06,-3.27738e-12,6.12017e-38,0,-1.06602e-13,0,0,0,0,0,0,0,0,0,0,0,0,0,0,0,0,0,0,0,0,0,-0.375,2.12843,-1.5,-nan,0,0,2,0,0,0,0,0,0,0,0,1.9603e-19,0,0,0,0,0,0,0,0,0,2.5,0
9794,-3.21173e-12,6.12064e-38,-1.54527e-06,-3.27738e-12,6.12017e-38,0,-1.06602e-13,0,0,0,0,0,0,0,0,0,0,0,0,0,0,0,0,0,0,0,0,0,-0.375,2.15357,-1.5,-nan,0,0,2,0,0,0,0,0,0,0,0,1.9603e-19,0,0,0,0,0,0,0,0,0,2.5,0
9810,-3.21173e-12,6.12064e-38,-1.54527e-06,-3.27738e-12,6.12017e-38,0,-1.06603e-13,0,0,0,0,0,0,0,0,0,0,0,0,0,0,0,0,0,0,0,0,0,-0.375,2.1787,-1.5,-nan,0,0,2,0,0,0,0,0,0,0,0,1.9603e-19,0,0,0,0,0,0,0,0,0,2.5,0
9827,-3.21173e-12,6.12064e-38,-1.54527e-06,-3.27738e-12,6.12017e-38,0,-1.06603e-13,0,0,0,0,0,0,0,0,0,0,0,0,0,0,0,0,0,0,0,0,0,-0.375,2.20383,-1.5,-nan,0,0,2,0,0,0,0,0,0,0,0,1.9603e-19,0,0,0,0,0,0,0,0,0,2.5,0
9842,-3.21173e-12,6.12064e-38,-1.54527e-06,-3.27738e-12,6.12017e-38,0,-1.06603e-13,0,0,0,0,0,0,0,0,0,0,0,0,0,0,0,0,0,0,0,0,0,-0.375,2.22896,-1.5,-nan,0,0,2,0,0,0,0,0,0,0,0,1.9603e-19,0,0,0,0,0,0,0,0,0,2.5,0
9857,-3.21173e-12,6.12064e-38,-1.54527e-06,-3.27738e-12,6.12017e-38,0,-1.06603e-13,0,0,0,0,0,0,0,0,0,0,0,0,0,0,0,0,0,0,0,0,0,-0.375,2.25253,-1.5,-nan,0,0,2,0,0,0,0,0,0,0,0,1.9603e-19,0,0,0,0,0,0,0,0,0,2.5,0
9873,-3.21173e-12,6.12064e-38,-1.54527e-06,-3.27738e-12,6.12017e-38,0,-1.06604e-13,0,0,0,0,0,0,0,0,0,0,0,0,0,0,0,0,0,0,0,0,0,-0.375,2.27766,-1.5,-nan,0,0,2,0,0,0,0,0,0,0,0,1.9603e-19,0,0,0,0,0,0,0,0,0,2.5,0
9889,-3.21173e-12,6.12064e-38,-1.54527e-06,-3.27738e-12,6.12017e-38,0,-1.06604e-13,0,0,0,0,0,0,0,0,0,0,0,0,0,0,0,0,0,0,0,0,0,-0.375,2.30279,-1.5,-nan,0,0,2,0,0,0,0,0,0,0,0,1.9603e-19,0,0,0,0,0,0,0,0,0,2.5,0
9906,-3.21173e-12,6.12064e-38,-1.54527e-06,-3.27738e-12,6.12017e-38,0,-1.06604e-13,0,0,0,0,0,0,0,0,0,0,0,0,0,0,0,0,0,0,0,0,0,-0.375,2.3295,-1.5,-nan,0,0,2,0,0,0,0,0,0,0,0,1.9603e-19,0,0,0,0,0,0,0,0,0,2.5,0
9921,-3.21173e-12,6.12064e-38,-1.54527e-06,-3.27738e-12,6.12017e-38,0,-1.06605e-13,0,0,0,0,0,0,0,0,0,0,0,0,0,0,0,0,0,0,0,0,0,-0.375,2.35306,-1.5,-nan,0,0,2,0,0,0,0,0,0,0,0,1.9603e-19,0,0,0,0,0,0,0,0,0,2.5,0
9937,-3.21173e-12,6.12064e-38,-1.54527e-06,-3.27738e-12,6.12017e-38,0,-1.06605e-13,0,0,0,0,0,0,0,0,0,0,0,0,0,0,0,0,0,0,0,0,0,-0.375,2.37797,-1.5,-nan,0,0,2,0,0,0,0,0,0,0,0,1.9603e-19,0,0,0,0,0,0,0,0,0,2.5,0
9950,-3.21173e-12,6.12064e-38,-1.54527e-06,-3.27738e-12,6.12017e-38,0,-1.06605e-13,0,0,0,0,0,0,0,0,0,0,0,0,0,0,0,0,0,0,0,0,0,-0.375,2.39763,-1.5,-nan,0,0,2,0,0,0,0,0,0,0,0,1.9603e-19,0,0,0,0,0,0,0,0,0,2.5,0
9965,-3.21173e-12,6.12064e-38,-1.54527e-06,-3.27738e-12,6.12017e-38,0,-1.06605e-13,0,0,0,0,0,0,0,0,0,0,0,0,0,0,0,0,0,0,0,0,0,-0.375,2.41824,-1.5,-nan,0,0,2,0,0,0,0,0,0,0,0,1.9603e-19,0,0,0,0,0,0,0,0,0,2.5,0
9979,-3.21173e-12,6.12064e-38,-1.54527e-06,-3.27738e-12,6.12017e-38,0,-1.06606e-13,0,0,0,0,0,0,0,0,0,0,0,0,0,0,0,0,0,0,0,0,0,-0.375,2.4397,-1.5,-nan,0,0,2,0,0,0,0,0,0,0,0,1.9603e-19,0,0,0,0,0,0,0,0,0,2.5,0
9995,-3.21173e-12,6.12064e-38,-1.54527e-06,-3.27738e-12,6.12017e-38,0,-1.06606e-13,0,0,0,0,0,0,0,0,0,0,0,0,0,0,0,0,0,0,0,0,0,-0.375,2.4619,-1.5,-nan,0,0,2,0,0,0,0,0,0,0,0,1.9603e-19,0,0,0,0,0,0,0,0,0,2.5,0
10010,-3.21173e-12,6.12064e-38,-1.54527e-06,-3.27738e-12,6.12017e-38,0,-1.06606e-13,0,0,0,0,0,0,0,0,0,0,0,0,0,0,0,0,0,0,0,0,0,-0.375,2.48208,-1.5,-nan,0,0,2,0,0,0,0,0,0,0,0,1.9603e-19,0,0,0,0,0,0,0,0,0,2.5,0
10026,-3.21173e-12,6.12064e-38,-1.54527e-06,-3.27738e-12,6.12017e-38,0,-1.06606e-13,0,0,0,0,0,0,0,0,0,0,0,0,0,0,0,0,0,0,0,0,0,-0.375,2.50294,-1.5,-nan,0,0,2,0,0,0,0,0,0,0,0,1.9603e-19,0,0,0,0,0,0,0,0,0,2.5,0
10067,-3.21173e-12,6.12064e-38,-1.54527e-06,-3.27738e-12,6.12017e-38,0,-1.06607e-13,0,0,0,0,0,0,0,0,0,0,0,0,0,0,0,0,0,0,0,0,0,-0.375,2.5545,-1.5,-nan,0,0,2,0,0,0,0,0,0,0,0,1.9603e-19,0,0,0,0,0,0,0,0,0,2.5,0
10083,-3.21173e-12,6.12064e-38,-1.54527e-06,-3.27738e-12,6.12017e-38,0,-1.06607e-13,0,0,0,0,0,0,0,0,0,0,0,0,0,0,0,0,0,0,0,0,0,-0.375,2.57193,-1.5,-nan,0,0,2,0,0,0,0,0,0,0,0,1.9603e-19,0,0,0,0,0,0,0,0,0,2.5,0
10099,-3.21173e-12,6.12064e-38,-1.54527e-06,-3.27738e-12,6.12017e-38,0,-1.06607e-13,0,0,0,0,0,0,0,0,0,0,0,0,0,0,0,0,0,0,0,0,0,-0.375,2.58996,-1.5,-nan,0,0,2,0,0,0,0,0,0,0,0,1.9603e-19,0,0,0,0,0,0,0,0,0,2.5,0
10114,-3.21173e-12,6.12064e-38,-1.54527e-06,-3.27738e-12,6.12017e-38,0,-1.06607e-13,0,0,0,0,0,0,0,0,0,0,0,0,0,0,0,0,0,0,0,0,0,-0.375,2.60633,-1.5,-nan,0,0,2,0,0,0,0,0,0,0,0,1.9603e-19,0,0,0,0,0,0,0,0,0,2.5,0
10130,-3.21173e-12,6.12064e-38,-1.54527e-06,-3.27738e-12,6.12017e-38,0,-1.06608e-13,0,0,0,0,0,0,0,0,0,0,0,0,0,0,0,0,0,0,0,0,0,-0.375,2.62327,-1.5,-nan,0,0,2,0,0,0,0,0,0,0,0,1.9603e-19,0,0,0,0,0,0,0,0,0,2.5,0
10146,-3.21173e-12,6.12064e-38,-1.54527e-06,-3.27738e-12,6.12017e-38,0,-1.06608e-13,0,0,0,0,0,0,0,0,0,0,0,0,0,0,0,0,0,0,0,0,0,-0.375,2.63967,-1.5,-nan,0,0,2,0,0,0,0,0,0,0,0,1.9603e-19,0,0,0,0,0,0,0,0,0,2.5,0
10163,-3.21173e-12,6.12064e-38,-1.54527e-06,-3.27738e-12,6.12017e-38,0,-1.06608e-13,0,0,0,0,0,0,0,0,0,0,0,0,0,0,0,0,0,0,0,0,0,-0.375,2.65655,-1.5,-nan,0,0,2,0,0,0,0,0,0,0,0,1.9603e-19,0,0,0,0,0,0,0,0,0,2.5,0
10179,-3.21173e-12,6.12064e-38,-1.54527e-06,-3.27738e-12,6.12017e-38,0,-1.06609e-13,0,0,0,0,0,0,0,0,0,0,0,0,0,0,0,0,0,0,0,0,0,-0.375,2.67189,-1.5,-nan,0,0,2,0,0,0,0,0,0,0,0,1.9603e-19,0,0,0,0,0,0,0,0,0,2.5,0
10195,-3.21173e-12,6.12064e-38,-1.54527e-06,-3.27738e-12,6.12017e-38,0,-1.06609e-13,0,0,0,0,0,0,0,0,0,0,0,0,0,0,0,0,0,0,0,0,0,-0.375,2.68675,-1.5,-nan,0,0,2,0,0,0,0,0,0,0,0,1.9603e-19,0,0,0,0,0,0,0,0,0,2.5,0
10210,-3.21173e-12,6.12064e-38,-1.54527e-06,-3.27738e-12,6.12017e-38,0,-1.06609e-13,0,0,0,0,0,0,0,0,0,0,0,0,0,0,0,0,0,0,0,0,0,-0.375,2.70025,-1.5,-nan,0,0,2,0,0,0,0,0,0,0,0,1.9603e-19,0,0,0,0,0,0,0,0,0,2.5,0
10226,-3.21173e-12,6.12064e-38,-1.54527e-06,-3.27738e-12,6.12017e-38,0,-1.06609e-13,0,0,0,0,0,0,0,0,0,0,0,0,0,0,0,0,0,0,0,0,0,-0.375,2.71421,-1.5,-nan,0,0,2,0,0,0,0,0,0,0,0,1.9603e-19,0,0,0,0,0,0,0,0,0,2.5,0
10241,-3.21173e-12,6.12064e-38,-1.54527e-06,-3.27738e-12,6.12017e-38,0,-1.0661e-13,0,0,0,0,0,0,0,0,0,0,0,0,0,0,0,0,0,0,0,0,0,-0.375,2.72689,-1.5,-nan,0,0,2,0,0,0,0,0,0,0,0,1.9603e-19,0,0,0,0,0,0,0,0,0,2.5,0
10257,-3.21173e-12,6.12064e-38,-1.54527e-06,-3.27738e-12,6.12017e-38,0,-1.0661e-13,0,0,0,0,0,0,0,0,0,0,0,0,0,0,0,0,0,0,0,0,0,-0.375,2.74002,-1.5,-nan,0,0,2,0,0,0,0,0,0,0,0,1.9603e-19,0,0,0,0,0,0,0,0,0,2.5,0
10273,-3.21173e-12,6.12064e-38,-1.54527e-06,-3.27738e-12,6.12017e-38,0,-1.0661e-13,0,0,0,0,0,0,0,0,0,0,0,0,0,0,0,0,0,0,0,0,0,-0.375,2.75273,-1.5,-nan,0,0,2,0,0,0,0,0,0,0,0,1.9603e-19,0,0,0,0,0,0,0,0,0,2.5,0
10287,-3.21173e-12,6.12064e-38,-1.54527e-06,-3.27738e-12,6.12017e-38,0,-1.0661e-13,0,0,0,0,0,0,0,0,0,0,0,0,0,0,0,0,0,0,0,0,0,-0.375,2.7635,-1.5,-nan,0,0,2,0,0,0,0,0,0,0,0,1.9603e-19,0,0,0,0,0,0,0,0,0,2.5,0
10301,-3.21173e-12,6.12064e-38,-1.54527e-06,-3.27738e-12,6.12017e-38,0,-1.06611e-13,0,0,0,0,0,0,0,0,0,0,0,0,0,0,0,0,0,0,0,0,0,-0.375,2.77323,-1.5,-nan,0,0,2,0,0,0,0,0,0,0,0,1.9603e-19,0,0,0,0,0,0,0,0,0,2.5,0
10316,-3.21173e-12,6.12064e-38,-1.54527e-06,-3.27738e-12,6.12017e-38,0,-1.06611e-13,0,0,0,0,0,0,0,0,0,0,0,0,0,0,0,0,0,0,0,0,0,-0.375,2.78488,-1.5,-nan,0,0,2,0,0,0,0,0,0,0,0,1.9603e-19,0,0,0,0,0,0,0,0,0,2.5,0
10333,-3.21173e-12,6.12064e-38,-1.54527e-06,-3.27738e-12,6.12017e-38,0,-1.06611e-13,0,0,0,0,0,0,0,0,0,0,0,0,0,0,0,0,0,0,0,0,0,-0.375,2.79617,-1.5,-nan,0,0,2,0,0,0,0,0,0,0,0,1.9603e-19,0,0,0,0,0,0,0,0,0,2.5,0
10349,-3.21173e-12,6.12064e-38,-1.54527e-06,-3.27738e-12,6.12017e-38,0,-1.06612e-13,0,0,0,0,0,0,0,0,0,0,0,0,0,0,0,0,0,0,0,0,0,-0.375,2.80778,-1.5,-nan,0,0,2,0,0,0,0,0,0,0,0,1.9603e-19,0,0,0,0,0,0,0,0,0,2.5,0
10365,-3.21173e-12,6.12064e-38,-1.54527e-06,-3.27738e-12,6.12017e-38,0,-1.06612e-13,0,0,0,0,0,0,0,0,0,0,0,0,0,0,0,0,0,0,0,0,0,-0.375,2.81834,-1.5,-nan,0,0,2,0,0,0,0,0,0,0,0,1.9603e-19,0,0,0,0,0,0,0,0,0,2.5,0
10381,-3.21173e-12,6.12064e-38,-1.54527e-06,-3.27738e-12,6.12017e-38,0,-1.06612e-13,0,0,0,0,0,0,0,0,0,0,0,0,0,0,0,0,0,0,0,0,0,-0.375,2.82794,-1.5,-nan,0,0,2,0,0,0,0,0,0,0,0,1.9603e-19,0,0,0,0,0,0,0,0,0,2.5,0
10397,-3.21173e-12,6.12064e-38,-1.54527e-06,-3.27738e-12,6.12017e-38,0,-1.06612e-13,0,0,0,0,0,0,0,0,0,0,0,0,0,0,0,0,0,0,0,0,0,-0.375,2.83847,-1.5,-nan,0,0,2,0,0,0,0,0,0,0,0,1.9603e-19,0,0,0,0,0,0,0,0,0,2.5,0
10413,-3.21173e-12,6.12064e-38,-1.54527e-06,-3.27738e-12,6.12017e-38,0,-1.06613e-13,0,0,0,0,0,0,0,0,0,0,0,0,0,0,0,0,0,0,0,0,0,-0.375,2.84747,-1.5,-nan,0,0,2,0,0,0,0,0,0,0,0,1.9603e-19,0,0,0,0,0,0,0,0,0,2.5,0
10430,-3.21173e-12,6.12064e-38,-1.54527e-06,-3.27738e-12,6.12017e-38,0,-1.06613e-13,0,0,0,0,0,0,0,0,0,0,0,0,0,0,0,0,0,0,0,0,0,-0.375,2.85793,-1.5,-nan,0,0,2,0,0,0,0,0,0,0,0,1.9603e-19,0,0,0,0,0,0,0,0,0,2.5,0
10445,-3.21173e-12,6.12064e-38,-1.54527e-06,-3.27738e-12,6.12017e-38,0,-1.06613e-13,0,0,0,0,0,0,0,0,0,0,0,0,0,0,0,0,0,0,0,0,0,-0.375,2.86635,-1.5,-nan,0,0,2,0,0,0,0,0,0,0,0,1.9603e-19,0,0,0,0,0,0,0,0,0,2.5,0
10461,-3.21173e-12,6.12064e-38,-1.54527e-06,-3.27738e-12,6.12017e-38,0,-1.06613e-13,0,0,0,0,0,0,0,0,0,0,0,0,0,0,0,0,0,0,0,0,0,-0.375,2.87506,-1.5,-nan,0,0,2,0,0,0,0,0,0,0,0,1.9603e-19,0,0,0,0,0,0,0,0,0,2.5,0
10477,-3.21173e-12,6.12064e-38,-1.54527e-06,-3.27738e-12,6.12017e-38,0,-1.06614e-13,0,0,0,0,0,0,0,0,0,0,0,0,0,0,0,0,0,0,0,0,0,-0.375,2.88349,-1.5,-nan,0,0,2,0,0,0,0,0,0,0,0,1.9603e-19,0,0,0,0,0,0,0,0,0,2.5,0
10493,-3.21173e-12,6.12064e-38,-1.54527e-06,-3.27738e-12,6.12017e-38,0,-1.06614e-13,0,0,0,0,0,0,0,0,0,0,0,0,0,0,0,0,0,0,0,0,0,-0.375,2.89165,-1.5,-nan,0,0,2,0,0,0,0,0,0,0,0,1.9603e-19,0,0,0,0,0,0,0,0,0,2.5,0
10509,-3.21173e-12,6.12064e-38,-1.54527e-06,-3.27738e-12,6.12017e-38,0,-1.06614e-13,0,0,0,0,0,0,0,0,0,0,0,0,0,0,0,0,0,0,0,0,0,-0.375,2.89957,-1.5,-nan,0,0,2,0,0,0,0,0,0,0,0,1.9603e-19,0,0,0,0,0,0,0,0,0,2.5,0
10525,-3.21173e-12,6.12064e-38,-1.54527e-06,-3.27738e-12,6.12017e-38,0,-1.06615e-13,0,0,0,0,0,0,0,0,0,0,0,0,0,0,0,0,0,0,0,0,0,-0.375,2.90722,-1.5,-nan,0,0,2,0,0,0,0,0,0,0,0,1.9603e-19,0,0,0,0,0,0,0,0,0,2.5,0
10575,-3.21173e-12,6.12064e-38,-1.54527e-06,-3.27738e-12,6.12017e-38,0,-1.06615e-13,0,0,0,0,0,0,0,0,0,0,0,0,0,0,0,0,0,0,0,0,0,-0.375,2.93029,-1.5,-nan,0,0,2,0,0,0,0,0,0,0,0,1.9603e-19,0,0,0,0,0,0,0,0,0,2.5,0
10591,-3.21173e-12,6.12064e-38,-1.54527e-06,-3.27738e-12,6.12017e-38,0,-1.06615e-13,0,0,0,0,0,0,0,0,0,0,0,0,0,0,0,0,0,0,0,0,0,-0.375,2.93697,-1.5,-nan,0,0,2,0,0,0,0,0,0,0,0,1.9603e-19,0,0,0,0,0,0,0,0,0,2.5,0
10607,-3.21173e-12,6.12064e-38,-1.54527e-06,-3.27738e-12,6.12017e-38,0,-1.06615e-13,0,0,0,0,0,0,0,0,0,0,0,0,0,0,0,0,0,0,0,0,0,-0.375,2.94344,-1.5,-nan,0,0,2,0,0,0,0,0,0,0,0,1.9603e-19,0,0,0,0,0,0,0,0,0,2.5,0
10625,-3.21173e-12,6.12064e-38,-1.54527e-06,-3.27738e-12,6.12017e-38,0,-1.06616e-13,0,0,0,0,0,0,0,0,0,0,0,0,0,0,0,0,0,0,0,0,0,-0.375,2.95049,-1.5,-nan,0,0,2,0,0,0,0,0,0,0,0,1.9603e-19,0,0,0,0,0,0,0,0,0,2.5,0
10639,-3.21173e-12,6.12064e-38,-1.54527e-06,-3.27738e-12,6.12017e-38,0,-1.06616e-13,0,0,0,0,0,0,0,0,0,0,0,0,0,0,0,0,0,0,0,0,0,-0.375,2.95578,-1.5,-nan,0,0,2,0,0,0,0,0,0,0,0,1.9603e-19,0,0,0,0,0,0,0,0,0,2.5,0
10652,-3.21173e-12,6.12064e-38,-1.54527e-06,-3.27738e-12,6.12017e-38,0,-1.06616e-13,0,0,0,0,0,0,0,0,0,0,0,0,0,0,0,0,0,0,0,0,0,-0.375,2.9602,-1.5,-nan,0,0,2,0,0,0,0,0,0,0,0,1.9603e-19,0,0,0,0,0,0,0,0,0,2.5,0
10668,-3.21173e-12,6.12064e-38,-1.54527e-06,-3.27738e-12,6.12017e-38,0,-1.06616e-13,0,0,0,0,0,0,0,0,0,0,0,0,0,0,0,0,0,0,0,0,0,-0.375,2.96594,-1.5,-nan,0,0,2,0,0,0,0,0,0,0,0,1.9603e-19,0,0,0,0,0,0,0,0,0,2.5,0
10684,-3.21173e-12,6.12064e-38,-1.54527e-06,-3.27738e-12,6.12017e-38,0,-1.06617e-13,0,0,0,0,0,0,0,0,0,0,0,0,0,0,0,0,0,0,0,0,0,-0.375,2.97149,-1.5,-nan,0,0,2,0,0,0,0,0,0,0,0,1.9603e-19,0,0,0,0,0,0,0,0,0,2.5,0
10701,-3.21173e-12,6.12064e-38,-1.54527e-06,-3.27738e-12,6.12017e-38,0,-1.06617e-13,0,0,0,0,0,0,0,0,0,0,0,0,0,0,0,0,0,0,0,0,0,-0.375,2.97721,-1.5,-nan,0,0,2,0,0,0,0,0,0,0,0,1.9603e-19,0,0,0,0,0,0,0,0,0,2.5,0
10716,-3.21173e-12,6.12064e-38,-1.54527e-06,-3.27738e-12,6.12017e-38,0,-1.06617e-13,0,0,0,0,0,0,0,0,0,0,0,0,0,0,0,0,0,0,0,0,0,-0.375,2.98209,-1.5,-nan,0,0,2,0,0,0,0,0,0,0,0,1.9603e-19,0,0,0,0,0,0,0,0,0,2.5,0
10732,-3.21173e-12,6.12064e-38,-1.54527e-06,-3.27738e-12,6.12017e-38,0,-1.06618e-13,0,0,0,0,0,0,0,0,0,0,0,0,0,0,0,0,0,0,0,0,0,-0.375,2.98714,-1.5,-nan,0,0,2,0,0,0,0,0,0,0,0,1.9603e-19,0,0,0,0,0,0,0,0,0,2.5,0
10748,-3.21173e-12,6.12064e-38,-1.54527e-06,-3.27738e-12,6.12017e-38,0,-1.06618e-13,0,0,0,0,0,0,0,0,0,0,0,0,0,0,0,0,0,0,0,0,0,-0.375,2.99202,-1.5,-nan,0,0,2,0,0,0,0,0,0,0,0,1.9603e-19,0,0,0,0,0,0,0,0,0,2.5,0
10764,-3.21173e-12,6.12064e-38,-1.54527e-06,-3.27738e-12,6.12017e-38,0,-1.06618e-13,0,0,0,0,0,0,0,0,0,0,0,0,0,0,0,0,0,0,0,0,0,-0.375,2.99675,-1.5,-nan,0,0,2,0,0,0,0,0,0,0,0,1.9603e-19,0,0,0,0,0,0,0,0,0,2.5,0
10779,-3.21173e-12,6.12064e-38,-1.54527e-06,-3.27738e-12,6.12017e-38,0,-1.06618e-13,0,0,0,0,0,0,0,0,0,0,0,0,0,0,0,0,0,0,0,0,0,-0.375,3.00105,-1.5,-nan,0,0,2,0,0,0,0,0,0,0,0,1.9603e-19,0,0,0,0,0,0,0,0,0,2.5,0
10795,-3.21173e-12,6.12064e-38,-1.54527e-06,-3.27738e-12,6.12017e-38,0,-1.06619e-13,0,0,0,0,0,0,0,0,0,0,0,0,0,0,0,0,0,0,0,0,0,-0.375,3.0055,-1.5,-nan,0,0,2,0,0,0,0,0,0,0,0,1.9603e-19,0,0,0,0,0,0,0,0,0,2.5,0
10812,-3.21173e-12,6.12064e-38,-1.54527e-06,-3.27738e-12,6.12017e-38,0,-1.06619e-13,0,0,0,0,0,0,0,0,0,0,0,0,0,0,0,0,0,0,0,0,0,-0.375,3.01007,-1.5,-nan,0,0,2,0,0,0,0,0,0,0,0,1.9603e-19,0,0,0,0,0,0,0,0,0,2.5,0
10828,-3.21173e-12,6.12064e-38,-1.54527e-06,-3.27738e-12,6.12017e-38,0,-1.06619e-13,0,0,0,0,0,0,0,0,0,0,0,0,0,0,0,0,0,0,0,0,0,-0.375,3.01423,-1.5,-nan,0,0,2,0,0,0,0,0,0,0,0,1.9603e-19,0,0,0,0,0,0,0,0,0,2.5,0
10843,-3.21173e-12,6.12064e-38,-1.54527e-06,-3.27738e-12,6.12017e-38,0,-1.06619e-13,0,0,0,0,0,0,0,0,0,0,0,0,0,0,0,0,0,0,0,0,0,-0.375,3.01801,-1.5,-nan,0,0,2,0,0,0,0,0,0,0,0,1.9603e-19,0,0,0,0,0,0,0,0,0,2.5,0
10859,-3.21173e-12,6.12064e-38,-1.54527e-06,-3.27738e-12,6.12017e-38,0,-1.0662e-13,0,0,0,0,0,0,0,0,0,0,0,0,0,0,0,0,0,0,0,0,0,-0.375,3.02168,-1.5,-nan,0,0,2,0,0,0,0,0,0,0,0,1.9603e-19,0,0,0,0,0,0,0,0,0,2.5,0
10874,-3.21173e-12,6.12064e-38,-1.54527e-06,-3.27738e-12,6.12017e-38,0,-1.0662e-13,0,0,0,0,0,0,0,0,0,0,0,0,0,0,0,0,0,0,0,0,0,-0.375,3.02547,-1.5,-nan,0,0,2,0,0,0,0,0,0,0,0,1.9603e-19,0,0,0,0,0,0,0,0,0,2.5,0
10891,-3.21173e-12,6.12064e-38,-1.54527e-06,-3.27738e-12,6.12017e-38,0,-1.0662e-13,0,0,0,0,0,0,0,0,0,0,0,0,0,0,0,0,0,0,0,0,0,-0.375,3.02937,-1.5,-nan,0,0,2,0,0,0,0,0,0,0,0,1.9603e-19,0,0,0,0,0,0,0,0,0,2.5,0
10906,-3.21173e-12,6.12064e-38,-1.54527e-06,-3.27738e-12,6.12017e-38,0,-1.0662e-13,0,0,0,0,0,0,0,0,0,0,0,0,0,0,0,0,0,0,0,0,0,-0.375,3.03271,-1.5,-nan,0,0,2,0,0,0,0,0,0,0,0,1.9603e-19,0,0,0,0,0,0,0,0,0,2.5,0
10922,-3.21173e-12,6.12064e-38,-1.54527e-06,-3.27738e-12,6.12017e-38,0,-1.06621e-13,0,0,0,0,0,0,0,0,0,0,0,0,0,0,0,0,0,0,0,0,0,-0.375,3.03615,-1.5,-nan,0,0,2,0,0,0,0,0,0,0,0,1.9603e-19,0,0,0,0,0,0,0,0,0,2.5,0
10935,-3.21173e-12,6.12064e-38,-1.54527e-06,-3.27738e-12,6.12017e-38,0,-1.06621e-13,0,0,0,0,0,0,0,0,0,0,0,0,0,0,0,0,0,0,0,0,0,-0.375,3.03886,-1.5,-nan,0,0,2,0,0,0,0,0,0,0,0,1.9603e-19,0,0,0,0,0,0,0,0,0,2.5,0
10949,-3.21173e-12,6.12064e-38,-1.54527e-06,-3.27738e-12,6.12017e-38,0,-1.06621e-13,0,0,0,0,0,0,0,0,0,0,0,0,0,0,0,0,0,0,0,0,0,-0.375,3.04171,-1.5,-nan,0,0,2,0,0,0,0,0,0,0,0,1.9603e-19,0,0,0,0,0,0,0,0,0,2.5,0
10964,-3.21173e-12,6.12064e-38,-1.54527e-06,-3.27738e-12,6.12017e-38,0,-1.06622e-13,0,0,0,0,0,0,0,0,0,0,0,0,0,0,0,0,0,0,0,0,0,-0.375,3.04467,-1.5,-nan,0,0,2,0,0,0,0,0,0,0,0,1.9603e-19,0,0,0,0,0,0,0,0,0,2.5,0
10979,-3.21173e-12,6.12064e-38,-1.54527e-06,-3.27738e-12,6.12017e-38,0,-1.06622e-13,0,0,0,0,0,0,0,0,0,0,0,0,0,0,0,0,0,0,0,0,0,-0.375,3.04755,-1.5,-nan,0,0,2,0,0,0,0,0,0,0,0,1.9603e-19,0,0,0,0,0,0,0,0,0,2.5,0
10995,-3.21173e-12,6.12064e-38,-1.54527e-06,-3.27738e-12,6.12017e-38,0,-1.06622e-13,0,0,0,0,0,0,0,0,0,0,0,0,0,0,0,0,0,0,0,0,0,-0.375,3.05053,-1.5,-nan,0,0,2,0,0,0,0,0,0,0,0,1.9603e-19,0,0,0,0,0,0,0,0,0,2.5,0
11011,-3.21173e-12,6.12064e-38,-1.54527e-06,-3.27738e-12,6.12017e-38,0,-1.06622e-13,0,0,0,0,0,0,0,0,0,0,0,0,0,0,0,0,0,0,0,0,0,-0.375,3.05323,-1.5,-nan,0,0,2,0,0,0,0,0,0,0,0,1.9603e-19,0,0,0,0,0,0,0,0,0,2.5,0
11027,-3.21173e-12,6.12064e-38,-1.54527e-06,-3.27738e-12,6.12017e-38,0,-1.06623e-13,0,0,0,0,0,0,0,0,0,0,0,0,0,0,0,0,0,0,0,0,0,-0.375,3.0562,-1.5,-nan,0,0,2,0,0,0,0,0,0,0,0,1.9603e-19,0,0,0,0,0,0,0,0,0,2.5,0
11043,-3.21173e-12,6.12064e-38,-1.54527e-06,-3.27738e-12,6.12017e-38,0,-1.06623e-13,0,0,0,0,0,0,0,0,0,0,0,0,0,0,0,0,0,0,0,0,0,-0.375,3.0589,-1.5,-nan,0,0,2,0,0,0,0,0,0,0,0,1.9603e-19,0,0,0,0,0,0,0,0,0,2.5,0
11059,-3.21173e-12,6.12064e-38,-1.54527e-06,-3.27738e-12,6.12017e-38,0,-1.06623e-13,0,0,0,0,0,0,0,0,0,0,0,0,0,0,0,0,0,0,0,0,0,-0.375,3.06151,-1.5,-nan,0,0,2,0,0,0,0,0,0,0,0,1.9603e-19,0,0,0,0,0,0,0,0,0,2.5,0
11074,-3.21173e-12,6.12064e-38,-1.54527e-06,-3.27738e-12,6.12017e-38,0,-1.06623e-13,0,0,0,0,0,0,0,0,0,0,0,0,0,0,0,0,0,0,0,0,0,-0.375,3.06389,-1.5,-nan,0,0,2,0,0,0,0,0,0,0,0,1.9603e-19,0,0,0,0,0,0,0,0,0,2.5,0
11090,-3.21173e-12,6.12064e-38,-1.54527e-06,-3.27738e-12,6.12017e-38,0,-1.06624e-13,0,0,0,0,0,0,0,0,0,0,0,0,0,0,0,0,0,0,0,0,0,-0.375,3.0662,-1.5,-nan,0,0,2,0,0,0,0,0,0,0,0,1.9603e-19,0,0,0,0,0,0,0,0,0,2.5,0
11106,-3.21173e-12,6.12064e-38,-1.54527e-06,-3.27738e-12,6.12017e-38,0,-1.06624e-13,0,0,0,0,0,0,0,0,0,0,0,0,0,0,0,0,0,0,0,0,0,-0.375,3.06873,-1.5,-nan,0,0,2,0,0,0,0,0,0,0,0,1.9603e-19,0,0,0,0,0,0,0,0,0,2.5,0
11122,-3.21173e-12,6.12064e-38,-1.54527e-06,-3.27738e-12,6.12017e-38,0,-1.06624e-13,0,0,0,0,0,0,0,0,0,0,0,0,0,0,0,0,0,0,0,0,0,-0.375,3.07104,-1.5,-nan,0,0,2,0,0,0,0,0,0,0,0,1.9603e-19,0,0,0,0,0,0,0,0,0,2.5,0
11138,-3.21173e-12,6.12064e-38,-1.54527e-06,-3.27738e-12,6.12017e-38,0,-1.06625e-13,0,0,0,0,0,0,0,0,0,0,0,0,0,0,0,0,0,0,0,0,0,-0.375,3.07327,-1.5,-nan,0,0,2,0,0,0,0,0,0,0,0,1.9603e-19,0,0,0,0,0,0,0,0,0,2.5,0
11153,-3.21173e-12,6.12064e-38,-1.54527e-06,-3.27738e-12,6.12017e-38,0,-1.06625e-13,0,0,0,0,0,0,0,0,0,0,0,0,0,0,0,0,0,0,0,0,0,-0.375,3.0753,-1.5,-nan,0,0,2,0,0,0,0,0,0,0,0,1.9603e-19,0,0,0,0,0,0,0,0,0,2.5,0
11169,-3.21173e-12,6.12064e-38,-1.54527e-06,-3.27738e-12,6.12017e-38,0,-1.06625e-13,0,0,0,0,0,0,0,0,0,0,0,0,0,0,0,0,0,0,0,0,0,-0.375,3.07739,-1.5,-nan,0,0,2,0,0,0,0,0,0,0,0,1.9603e-19,0,0,0,0,0,0,0,0,0,2.5,0
11185,-3.21173e-12,6.12064e-38,-1.54527e-06,-3.27738e-12,6.12017e-38,0,-1.06625e-13,0,0,0,0,0,0,0,0,0,0,0,0,0,0,0,0,0,0,0,0,0,-0.375,3.07943,-1.5,-nan,0,0,2,0,0,0,0,0,0,0,0,1.9603e-19,0,0,0,0,0,0,0,0,0,2.5,0
11202,-3.21173e-12,6.12064e-38,-1.54527e-06,-3.27738e-12,6.12017e-38,0,-1.06626e-13,0,0,0,0,0,0,0,0,0,0,0,0,0,0,0,0,0,0,0,0,0,-0.375,3.08152,-1.5,-nan,0,0,2,0,0,0,0,0,0,0,0,1.9603e-19,0,0,0,0,0,0,0,0,0,2.5,0
11217,-3.21173e-12,6.12064e-38,-1.54527e-06,-3.27738e-12,6.12017e-38,0,-1.06626e-13,0,0,0,0,0,0,0,0,0,0,0,0,0,0,0,0,0,0,0,0,0,-0.375,3.0833,-1.5,-nan,0,0,2,0,0,0,0,0,0,0,0,1.9603e-19,0,0,0,0,0,0,0,0,0,2.5,0
11234,-3.21173e-12,6.12064e-38,-1.54527e-06,-3.27738e-12,6.12017e-38,0,-1.06626e-13,0,0,0,0,0,0,0,0,0,0,0,0,0,0,0,0,0,0,0,0,0,-0.375,3.08514,-1.5,-nan,0,0,2,0,0,0,0,0,0,0,0,1.9603e-19,0,0,0,0,0,0,0,0,0,2.5,0
11247,-3.21173e-12,6.12064e-38,-1.54527e-06,-3.27738e-12,6.12017e-38,0,-1.06626e-13,0,0,0,0,0,0,0,0,0,0,0,0,0,0,0,0,0,0,0,0,0,-0.375,3.08671,-1.5,-nan,0,0,2,0,0,0,0,0,0,0,0,1.9603e-19,0,0,0,0,0,0,0,0,0,2.5,0
11261,-3.21173e-12,6.12064e-38,-1.54527e-06,-3.27738e-12,6.12017e-38,0,-1.06627e-13,0,0,0,0,0,0,0,0,0,0,0,0,0,0,0,0,0,0,0,0,0,-0.375,3.08823,-1.5,-nan,0,0,2,0,0,0,0,0,0,0,0,1.9603e-19,0,0,0,0,0,0,0,0,0,2.5,0
11275,-3.21173e-12,6.12064e-38,-1.54527e-06,-3.27738e-12,6.12017e-38,0,-1.06627e-13,0,0,0,0,0,0,0,0,0,0,0,0,0,0,0,0,0,0,0,0,0,-0.375,3.08971,-1.5,-nan,0,0,2,0,0,0,0,0,0,0,0,1.9603e-19,0,0,0,0,0,0,0,0,0,2.5,0
11291,-3.21173e-12,6.12064e-38,-1.54527e-06,-3.27738e-12,6.12017e-38,0,-1.06627e-13,0,0,0,0,0,0,0,0,0,0,0,0,0,0,0,0,0,0,0,0,0,-0.375,3.09135,-1.5,-nan,0,0,2,0,0,0,0,0,0,0,0,1.9603e-19,0,0,0,0,0,0,0,0,0,2.5,0
11306,-3.21173e-12,6.12064e-38,-1.54527e-06,-3.27738e-12,6.12017e-38,0,-1.06628e-13,0,0,0,0,0,0,0,0,0,0,0,0,0,0,0,0,0,0,0,0,0,-0.375,3.09284,-1.5,-nan,0,0,2,0,0,0,0,0,0,0,0,1.9603e-19,0,0,0,0,0,0,0,0,0,2.5,0
11321,-3.21173e-12,6.12064e-38,-1.54527e-06,-3.27738e-12,6.12017e-38,0,-1.06628e-13,0,0,0,0,0,0,0,0,0,0,0,0,0,0,0,0,0,0,0,0,0,-0.375,3.09429,-1.5,-nan,0,0,2,0,0,0,0,0,0,0,0,1.9603e-19,0,0,0,0,0,0,0,0,0,2.5,0
11337,-3.21173e-12,6.12064e-38,-1.54527e-06,-3.27738e-12,6.12017e-38,0,-1.06628e-13,0,0,0,0,0,0,0,0,0,0,0,0,0,0,0,0,0,0,0,0,0,-0.375,3.09578,-1.5,-nan,0,0,2,0,0,0,0,0,0,0,0,1.9603e-19,0,0,0,0,0,0,0,0,0,2.5,0
11352,-3.21173e-12,6.12064e-38,-1.54527e-06,-3.27738e-12,6.12017e-38,0,-1.06628e-13,0,0,0,0,0,0,0,0,0,0,0,0,0,0,0,0,0,0,0,0,0,-0.375,3.09714,-1.5,-nan,0,0,2,0,0,0,0,0,0,0,0,1.9603e-19,0,0,0,0,0,0,0,0,0,2.5,0
11368,-3.21173e-12,6.12064e-38,-1.54527e-06,-3.27738e-12,6.12017e-38,0,-1.06629e-13,0,0,0,0,0,0,0,0,0,0,0,0,0,0,0,0,0,0,0,0,0,-0.375,3.09855,-1.5,-nan,0,0,2,0,0,0,0,0,0,0,0,1.9603e-19,0,0,0,0,0,0,0,0,0,2.5,0
11385,-3.21173e-12,6.12064e-38,-1.54527e-06,-3.27738e-12,6.12017e-38,0,-1.06629e-13,0,0,0,0,0,0,0,0,0,0,0,0,0,0,0,0,0,0,0,0,0,-0.375,3.09991,-1.5,-nan,0,0,2,0,0,0,0,0,0,0,0,1.9603e-19,0,0,0,0,0,0,0,0,0,2.5,0
11400,-3.21173e-12,6.12064e-38,-1.54527e-06,-3.27738e-12,6.12017e-38,0,-1.06629e-13,0,0,0,0,0,0,0,0,0,0,0,0,0,0,0,0,0,0,0,0,0,-0.375,3.10123,-1.5,-nan,0,0,2,0,0,0,0,0,0,0,0,1.9603e-19,0,0,0,0,0,0,0,0,0,2.5,0
11416,-3.21173e-12,6.12064e-38,-1.54527e-06,-3.27738e-12,6.12017e-38,0,-1.06629e-13,0,0,0,0,0,0,0,0,0,0,0,0,0,0,0,0,0,0,0,0,0,-0.375,3.10243,-1.5,-nan,0,0,2,0,0,0,0,0,0,0,0,1.9603e-19,0,0,0,0,0,0,0,0,0,2.5,0
11431,-3.21173e-12,6.12064e-38,-1.54527e-06,-3.27738e-12,6.12017e-38,0,-1.0663e-13,0,0,0,0,0,0,0,0,0,0,0,0,0,0,0,0,0,0,0,0,0,-0.375,3.10367,-1.5,-nan,0,0,2,0,0,0,0,0,0,0,0,1.9603e-19,0,0,0,0,0,0,0,0,0,2.5,0
11447,-3.21173e-12,6.12064e-38,-1.54527e-06,-3.27738e-12,6.12017e-38,0,-1.0663e-13,0,0,0,0,0,0,0,0,0,0,0,0,0,0,0,0,0,0,0,0,0,-0.375,3.10487,-1.5,-nan,0,0,2,0,0,0,0,0,0,0,0,1.9603e-19,0,0,0,0,0,0,0,0,0,2.5,0
11464,-3.21173e-12,6.12064e-38,-1.54527e-06,-3.27738e-12,6.12017e-38,0,-1.0663e-13,0,0,0,0,0,0,0,0,0,0,0,0,0,0,0,0,0,0,0,0,0,-0.375,3.10603,-1.5,-nan,0,0,2,0,0,0,0,0,0,0,0,1.9603e-19,0,0,0,0,0,0,0,0,0,2.5,0
11479,-3.21173e-12,6.12064e-38,-1.54527e-06,-3.27738e-12,6.12017e-38,0,-1.06631e-13,0,0,0,0,0,0,0,0,0,0,0,0,0,0,0,0,0,0,0,0,0,-0.375,3.10715,-1.5,-nan,0,0,2,0,0,0,0,0,0,0,0,1.9603e-19,0,0,0,0,0,0,0,0,0,2.5,0
11495,-3.21173e-12,6.12064e-38,-1.54527e-06,-3.27738e-12,6.12017e-38,0,-1.06631e-13,0,0,0,0,0,0,0,0,0,0,0,0,0,0,0,0,0,0,0,0,0,-0.375,3.10818,-1.5,-nan,0,0,2,0,0,0,0,0,0,0,0,1.9603e-19,0,0,0,0,0,0,0,0,0,2.5,0
11510,-3.21173e-12,6.12064e-38,-1.54527e-06,-3.27738e-12,6.12017e-38,0,-1.06631e-13,0,0,0,0,0,0,0,0,0,0,0,0,0,0,0,0,0,0,0,0,0,-0.375,3.10923,-1.5,-nan,0,0,2,0,0,0,0,0,0,0,0,1.9603e-19,0,0,0,0,0,0,0,0,0,2.5,0
11526,-3.21173e-12,6.12064e-38,-1.54527e-06,-3.27738e-12,6.12017e-38,0,-1.06631e-13,0,0,0,0,0,0,0,0,0,0,0,0,0,0,0,0,0,0,0,0,0,-0.375,3.11026,-1.5,-nan,0,0,2,0,0,0,0,0,0,0,0,1.9603e-19,0,0,0,0,0,0,0,0,0,2.5,0
11542,-3.21173e-12,6.12064e-38,-1.54527e-06,-3.27738e-12,6.12017e-38,0,-1.06632e-13,0,0,0,0,0,0,0,0,0,0,0,0,0,0,0,0,0,0,0,0,0,-0.375,3.11125,-1.5,-nan,0,0,2,0,0,0,0,0,0,0,0,1.9603e-19,0,0,0,0,0,0,0,0,0,2.5,0
11556,-3.21173e-12,6.12064e-38,-1.54527e-06,-3.27738e-12,6.12017e-38,0,-1.06632e-13,0,0,0,0,0,0,0,0,0,0,0,0,0,0,0,0,0,0,0,0,0,-0.375,3.11203,-1.5,-nan,0,0,2,0,0,0,0,0,0,0,0,1.9603e-19,0,0,0,0,0,0,0,0,0,2.5,0
11569,-3.21173e-12,6.12064e-38,-1.54527e-06,-3.27738e-12,6.12017e-38,0,-1.06632e-13,0,0,0,0,0,0,0,0,0,0,0,0,0,0,0,0,0,0,0,0,0,-0.375,3.11285,-1.5,-nan,0,0,2,0,0,0,0,0,0,0,0,1.9603e-19,0,0,0,0,0,0,0,0,0,2.5,0
11584,-3.21173e-12,6.12064e-38,-1.54527e-06,-3.27738e-12,6.12017e-38,0,-1.06632e-13,0,0,0,0,0,0,0,0,0,0,0,0,0,0,0,0,0,0,0,0,0,-0.375,3.1137,-1.5,-nan,0,0,2,0,0,0,0,0,0,0,0,1.9603e-19,0,0,0,0,0,0,0,0,0,2.5,0
11601,-3.21173e-12,6.12064e-38,-1.54527e-06,-3.27738e-12,6.12017e-38,0,-1.06633e-13,0,0,0,0,0,0,0,0,0,0,0,0,0,0,0,0,0,0,0,0,0,-0.375,3.11459,-1.5,-nan,0,0,2,0,0,0,0,0,0,0,0,1.9603e-19,0,0,0,0,0,0,0,0,0,2.5,0
11617,-3.21173e-12,6.12064e-38,-1.54527e-06,-3.27738e-12,6.12017e-38,0,-1.06633e-13,0,0,0,0,0,0,0,0,0,0,0,0,0,0,0,0,0,0,0,0,0,-0.375,3.11549,-1.5,-nan,0,0,2,0,0,0,0,0,0,0,0,1.9603e-19,0,0,0,0,0,0,0,0,0,2.5,0
11633,-3.21173e-12,6.12064e-38,-1.54527e-06,-3.27738e-12,6.12017e-38,0,-1.06633e-13,0,0,0,0,0,0,0,0,0,0,0,0,0,0,0,0,0,0,0,0,0,-0.375,3.11632,-1.5,-nan,0,0,2,0,0,0,0,0,0,0,0,1.9603e-19,0,0,0,0,0,0,0,0,0,2.5,0
11649,-3.21173e-12,6.12064e-38,-1.54527e-06,-3.27738e-12,6.12017e-38,0,-1.06634e-13,0,0,0,0,0,0,0,0,0,0,0,0,0,0,0,0,0,0,0,0,0,-0.375,3.11712,-1.5,-nan,0,0,2,0,0,0,0,0,0,0,0,1.9603e-19,0,0,0,0,0,0,0,0,0,2.5,0
11665,-3.21173e-12,6.12064e-38,-1.54527e-06,-3.27738e-12,6.12017e-38,0,-1.06634e-13,0,0,0,0,0,0,0,0,0,0,0,0,0,0,0,0,0,0,0,0,0,-0.375,3.11785,-1.5,-nan,0,0,2,0,0,0,0,0,0,0,0,1.9603e-19,0,0,0,0,0,0,0,0,0,2.5,0
11680,-3.21173e-12,6.12064e-38,-1.54527e-06,-3.27738e-12,6.12017e-38,0,-1.06634e-13,0,0,0,0,0,0,0,0,0,0,0,0,0,0,0,0,0,0,0,0,0,-0.375,3.1186,-1.5,-nan,0,0,2,0,0,0,0,0,0,0,0,1.9603e-19,0,0,0,0,0,0,0,0,0,2.5,0
11698,-3.21173e-12,6.12064e-38,-1.54527e-06,-3.27738e-12,6.12017e-38,0,-1.06634e-13,0,0,0,0,0,0,0,0,0,0,0,0,0,0,0,0,0,0,0,0,0,-0.375,3.11937,-1.5,-nan,0,0,2,0,0,0,0,0,0,0,0,1.9603e-19,0,0,0,0,0,0,0,0,0,2.5,0
11713,-3.21173e-12,6.12064e-38,-1.54527e-06,-3.27738e-12,6.12017e-38,0,-1.06635e-13,0,0,0,0,0,0,0,0,0,0,0,0,0,0,0,0,0,0,0,0,0,-0.375,3.12007,-1.5,-nan,0,0,2,0,0,0,0,0,0,0,0,1.9603e-19,0,0,0,0,0,0,0,0,0,2.5,0
11738,-3.21173e-12,6.12064e-38,-1.54527e-06,-3.27738e-12,6.12017e-38,0,-1.06635e-13,0,0,0,0,0,0,0,0,0,0,0,0,0,0,0,0,0,0,0,0,0,-0.375,3.12113,-1.5,-nan,0,0,2,0,0,0,0,0,0,0,0,1.9603e-19,0,0,0,0,0,0,0,0,0,2.5,0
11764,-3.21173e-12,6.12064e-38,-1.54527e-06,-3.27738e-12,6.12017e-38,0,-1.06635e-13,0,0,-3.9681,0.802863,0.0121918,0,0,0,0,0,0,0,182,16,182,16,291,7,180,129,0,-0.375,3.12214,-1.5,-nan,0,0,2,0,0,0,0,0,0,0,0,14152,0,0,0,0,0,0,0,0,0,2.5,0
11780,-3.21173e-12,6.12064e-38,-1.54527e-06,-3.27738e-12,6.12017e-38,0,-1.06635e-13,0,0,-3.98214,0.828159,0.0546924,0,0,0,0,0,0,0,173,13,173,13,290,7,180,117,0,-0.375,3.12276,-1.5,-nan,0,0,2,0,0,0,0,0,0,0,0,14022,0,0,0,0,0,0,0,0,0,2.5,0
11796,-3.21173e-12,6.12064e-38,-1.54527e-06,-3.27738e-12,6.12017e-38,0,-1.06636e-13,0,0,-3.98214,0.828159,0.0546924,0,0,0,0,0,0,0,173,13,173,13,290,7,180,117,0,-0.375,3.12335,-1.5,-nan,0,0,2,0,0,0,0,0,0,0,0,14022,0,0,0,0,0,0,0,0,0,2.5,0
11812,-3.21173e-12,6.12064e-38,-1.54527e-06,-3.27738e-12,6.12017e-38,0,-1.06636e-13,0,0,-3.98214,0.828159,0.0546924,0,0,0,0,0,0,0,173,13,173,13,290,7,180,117,0,-0.375,3.12393,-1.5,-nan,0,0,2,0,0,0,0,0,0,0,0,14022,0,0,0,0,0,0,0,0,0,2.5,0
11828,-3.21173e-12,6.12064e-38,-1.54527e-06,-3.27738e-12,6.12017e-38,0,-1.06636e-13,0,0,-3.98214,0.828159,0.0546924,0,0,0,0,0,0,0,173,13,173,13,290,7,180,117,0,-0.375,3.12449,-1.5,-nan,0,0,2,0,0,0,0,0,0,0,0,14022,0,0,0,0,0,0,0,0,0,2.5,0
11844,-3.21173e-12,6.12064e-38,-1.54527e-06,-3.27738e-12,6.12017e-38,0,-1.06636e-13,0,0,-3.98214,0.828159,0.0546924,0,0,0,0,0,0,0,173,13,173,13,290,7,180,117,0,-0.375,3.12503,-1.5,-nan,0,0,2,0,0,0,0,0,0,0,0,14022,0,0,0,0,0,0,0,0,0,2.5,0
11863,-3.21173e-12,6.12064e-38,-1.54527e-06,-3.27738e-12,6.12017e-38,0,-1.06637e-13,0,0,-3.98214,0.828159,0.0546924,0,0,0,0,0,0,0,173,13,173,13,290,7,180,117,0,-0.375,3.12565,-1.5,-nan,0,0,2,0,0,0,0,0,0,0,0,14022,0,0,0,0,0,0,0,0,0,2.5,0
11877,-3.21173e-12,6.12064e-38,-1.54527e-06,-3.27738e-12,6.12017e-38,0,-1.06637e-13,0,0,-3.98214,0.828159,0.0546924,0,0,0,0,0,0,0,173,13,173,13,290,7,180,117,0,-0.375,3.12609,-1.5,-nan,0,0,2,0,0,0,0,0,0,0,0,14022,0,0,0,0,0,0,0,0,0,2.5,0
11891,-3.21173e-12,6.12064e-38,-1.54527e-06,-3.27738e-12,6.12017e-38,0,-1.06637e-13,0,0,-3.98214,0.828159,0.0546924,0,0,0,0,0,0,0,173,13,173,13,290,7,180,117,0,-0.375,3.12649,-1.5,-nan,0,0,2,0,0,0,0,0,0,0,0,14022,0,0,0,0,0,0,0,0,0,2.5,0
11906,-3.21173e-12,6.12064e-38,-1.54527e-06,-3.27738e-12,6.12017e-38,0,-1.06638e-13,0,0,-3.79524,0.784745,0.454165,0,0,0,0,0,0,0,177,-46,177,-46,294,-46,174,73,0,-0.375,3.12697,-1.5,-nan,0,0,2,0,0,0,0,0,0,0,0,14518,0,0,0,0,0,0,0,0,0,2.5,0
11921,-3.21173e-12,6.12064e-38,-1.54527e-06,-3.27738e-12,6.12017e-38,0,-1.06638e-13,0,0,-3.79524,0.784745,0.454165,0,0,0,0,0,0,0,177,-46,177,-46,294,-46,174,73,0,-0.375,3.1274,-1.5,-nan,0,0,2,0,0,0,0,0,0,0,0,14518,0,0,0,0,0,0,0,0,0,2.5,0
11937,-3.21173e-12,6.12064e-38,-1.54527e-06,-3.27738e-12,6.12017e-38,0,-1.06638e-13,0,0,-3.73151,0.796729,0.515433,0,0,0,0,0,0,0,173,-60,173,-60,290,-59,173,65,0,-0.375,3.12785,-1.5,-nan,0,0,2,0,0,0,0,0,0,0,0,15125,0,0,0,0,0,0,0,0,0,2.5,0
11952,-3.21173e-12,6.12064e-38,-1.54527e-06,-3.27738e-12,6.12017e-38,0,-1.06638e-13,0,0,-3.73151,0.796729,0.515433,0,0,0,0,0,0,0,173,-60,173,-60,290,-59,173,65,0,-0.375,3.12826,-1.5,-nan,0,0,2,0,0,0,0,0,0,0,0,15125,0,0,0,0,0,0,0,0,0,2.5,0
11968,-3.21173e-12,6.12064e-38,-1.54527e-06,-3.27738e-12,6.12017e-38,0,-1.06639e-13,0,0,-3.65767,0.760205,0.477686,0,0,0,0,0,0,0,173,-61,173,-61,293,-59,173,63,0,-0.375,3.12868,-1.5,-nan,0,0,2,0,0,0,0,0,0,0,0,15748,0,0,0,0,0,0,0,0,0,2.5,0
11983,-3.21173e-12,6.12064e-38,-1.54527e-06,-3.27738e-12,6.12017e-38,0,-1.06639e-13,0,0,-3.65767,0.760205,0.477686,0,0,0,0,0,0,0,173,-61,173,-61,293,-59,173,63,0,-0.375,3.12907,-1.5,-nan,0,0,2,0,0,0,0,0,0,0,0,15748,0,0,0,0,0,0,0,0,0,2.5,0
11999,-3.21173e-12,6.12064e-38,-1.54527e-06,-3.27738e-12,6.12017e-38,0,-1.06639e-13,0,0,-3.70984,0.780537,0.534702,0,0,0,0,0,0,0,173,-63,173,-63,294,-63,174,60,0,-0.375,3.12946,-1.5,-nan,0,0,2,0,0,0,0,0,0,0,0,14883,0,0,0,0,0,0,0,0,0,2.5,0
12014,-3.21173e-12,6.12064e-38,-1.54527e-06,-3.27738e-12,6.12017e-38,0,-1.06639e-13,0,0,-3.70984,0.780537,0.534702,0,0,0,0,0,0,0,173,-63,173,-63,294,-63,174,60,0,-0.375,3.12982,-1.5,-nan,0,0,2,0,0,0,0,0,0,0,0,14883,0,0,0,0,0,0,0,0,0,2.5,0
12030,-3.21173e-12,6.12064e-38,-1.54527e-06,-3.27738e-12,6.12017e-38,0,-1.0664e-13,0,0,-3.64724,0.749893,0.491572,0,0,0,0,0,0,0,176,-63,176,-63,294,-63,173,63,0,-0.375,3.13019,-1.5,-nan,0,0,2,0,0,0,0,0,0,0,0,16002,0,0,0,0,0,0,0,0,0,2.5,0
12046,-3.21173e-12,6.12064e-38,-1.54527e-06,-3.27738e-12,6.12017e-38,0,-1.0664e-13,0,0,-3.64724,0.749893,0.491572,0,0,0,0,0,0,0,176,-63,176,-63,294,-63,173,63,0,-0.375,3.13053,-1.5,-nan,0,0,2,0,0,0,0,0,0,0,0,16002,0,0,0,0,0,0,0,0,0,2.5,0
12063,-3.21173e-12,6.12064e-38,-1.54527e-06,-3.27738e-12,6.12017e-38,0,-1.0664e-13,0,0,-3.70365,0.752283,0.555679,0,0,0,0,0,0,0,175,-66,175,-66,298,-66,178,58,0,-0.375,3.13093,-1.5,-nan,0,0,2,0,0,0,0,0,0,0,0,15252,0,0,0,0,0,0,0,0,0,2.5,0
12078,-3.21173e-12,6.12064e-38,-1.54527e-06,-3.27738e-12,6.12017e-38,0,-1.06641e-13,0,0,-3.70365,0.752283,0.555679,0,0,0,0,0,0,0,175,-66,175,-66,298,-66,178,58,0,-0.375,3.13124,-1.5,-nan,0,0,2,0,0,0,0,0,0,0,0,15252,0,0,0,0,0,0,0,0,0,2.5,0
12094,-3.21173e-12,6.12064e-38,-1.54527e-06,-3.27738e-12,6.12017e-38,0,-1.06641e-13,0,0,-3.70365,0.752283,0.555679,0,0,0,0,0,0,0,175,-66,175,-66,298,-66,178,58,0,-0.375,3.13157,-1.5,-nan,0,0,2,0,0,0,0,0,0,0,0,15252,0,0,0,0,0,0,0,0,0,2.5,0
12109,-3.21173e-12,6.12064e-38,-1.54527e-06,-3.27738e-12,6.12017e-38,0,-1.06641e-13,0,0,-3.68147,0.722808,0.536284,0,0,0,0,0,0,0,178,-66,178,-66,303,-64,179,59,0,-0.375,3.13187,-1.5,-nan,0,0,2,0,0,0,0,0,0,0,0,15625,0,0,0,0,0,0,0,0,0,2.5,0
12124,-3.21173e-12,6.12064e-38,-1.54527e-06,-3.27738e-12,6.12017e-38,0,-1.06641e-13,0,0,-3.68147,0.722808,0.536284,0,0,0,0,0,0,0,178,-66,178,-66,303,-64,179,59,0,-0.375,3.13216,-1.5,-nan,0,0,2,0,0,0,0,0,0,0,0,15625,0,0,0,0,0,0,0,0,0,2.5,0
12137,-3.21173e-12,6.12064e-38,-1.54527e-06,-3.27738e-12,6.12017e-38,0,-1.06642e-13,0,0,-3.6357,0.71675,0.517136,0,0,0,0,0,0,0,178,-68,178,-68,298,-68,179,61,0,-0.375,3.1324,-1.5,-nan,0,0,2,0,0,0,0,0,0,0,0,15996,0,0,0,0,0,0,0,0,0,2.5,0
12151,-3.21173e-12,6.12064e-38,-1.54527e-06,-3.27738e-12,6.12017e-38,0,-1.06642e-13,0,0,-3.6357,0.71675,0.517136,0,0,0,0,0,0,0,178,-68,178,-68,298,-68,179,61,0,-0.375,3.13263,-1.5,-nan,0,0,2,0,0,0,0,0,0,0,0,15996,0,0,0,0,0,0,0,0,0,2.5,0
12166,-3.21173e-12,6.12064e-38,-1.54527e-06,-3.27738e-12,6.12017e-38,0,-1.06642e-13,0,0,-3.63413,0.680702,0.516405,0,0,0,0,0,0,0,181,-67,181,-67,301,-68,183,59,0,-0.375,3.13292,-1.5,-nan,0,0,2,0,0,0,0,0,0,0,0,16129,0,0,0,0,0,0,0,0,0,2.5,0
12182,-3.21173e-12,6.12064e-38,-1.54527e-06,-3.27738e-12,6.12017e-38,0,-1.06642e-13,0,0,-3.63413,0.680702,0.516405,0,0,0,0,0,0,0,181,-67,181,-67,301,-68,183,59,0,-0.375,3.13318,-1.5,-nan,0,0,2,0,0,0,0,0,0,0,0,16129,0,0,0,0,0,0,0,0,0,2.5,0
12197,-3.21173e-12,6.12064e-38,-1.54527e-06,-3.27738e-12,6.12017e-38,0,-1.06643e-13,0,0,-3.6944,0.680247,0.554974,0,0,0,0,0,0,0,184,-67,184,-67,305,-66,184,57,0,-0.375,3.13344,-1.5,-nan,0,0,2,0,0,0,0,0,0,0,0,15004,0,0,0,0,0,0,0,0,0,2.5,0
12213,-3.21173e-12,6.12064e-38,-1.54527e-06,-3.27738e-12,6.12017e-38,0,-1.06643e-13,0,0,-3.6944,0.680247,0.554974,0,0,0,0,0,0,0,184,-67,184,-67,305,-66,184,57,0,-0.375,3.1337,-1.5,-nan,0,0,2,0,0,0,0,0,0,0,0,15004,0,0,0,0,0,0,0,0,0,2.5,0
12229,-3.21173e-12,6.12064e-38,-1.54527e-06,-3.27738e-12,6.12017e-38,0,-1.06643e-13,0,0,-3.72335,0.679445,0.551592,0,0,0,0,0,0,0,185,-64,185,-64,304,-64,186,61,0,-0.375,3.13395,-1.5,-nan,0,0,2,0,0,0,0,0,0,0,0,15125,0,0,0,0,0,0,0,0,0,2.5,0
12244,-3.21173e-12,6.12064e-38,-1.54527e-06,-3.27738e-12,6.12017e-38,0,-1.06644e-13,0,0,-3.72335,0.679445,0.551592,0,0,0,0,0,0,0,185,-64,185,-64,304,-64,186,61,0,-0.375,3.13418,-1.5,-nan,0,0,2,0,0,0,0,0,0,0,0,15125,0,0,0,0,0,0,0,0,0,2.5,0
12262,-3.21173e-12,6.12064e-38,-1.54527e-06,-3.27738e-12,6.12017e-38,0,-1.06644e-13,0,0,-3.72335,0.679445,0.551592,0,0,0,0,0,0,0,185,-64,185,-64,304,-64,186,61,0,-0.375,3.13443,-1.5,-nan,0,0,2,0,0,0,0,0,0,0,0,15125,0,0,0,0,0,0,0,0,0,2.5,0
12277,-3.21173e-12,6.12064e-38,-1.54527e-06,-3.27738e-12,6.12017e-38,0,-1.06644e-13,0,0,-3.71452,0.675474,0.561638,0,0,0,0,0,0,0,184,-67,184,-67,304,-66,188,60,0,-0.375,3.13465,-1.5,-nan,0,0,2,0,0,0,0,0,0,0,0,15494,0,0,0,0,0,0,0,0,0,2.5,0
12292,-3.21173e-12,6.12064e-38,-1.54527e-06,-3.27738e-12,6.12017e-38,0,-1.06644e-13,0,0,-3.71452,0.675474,0.561638,0,0,0,0,0,0,0,184,-67,184,-67,304,-66,188,60,0,-0.375,3.13486,-1.5,-nan,0,0,2,0,0,0,0,0,0,0,0,15494,0,0,0,0,0,0,0,0,0,2.5,0
12308,-3.21173e-12,6.12064e-38,-1.54527e-06,-3.27738e-12,6.12017e-38,0,-1.06645e-13,0,0,-3.69204,0.669409,0.553766,0,0,0,0,0,0,0,185,-64,185,-64,303,-68,185,57,0,-0.375,3.13506,-1.5,-nan,0,0,2,0,0,0,0,0,0,0,0,15625,0,0,0,0,0,0,0,0,0,2.5,0
12323,-3.21173e-12,6.12064e-38,-1.54527e-06,-3.27738e-12,6.12017e-38,0,-1.06645e-13,0,0,-3.69204,0.669409,0.553766,0,0,0,0,0,0,0,185,-64,185,-64,303,-68,185,57,0,-0.375,3.13526,-1.5,-nan,0,0,2,0,0,0,0,0,0,0,0,15625,0,0,0,0,0,0,0,0,0,2.5,0
12339,-3.21173e-12,6.12064e-38,-1.54527e-06,-3.27738e-12,6.12017e-38,0,-1.06645e-13,0,0,-3.68706,0.693127,0.552501,0,0,0,0,0,0,0,181,-66,181,-66,303,-68,184,58,0,-0.375,3.13546,-1.5,-nan,0,0,2,0,0,0,0,0,0,0,0,15498,0,0,0,0,0,0,0,0,0,2.5,0
12354,-3.21173e-12,6.12064e-38,-1.54527e-06,-3.27738e-12,6.12017e-38,0,-1.06645e-13,0,0,-3.68706,0.693127,0.552501,0,0,0,0,0,0,0,181,-66,181,-66,303,-68,184,58,0,-0.375,3.13565,-1.5,-nan,0,0,2,0,0,0,0,0,0,0,0,15498,0,0,0,0,0,0,0,0,0,2.5,0
12370,-3.21173e-12,6.12064e-38,-1.54527e-06,-3.27738e-12,6.12017e-38,0,-1.06646e-13,0,0,-3.71171,0.700358,0.574184,0,0,0,0,0,0,0,181,-66,181,-66,301,-68,184,58,0,-0.375,3.13583,-1.5,-nan,0,0,2,0,0,0,0,0,0,0,0,15624,0,0,0,0,0,0,0,0,0,2.5,0
12385,-3.21173e-12,6.12064e-38,-1.54527e-06,-3.27738e-12,6.12017e-38,0,-1.06646e-13,0,0,-3.71171,0.700358,0.574184,0,0,0,0,0,0,0,181,-66,181,-66,301,-68,184,58,0,-0.375,3.136,-1.5,-nan,0,0,2,0,0,0,0,0,0,0,0,15624,0,0,0,0,0,0,0,0,0,2.5,0
12399,-3.21173e-12,6.12064e-38,-1.54527e-06,-3.27738e-12,6.12017e-38,0,-1.06646e-13,0,0,-3.68526,0.697832,0.54662,0,0,0,0,0,0,0,181,-66,181,-66,301,-68,184,61,0,-0.375,3.13616,-1.5,-nan,0,0,2,0,0,0,0,0,0,0,0,15867,0,0,0,0,0,0,0,0,0,2.5,0
12412,-3.21173e-12,6.12064e-38,-1.54527e-06,-3.27738e-12,6.12017e-38,0,-1.06647e-13,0,0,-3.68526,0.697832,0.54662,0,0,0,0,0,0,0,181,-66,181,-66,301,-68,184,61,0,-0.375,3.1363,-1.5,-nan,0,0,2,0,0,0,0,0,0,0,0,15867,0,0,0,0,0,0,0,0,0,2.5,0
12428,-3.21173e-12,6.12064e-38,-1.54527e-06,-3.27738e-12,6.12017e-38,0,-1.06647e-13,0,0,-3.68526,0.697832,0.54662,0,0,0,0,0,0,0,181,-66,181,-66,301,-68,184,61,0,-0.375,3.13647,-1.5,-nan,0,0,2,0,0,0,0,0,0,0,0,15867,0,0,0,0,0,0,0,0,0,2.5,0
12443,-3.21173e-12,6.12064e-38,-1.54527e-06,-3.27738e-12,6.12017e-38,0,-1.06647e-13,0,0,-3.74123,0.673503,0.577055,0,0,0,0,0,0,0,184,-67,184,-67,304,-66,191,60,0,-0.375,3.13662,-1.5,-nan,0,0,2,0,0,0,0,0,0,0,0,15494,0,0,0,0,0,0,0,0,0,2.5,0
12458,-3.21173e-12,6.12064e-38,-1.54527e-06,-3.27738e-12,6.12017e-38,0,-1.06647e-13,0,0,-3.74123,0.673503,0.577055,0,0,0,0,0,0,0,184,-67,184,-67,304,-66,191,60,0,-0.375,3.13677,-1.5,-nan,0,0,2,0,0,0,0,0,0,0,0,15494,0,0,0,0,0,0,0,0,0,2.5,0
12474,-3.21173e-12,6.12064e-38,-1.54527e-06,-3.27738e-12,6.12017e-38,0,-1.06648e-13,0,0,-3.76591,0.648699,0.597566,0,0,0,0,0,0,0,191,-63,191,-63,308,-68,190,57,0,-0.375,3.13692,-1.5,-nan,0,0,2,0,0,0,0,0,0,0,0,14875,0,0,0,0,0,0,0,0,0,2.5,0
12491,-3.21173e-12,6.12064e-38,-1.54527e-06,-3.27738e-12,6.12017e-38,0,-1.06648e-13,0,0,-3.76591,0.648699,0.597566,0,0,0,0,0,0,0,191,-63,191,-63,308,-68,190,57,0,-0.375,3.13708,-1.5,-nan,0,0,2,0,0,0,0,0,0,0,0,14875,0,0,0,0,0,0,0,0,0,2.5,0
12506,-3.21173e-12,6.12064e-38,-1.54527e-06,-3.27738e-12,6.12017e-38,0,-1.06648e-13,0,0,-3.72411,0.627898,0.561459,0,0,0,0,0,0,0,191,-63,191,-63,310,-66,191,60,0,-0.375,3.13721,-1.5,-nan,0,0,2,0,0,0,0,0,0,0,0,15246,0,0,0,0,0,0,0,0,0,2.5,0
12554,-3.21173e-12,6.12064e-38,-1.54527e-06,-3.27738e-12,6.12017e-38,0,-1.06648e-13,0,0,-3.6487,0.588541,0.520966,0,0,0,0,0,0,0,193,-65,193,-65,312,-68,193,61,0,-0.375,3.13762,-1.5,-nan,0,0,2,0,0,0,0,0,0,0,0,16125,0,0,0,0,0,0,0,0,0,2.5,0
12570,-3.21173e-12,6.12064e-38,-1.54527e-06,-3.27738e-12,6.12017e-38,0,-1.06649e-13,0,0,-3.74713,0.596447,0.569738,0,0,0,0,0,0,0,193,-65,193,-65,314,-64,198,59,0,-0.375,3.13775,-1.5,-nan,0,0,2,0,0,0,0,0,0,0,0,15004,0,0,0,0,0,0,0,0,0,2.5,0
12585,-3.21173e-12,6.12064e-38,-1.54527e-06,-3.27738e-12,6.12017e-38,0,-1.06649e-13,0,0,-3.74713,0.596447,0.569738,0,0,0,0,0,0,0,193,-65,193,-65,314,-64,198,59,0,-0.375,3.13786,-1.5,-nan,0,0,2,0,0,0,0,0,0,0,0,15004,0,0,0,0,0,0,0,0,0,2.5,0
12601,-3.21173e-12,6.12064e-38,-1.54527e-06,-3.27738e-12,6.12017e-38,0,-1.06649e-13,0,0,-3.79681,0.567507,0.597337,0,0,0,0,0,0,0,199,-62,199,-62,318,-64,201,57,0,-0.375,3.13798,-1.5,-nan,0,0,2,0,0,0,0,0,0,0,0,14518,0,0,0,0,0,0,0,0,0,2.5,0
12616,-3.21173e-12,6.12064e-38,-1.54527e-06,-3.27738e-12,6.12017e-38,0,-1.06649e-13,0,0,-3.79681,0.567507,0.597337,0,0,0,0,0,0,0,199,-62,199,-62,318,-64,201,57,0,-0.375,3.13809,-1.5,-nan,0,0,2,0,0,0,0,0,0,0,0,14518,0,0,0,0,0,0,0,0,0,2.5,0
12632,-3.21173e-12,6.12064e-38,-1.54527e-06,-3.27738e-12,6.12017e-38,0,-1.0665e-13,0,0,-3.73217,0.537428,0.556887,0,0,0,0,0,0,0,202,-64,202,-64,321,-64,201,60,0,-0.375,3.1382,-1.5,-nan,0,0,2,0,0,0,0,0,0,0,0,14880,0,0,0,0,0,0,0,0,0,2.5,0
12648,-3.21173e-12,6.12064e-38,-1.54527e-06,-3.27738e-12,6.12017e-38,0,-1.0665e-13,0,0,-3.73217,0.537428,0.556887,0,0,0,0,0,0,0,202,-64,202,-64,321,-64,201,60,0,-0.375,3.1383,-1.5,-nan,0,0,2,0,0,0,0,0,0,0,0,14880,0,0,0,0,0,0,0,0,0,2.5,0
12663,-3.21173e-12,6.12064e-38,-1.54527e-06,-3.27738e-12,6.12017e-38,0,-1.0665e-13,0,0,-3.68312,0.525922,0.521836,0,0,0,0,0,0,0,199,-62,199,-62,320,-63,201,60,0,-0.375,3.1384,-1.5,-nan,0,0,2,0,0,0,0,0,0,0,0,15621,0,0,0,0,0,0,0,0,0,2.5,0
12679,-3.21173e-12,6.12064e-38,-1.54527e-06,-3.27738e-12,6.12017e-38,0,-1.06651e-13,0,0,-3.68312,0.525922,0.521836,0,0,0,0,0,0,0,199,-62,199,-62,320,-63,201,60,0,-0.375,3.1385,-1.5,-nan,0,0,2,0,0,0,0,0,0,0,0,15621,0,0,0,0,0,0,0,0,0,2.5,0
12693,-3.21173e-12,6.12064e-38,-1.54527e-06,-3.27738e-12,6.12017e-38,0,-1.06651e-13,0,0,-3.68312,0.525922,0.521836,0,0,0,0,0,0,0,199,-62,199,-62,320,-63,201,60,0,-0.375,3.13858,-1.5,-nan,0,0,2,0,0,0,0,0,0,0,0,15621,0,0,0,0,0,0,0,0,0,2.5,0
12706,-3.21173e-12,6.12064e-38,-1.54527e-06,-3.27738e-12,6.12017e-38,0,-1.06651e-13,0,0,-3.75272,0.527658,0.552786,0,0,0,0,0,0,0,203,-60,203,-60,321,-64,204,63,0,-0.375,3.13866,-1.5,-nan,0,0,2,0,0,0,0,0,0,0,0,15113,0,0,0,0,0,0,0,0,0,2.5,0
12721,-3.21173e-12,6.12064e-38,-1.54527e-06,-3.27738e-12,6.12017e-38,0,-1.06651e-13,0,0,-3.75272,0.527658,0.552786,0,0,0,0,0,0,0,203,-60,203,-60,321,-64,204,63,0,-0.375,3.13875,-1.5,-nan,0,0,2,0,0,0,0,0,0,0,0,15113,0,0,0,0,0,0,0,0,0,2.5,0
12737,-3.21173e-12,6.12064e-38,-1.54527e-06,-3.27738e-12,6.12017e-38,0,-1.06652e-13,0,0,-3.73377,0.504301,0.5398,0,0,0,0,0,0,0,205,-60,205,-60,324,-63,205,63,0,-0.375,3.13884,-1.5,-nan,0,0,2,0,0,0,0,0,0,0,0,15120,0,0,0,0,0,0,0,0,0,2.5,0
12754,-3.21173e-12,6.12064e-38,-1.54527e-06,-3.27738e-12,6.12017e-38,0,-1.06652e-13,0,0,-3.73377,0.504301,0.5398,0,0,0,0,0,0,0,205,-60,205,-60,324,-63,205,63,0,-0.375,3.13894,-1.5,-nan,0,0,2,0,0,0,0,0,0,0,0,15120,0,0,0,0,0,0,0,0,0,2.5,0
12770,-3.21173e-12,6.12064e-38,-1.54527e-06,-3.27738e-12,6.12017e-38,0,-1.06652e-13,0,0,-3.81166,0.498392,0.578657,0,0,0,0,0,0,0,209,-58,209,-58,325,-61,207,62,0,-0.375,3.13902,-1.5,-nan,0,0,2,0,0,0,0,0,0,0,0,14514,0,0,0,0,0,0,0,0,0,2.5,0
12785,-3.21173e-12,6.12064e-38,-1.54527e-06,-3.27738e-12,6.12017e-38,0,-1.06652e-13,0,0,-3.81166,0.498392,0.578657,0,0,0,0,0,0,0,209,-58,209,-58,325,-61,207,62,0,-0.375,3.1391,-1.5,-nan,0,0,2,0,0,0,0,0,0,0,0,14514,0,0,0,0,0,0,0,0,0,2.5,0
12801,-3.21173e-12,6.12064e-38,-1.54527e-06,-3.27738e-12,6.12017e-38,0,-1.06653e-13,0,0,-3.76786,0.47009,0.557158,0,0,0,0,0,0,0,209,-58,209,-58,327,-64,211,62,0,-0.375,3.13917,-1.5,-nan,0,0,2,0,0,0,0,0,0,0,0,15120,0,0,0,0,0,0,0,0,0,2.5,0
12816,-3.21173e-12,6.12064e-38,-1.54527e-06,-3.27738e-12,6.12017e-38,0,-1.06653e-13,0,0,-3.76786,0.47009,0.557158,0,0,0,0,0,0,0,209,-58,209,-58,327,-64,211,62,0,-0.375,3.13925,-1.5,-nan,0,0,2,0,0,0,0,0,0,0,0,15120,0,0,0,0,0,0,0,0,0,2.5,0
12832,-3.21173e-12,6.12064e-38,-1.54527e-06,-3.27738e-12,6.12017e-38,0,-1.06653e-13,0,0,-3.69129,0.449872,0.483664,0,0,0,0,0,0,0,209,-55,209,-55,328,-61,210,68,0,-0.375,3.13932,-1.5,-nan,0,0,2,0,0,0,0,0,0,0,0,16125,0,0,0,0,0,0,0,0,0,2.5,0
12848,-3.21173e-12,6.12064e-38,-1.54527e-06,-3.27738e-12,6.12017e-38,0,-1.06654e-13,0,0,-3.69129,0.449872,0.483664,0,0,0,0,0,0,0,209,-55,209,-55,328,-61,210,68,0,-0.375,3.13939,-1.5,-nan,0,0,2,0,0,0,0,0,0,0,0,16125,0,0,0,0,0,0,0,0,0,2.5,0
12864,-3.21173e-12,6.12064e-38,-1.54527e-06,-3.27738e-12,6.12017e-38,0,-1.06654e-13,0,0,-3.69436,0.444433,0.483043,0,0,0,0,0,0,0,209,-58,209,-58,329,-58,211,67,0,-0.375,3.13946,-1.5,-nan,0,0,2,0,0,0,0,0,0,0,0,15625,0,0,0,0,0,0,0,0,0,2.5,0
12879,-3.21173e-12,6.12064e-38,-1.54527e-06,-3.27738e-12,6.12017e-38,0,-1.06654e-13,0,0,-3.69436,0.444433,0.483043,0,0,0,0,0,0,0,209,-58,209,-58,329,-58,211,67,0,-0.375,3.13953,-1.5,-nan,0,0,2,0,0,0,0,0,0,0,0,15625,0,0,0,0,0,0,0,0,0,2.5,0
12895,-3.21173e-12,6.12064e-38,-1.54527e-06,-3.27738e-12,6.12017e-38,0,-1.06654e-13,0,0,-3.7264,0.442357,0.483488,0,0,0,0,0,0,0,212,-53,212,-53,329,-58,211,69,0,-0.375,3.13959,-1.5,-nan,0,0,2,0,0,0,0,0,0,0,0,15621,0,0,0,0,0,0,0,0,0,2.5,0
12910,-3.21173e-12,6.12064e-38,-1.54527e-06,-3.27738e-12,6.12017e-38,0,-1.06655e-13,0,0,-3.7264,0.442357,0.483488,0,0,0,0,0,0,0,212,-53,212,-53,329,-58,211,69,0,-0.375,3.13965,-1.5,-nan,0,0,2,0,0,0,0,0,0,0,0,15621,0,0,0,0,0,0,0,0,0,2.5,0
12925,-3.21173e-12,6.12064e-38,-1.54527e-06,-3.27738e-12,6.12017e-38,0,-1.06655e-13,0,0,-3.7264,0.442357,0.483488,0,0,0,0,0,0,0,212,-53,212,-53,329,-58,211,69,0,-0.375,3.13971,-1.5,-nan,0,0,2,0,0,0,0,0,0,0,0,15621,0,0,0,0,0,0,0,0,0,2.5,0
12943,-3.21173e-12,6.12064e-38,-1.54527e-06,-3.27738e-12,6.12017e-38,0,-1.06655e-13,0,0,-3.72202,0.437568,0.476709,0,0,0,0,0,0,0,212,-51,212,-51,331,-58,211,69,0,-0.375,3.13977,-1.5,-nan,0,0,2,0,0,0,0,0,0,0,0,15621,0,0,0,0,0,0,0,0,0,2.5,0
12957,-3.21173e-12,6.12064e-38,-1.54527e-06,-3.27738e-12,6.12017e-38,0,-1.06655e-13,0,0,-3.72202,0.437568,0.476709,0,0,0,0,0,0,0,212,-51,212,-51,331,-58,211,69,0,-0.375,3.13983,-1.5,-nan,0,0,2,0,0,0,0,0,0,0,0,15621,0,0,0,0,0,0,0,0,0,2.5,0
12971,-3.21173e-12,6.12064e-38,-1.54527e-06,-3.27738e-12,6.12017e-38,0,-1.06656e-13,0,0,-3.72198,0.450267,0.49687,0,0,0,0,0,0,0,209,-55,209,-55,328,-59,211,65,0,-0.375,3.13987,-1.5,-nan,0,0,2,0,0,0,0,0,0,0,0,15500,0,0,0,0,0,0,0,0,0,2.5,0
12985,-3.21173e-12,6.12064e-38,-1.54527e-06,-3.27738e-12,6.12017e-38,0,-1.06656e-13,0,0,-3.72198,0.450267,0.49687,0,0,0,0,0,0,0,209,-55,209,-55,328,-59,211,65,0,-0.375,3.13992,-1.5,-nan,0,0,2,0,0,0,0,0,0,0,0,15500,0,0,0,0,0,0,0,0,0,2.5,0
13001,-3.21173e-12,6.12064e-38,-1.54527e-06,-3.27738e-12,6.12017e-38,0,-1.06656e-13,0,0,-3.72964,0.453481,0.501224,0,0,0,0,0,0,0,209,-55,209,-55,327,-59,211,65,0,-0.375,3.13997,-1.5,-nan,0,0,2,0,0,0,0,0,0,0,0,15500,0,0,0,0,0,0,0,0,0,2.5,0
13016,-3.21173e-12,6.12064e-38,-1.54527e-06,-3.27738e-12,6.12017e-38,0,-1.06657e-13,0,0,-3.72964,0.453481,0.501224,0,0,0,0,0,0,0,209,-55,209,-55,327,-59,211,65,0,-0.375,3.14002,-1.5,-nan,0,0,2,0,0,0,0,0,0,0,0,15500,0,0,0,0,0,0,0,0,0,2.5,0
13032,-3.21173e-12,6.12064e-38,-1.54527e-06,-3.27738e-12,6.12017e-38,0,-1.06657e-13,0,0,-3.72588,0.448982,0.494499,0,0,0,0,0,0,0,212,-55,212,-55,327,-59,210,68,0,-0.375,3.14007,-1.5,-nan,0,0,2,0,0,0,0,0,0,0,0,15748,0,0,0,0,0,0,0,0,0,2.5,0
13047,-3.21173e-12,6.12064e-38,-1.54527e-06,-3.27738e-12,6.12017e-38,0,-1.06657e-13,0,0,-3.72588,0.448982,0.494499,0,0,0,0,0,0,0,212,-55,212,-55,327,-59,210,68,0,-0.375,3.14012,-1.5,-nan,0,0,2,0,0,0,0,0,0,0,0,15748,0,0,0,0,0,0,0,0,0,2.5,0
13066,-3.21173e-12,6.12064e-38,-1.54527e-06,-3.27738e-12,6.12017e-38,0,-1.06657e-13,0,0,-3.72588,0.448982,0.494499,0,0,0,0,0,0,0,212,-55,212,-55,327,-59,210,68,0,-0.375,3.14017,-1.5,-nan,0,0,2,0,0,0,0,0,0,0,0,15748,0,0,0,0,0,0,0,0,0,2.5,0
13081,-3.21173e-12,6.12064e-38,-1.54527e-06,-3.27738e-12,6.12017e-38,0,-1.06658e-13,0,0,-3.79084,0.474986,0.547629,0,0,0,0,0,0,0,212,-56,212,-56,327,-61,209,64,0,-0.375,3.14021,-1.5,-nan,0,0,2,0,0,0,0,0,0,0,0,14750,0,0,0,0,0,0,0,0,0,2.5,0
13097,-3.21173e-12,6.12064e-38,-1.54527e-06,-3.27738e-12,6.12017e-38,0,-1.06658e-13,0,0,-3.74427,0.474174,0.520208,0,0,0,0,0,0,0,209,-58,209,-58,327,-61,210,68,0,-0.375,3.14026,-1.5,-nan,0,0,2,0,0,0,0,0,0,0,0,15222,0,0,0,0,0,0,0,0,0,2.5,0
13112,-3.21173e-12,6.12064e-38,-1.54527e-06,-3.27738e-12,6.12017e-38,0,-1.06658e-13,0,0,-3.74427,0.474174,0.520208,0,0,0,0,0,0,0,209,-58,209,-58,327,-61,210,68,0,-0.375,3.1403,-1.5,-nan,0,0,2,0,0,0,0,0,0,0,0,15222,0,0,0,0,0,0,0,0,0,2.5,0
13128,-3.21173e-12,6.12064e-38,-1.54527e-06,-3.27738e-12,6.12017e-38,0,-1.06658e-13,0,0,-3.74427,0.474174,0.520208,0,0,0,0,0,0,0,209,-58,209,-58,327,-61,210,68,0,-0.375,3.14034,-1.5,-nan,0,0,2,0,0,0,0,0,0,0,0,15222,0,0,0,0,0,0,0,0,0,2.5,0
13143,-3.21173e-12,6.12064e-38,-1.54527e-06,-3.27738e-12,6.12017e-38,0,-1.06659e-13,0,0,-3.68731,0.451356,0.485652,0,0,0,0,0,0,0,209,-57,209,-57,327,-61,210,68,0,-0.375,3.14038,-1.5,-nan,0,0,2,0,0,0,0,0,0,0,0,16125,0,0,0,0,0,0,0,0,0,2.5,0
13159,-3.21173e-12,6.12064e-38,-1.54527e-06,-3.27738e-12,6.12017e-38,0,-1.06659e-13,0,0,-3.68731,0.451356,0.485652,0,0,0,0,0,0,0,209,-57,209,-57,327,-61,210,68,0,-0.375,3.14041,-1.5,-nan,0,0,2,0,0,0,0,0,0,0,0,16125,0,0,0,0,0,0,0,0,0,2.5,0
13174,-3.21173e-12,6.12064e-38,-1.54527e-06,-3.27738e-12,6.12017e-38,0,-1.06659e-13,0,0,-3.73566,0.460882,0.523271,0,0,0,0,0,0,0,209,-58,209,-58,329,-59,209,64,0,-0.375,3.14045,-1.5,-nan,0,0,2,0,0,0,0,0,0,0,0,15006,0,0,0,0,0,0,0,0,0,2.5,0
13189,-3.21173e-12,6.12064e-38,-1.54527e-06,-3.27738e-12,6.12017e-38,0,-1.0666e-13,0,0,-3.73566,0.460882,0.523271,0,0,0,0,0,0,0,209,-58,209,-58,329,-59,209,64,0,-0.375,3.14048,-1.5,-nan,0,0,2,0,0,0,0,0,0,0,0,15006,0,0,0,0,0,0,0,0,0,2.5,0
13206,-3.21173e-12,6.12064e-38,-1.54527e-06,-3.27738e-12,6.12017e-38,0,-1.0666e-13,0,0,-3.71758,0.456302,0.510543,0,0,0,0,0,0,0,209,-58,209,-58,327,-59,209,64,0,-0.375,3.14052,-1.5,-nan,0,0,2,0,0,0,0,0,0,0,0,15375,0,0,0,0,0,0,0,0,0,2.5,0
13222,-3.21173e-12,6.12064e-38,-1.54527e-06,-3.27738e-12,6.12017e-38,0,-1.0666e-13,0,0,-3.71758,0.456302,0.510543,0,0,0,0,0,0,0,209,-58,209,-58,327,-59,209,64,0,-0.375,3.14055,-1.5,-nan,0,0,2,0,0,0,0,0,0,0,0,15375,0,0,0,0,0,0,0,0,0,2.5,0
13236,-3.21173e-12,6.12064e-38,-1.54527e-06,-3.27738e-12,6.12017e-38,0,-1.0666e-13,0,0,-3.74595,0.45168,0.519449,0,0,0,0,0,0,0,212,-56,212,-56,329,-61,211,67,0,-0.375,3.14058,-1.5,-nan,0,0,2,0,0,0,0,0,0,0,0,15360,0,0,0,0,0,0,0,0,0,2.5,0
13249,-3.21173e-12,6.12064e-38,-1.54527e-06,-3.27738e-12,6.12017e-38,0,-1.06661e-13,0,0,-3.74595,0.45168,0.519449,0,0,0,0,0,0,0,212,-56,212,-56,329,-61,211,67,0,-0.375,3.14061,-1.5,-nan,0,0,2,0,0,0,0,0,0,0,0,15360,0,0,0,0,0,0,0,0,0,2.5,0
13264,-3.21173e-12,6.12064e-38,-1.54527e-06,-3.27738e-12,6.12017e-38,0,-1.06661e-13,0,0,-3.70886,0.448966,0.508822,0,0,0,0,0,0,0,211,-58,211,-58,329,-64,211,64,0,-0.375,3.14064,-1.5,-nan,0,0,2,0,0,0,0,0,0,0,0,15360,0,0,0,0,0,0,0,0,0,2.5,0
13280,-3.21173e-12,6.12064e-38,-1.54527e-06,-3.27738e-12,6.12017e-38,0,-1.06661e-13,0,0,-3.70886,0.448966,0.508822,0,0,0,0,0,0,0,211,-58,211,-58,329,-64,211,64,0,-0.375,3.14067,-1.5,-nan,0,0,2,0,0,0,0,0,0,0,0,15360,0,0,0,0,0,0,0,0,0,2.5,0
13296,-3.21173e-12,6.12064e-38,-1.54527e-06,-3.27738e-12,6.12017e-38,0,-1.06661e-13,0,0,-3.71763,0.454997,0.523365,0,0,0,0,0,0,0,209,-58,209,-58,329,-64,211,64,0,-0.375,3.14069,-1.5,-nan,0,0,2,0,0,0,0,0,0,0,0,15616,0,0,0,0,0,0,0,0,0,2.5,0
13311,-3.21173e-12,6.12064e-38,-1.54527e-06,-3.27738e-12,6.12017e-38,0,-1.06662e-13,0,0,-3.71763,0.454997,0.523365,0,0,0,0,0,0,0,209,-58,209,-58,329,-64,211,64,0,-0.375,3.14072,-1.5,-nan,0,0,2,0,0,0,0,0,0,0,0,15616,0,0,0,0,0,0,0,0,0,2.5,0
13327,-3.21173e-12,6.12064e-38,-1.54527e-06,-3.27738e-12,6.12017e-38,0,-1.06662e-13,0,0,-3.71763,0.454997,0.523365,0,0,0,0,0,0,0,209,-58,209,-58,329,-64,211,64,0,-0.375,3.14075,-1.5,-nan,0,0,2,0,0,0,0,0,0,0,0,15616,0,0,0,0,0,0,0,0,0,2.5,0
13342,-3.21173e-12,6.12064e-38,-1.54527e-06,-3.27738e-12,6.12017e-38,0,-1.06662e-13,0,0,-3.73629,0.454905,0.550019,0,0,0,0,0,0,0,211,-60,211,-60,329,-66,211,62,0,-0.375,3.14078,-1.5,-nan,0,0,2,0,0,0,0,0,0,0,0,15232,0,0,0,0,0,0,0,0,0,2.5,0
13358,-3.21173e-12,6.12064e-38,-1.54527e-06,-3.27738e-12,6.12017e-38,0,-1.06663e-13,0,0,-3.73629,0.454905,0.550019,0,0,0,0,0,0,0,211,-60,211,-60,329,-66,211,62,0,-0.375,3.1408,-1.5,-nan,0,0,2,0,0,0,0,0,0,0,0,15232,0,0,0,0,0,0,0,0,0,2.5,0
