timestamp,A_x,A_y,A_z,P,Q,R,Phi,Theta,Psi,poseX,poseY,poseZ,state_X,state_Y,state_Z,state_VzB,state_Bx,state_By,state_Bz,p1_x,p1_y,p2_x,p2_y,p3_x,p3_y,p4_x,p4_y,roll,pitch,yaw,alt,targetHeading,highLevelState,lowLevelState,gateNumber,filtered_x,filtered_y,x_OT,y_OT,vx_OT,vy_OT,filtered_vx,filtered_vygateArearansac_corr_x,ransac_corr_y,ransac_corr_vx,ransac_corr_vy,detectionTimeStamppTermX,dTermX,pTermY,dTermY,vxcmd,vycmd
8463,0,0,0,0,0,0,0,0,0,0,0,0,0,0,0,0,0,0,0,0,0,0,0,0,0,0,0,0,-0.35,0.0125664,-1.5,3.94113e+12,0,0,2,0,0,0,0,0,0,0,0,1.9603e-19,0,0,0,0,0,0,0,0,0,1,0
9003,-3.11492e-12,6.87482e-38,-1.52385e-06,-3.18057e-12,6.87434e-38,0,-1.06589e-13,0,0,0,0,0,0,0,0,0,0,0,0,0,0,0,0,0,0,0,0,0,-0.35,0.862366,-1.5,3.94113e+12,0,0,2,0,0,0,0,0,0,0,0,1.9603e-19,0,0,0,0,0,0,0,0,0,1,0
9019,-3.11492e-12,6.87482e-38,-1.52385e-06,-3.18057e-12,6.87434e-38,0,-1.0659e-13,0,0,0,0,0,0,0,0,0,0,0,0,0,0,0,0,0,0,0,0,0,-0.35,0.885928,-1.5,3.94113e+12,0,0,2,0,0,0,0,0,0,0,0,1.9603e-19,0,0,0,0,0,0,0,0,0,1,0
9034,-3.11492e-12,6.87482e-38,-1.52385e-06,-3.18057e-12,6.87434e-38,0,-1.0659e-13,0,0,0,0,0,0,0,0,0,0,0,0,0,0,0,0,0,0,0,0,0,-0.35,0.90949,-1.5,3.94113e+12,0,0,2,0,0,0,0,0,0,0,0,1.9603e-19,0,0,0,0,0,0,0,0,0,1,0
9050,-3.11492e-12,6.87482e-38,-1.52385e-06,-3.18057e-12,6.87434e-38,0,-1.0659e-13,0,0,0,0,0,0,0,0,0,0,0,0,0,0,0,0,0,0,0,0,0,-0.35,0.934623,-1.5,3.94113e+12,0,0,2,0,0,0,0,0,0,0,0,1.9603e-19,0,0,0,0,0,0,0,0,0,1,0
9066,-3.11492e-12,6.87482e-38,-1.52385e-06,-3.18057e-12,6.87434e-38,0,-1.0659e-13,0,0,0,0,0,0,0,0,0,0,0,0,0,0,0,0,0,0,0,0,0,-0.35,0.959756,-1.5,3.94113e+12,0,0,2,0,0,0,0,0,0,0,0,1.9603e-19,0,0,0,0,0,0,0,0,0,1,0
9081,-3.11492e-12,6.87482e-38,-1.52385e-06,-3.18057e-12,6.87434e-38,0,-1.06591e-13,0,0,0,0,0,0,0,0,0,0,0,0,0,0,0,0,0,0,0,0,0,-0.35,0.983318,-1.5,3.94113e+12,0,0,2,0,0,0,0,0,0,0,0,1.9603e-19,0,0,0,0,0,0,0,0,0,1,0
9097,-3.11492e-12,6.87482e-38,-1.52385e-06,-3.18057e-12,6.87434e-38,0,-1.06591e-13,0,0,0,0,0,0,0,0,0,0,0,0,0,0,0,0,0,0,0,0,0,-0.35,1.00845,-1.5,3.94113e+12,0,0,2,0,0,0,0,0,0,0,0,1.9603e-19,0,0,0,0,0,0,0,0,0,1,0
9113,-3.11492e-12,6.87482e-38,-1.52385e-06,-3.18057e-12,6.87434e-38,0,-1.06591e-13,0,0,0,0,0,0,0,0,0,0,0,0,0,0,0,0,0,0,0,0,0,-0.35,1.03358,-1.5,3.94113e+12,0,0,2,0,0,0,0,0,0,0,0,1.9603e-19,0,0,0,0,0,0,0,0,0,1,0
9145,-3.11492e-12,6.87482e-38,-1.52385e-06,-3.18057e-12,6.87434e-38,0,-1.06591e-13,0,0,0,0,0,0,0,0,0,0,0,0,0,0,0,0,0,0,0,0,0,-0.35,1.08385,-1.5,3.94113e+12,0,0,2,0,0,0,0,0,0,0,0,1.9603e-19,0,0,0,0,0,0,0,0,0,1,0
9161,-3.11492e-12,6.87482e-38,-1.52385e-06,-3.18057e-12,6.87434e-38,0,-1.06592e-13,0,0,0,0,0,0,0,0,0,0,0,0,0,0,0,0,0,0,0,0,0,-0.35,1.10898,-1.5,3.94113e+12,0,0,2,0,0,0,0,0,0,0,0,1.9603e-19,0,0,0,0,0,0,0,0,0,1,0
9178,-3.11492e-12,6.87482e-38,-1.52385e-06,-3.18057e-12,6.87434e-38,0,-1.06592e-13,0,0,0,0,0,0,0,0,0,0,0,0,-1368092360,359888196,-1368092360,359888196,2074875869,-1368092360,-1368084064,-1368084064,0,-0.35,1.13411,-1.5,3.94113e+12,0,0,2,0,0,0,0,0,0,0,0,0,0,0,0,0,0,0,0,0,0,1,0
9236,-3.11492e-12,6.87482e-38,-1.52385e-06,-3.18057e-12,6.87434e-38,0,-1.06592e-13,0,0,-3.98874,-0.256121,0.61718,0,0,0,0,0,0,0,289,-49,289,-49,405,-48,289,60,0,-0.35,1.22679,-1.5,3.94113e+12,0,0,2,0,0,0,0,0,0,0,0,13224,0,0,0,0,0,0,0,0,0,1,0
9264,-3.11492e-12,6.87482e-38,-1.52385e-06,-3.18057e-12,6.87434e-38,0,-1.06593e-13,0,0,-4.0306,-0.241487,0.608776,0,0,0,0,0,0,0,289,-46,289,-46,400,-45,288,64,0,-0.35,1.2692,-1.5,3.94113e+12,0,0,2,0,0,0,0,0,0,0,0,12882,0,0,0,0,0,0,0,0,0,1,0
9279,-3.11492e-12,6.87482e-38,-1.52385e-06,-3.18057e-12,6.87434e-38,0,-1.06593e-13,0,0,-4.0306,-0.241487,0.608776,0,0,0,0,0,0,0,289,-46,289,-46,400,-45,288,64,0,-0.35,1.29277,-1.5,3.94113e+12,0,0,2,0,0,0,0,0,0,0,0,12882,0,0,0,0,0,0,0,0,0,1,0
9294,-3.11492e-12,6.87482e-38,-1.52385e-06,-3.18057e-12,6.87434e-38,0,-1.06593e-13,0,0,-4.01345,-0.204088,0.594637,0,0,0,0,0,0,0,286,-46,286,-46,398,-43,282,64,0,-0.35,1.31633,-1.5,3.94113e+12,0,0,2,0,0,0,0,0,0,0,0,13224,0,0,0,0,0,0,0,0,0,1,0
9310,-3.11492e-12,6.87482e-38,-1.52385e-06,-3.18057e-12,6.87434e-38,0,-1.06593e-13,0,0,-4.01345,-0.204088,0.594637,0,0,0,0,0,0,0,286,-46,286,-46,398,-43,282,64,0,-0.35,1.34146,-1.5,3.94113e+12,0,0,2,0,0,0,0,0,0,0,0,13224,0,0,0,0,0,0,0,0,0,1,0
9326,-3.11492e-12,6.87482e-38,-1.52385e-06,-3.18057e-12,6.87434e-38,0,-1.06594e-13,0,0,-4.01345,-0.204088,0.594637,0,0,0,0,0,0,0,286,-46,286,-46,398,-43,282,64,0,-0.35,1.36659,-1.5,3.94113e+12,0,0,2,0,0,0,0,0,0,0,0,13224,0,0,0,0,0,0,0,0,0,1,0
9339,-3.11492e-12,6.87482e-38,-1.52385e-06,-3.18057e-12,6.87434e-38,0,-1.06594e-13,0,0,-4.01345,-0.204088,0.594637,0,0,0,0,0,0,0,286,-46,286,-46,398,-43,282,64,0,-0.35,1.38701,-1.5,3.94113e+12,0,0,2,0,0,0,0,0,0,0,0,13224,0,0,0,0,0,0,0,0,0,1,0
9352,-3.11492e-12,6.87482e-38,-1.52385e-06,-3.18057e-12,6.87434e-38,0,-1.06594e-13,0,0,-4.01345,-0.204088,0.594637,0,0,0,0,0,0,0,286,-46,286,-46,398,-43,282,64,0,-0.35,1.40743,-1.5,3.94113e+12,0,0,2,0,0,0,0,0,0,0,0,13224,0,0,0,0,0,0,0,0,0,1,0
9368,-3.11492e-12,6.87482e-38,-1.52385e-06,-3.18057e-12,6.87434e-38,0,-1.06594e-13,0,0,-3.96648,-0.226189,0.568428,0,0,0,0,0,0,0,289,-46,289,-46,405,-43,282,63,0,-0.35,1.43257,-1.5,3.94113e+12,0,0,2,0,0,0,0,0,0,0,0,14145,0,0,0,0,0,0,0,0,0,1,0
9384,-3.11492e-12,6.87482e-38,-1.52385e-06,-3.18057e-12,6.87434e-38,0,-1.06595e-13,0,0,-3.96648,-0.226189,0.568428,0,0,0,0,0,0,0,289,-46,289,-46,405,-43,282,63,0,-0.35,1.4577,-1.5,3.94113e+12,0,0,2,0,0,0,0,0,0,0,0,14145,0,0,0,0,0,0,0,0,0,1,0
9399,-3.11492e-12,6.87482e-38,-1.52385e-06,-3.18057e-12,6.87434e-38,0,-1.06595e-13,0,0,-3.98352,-0.221442,0.580515,0,0,0,0,0,0,0,285,-44,285,-44,402,-45,285,63,0,-0.35,1.48126,-1.5,3.94113e+12,0,0,2,0,0,0,0,0,0,0,0,13221,0,0,0,0,0,0,0,0,0,1,0
9415,-3.11492e-12,6.87482e-38,-1.52385e-06,-3.18057e-12,6.87434e-38,0,-1.06595e-13,0,0,-3.98352,-0.221442,0.580515,0,0,0,0,0,0,0,285,-44,285,-44,402,-45,285,63,0,-0.35,1.50639,-1.5,3.94113e+12,0,0,2,0,0,0,0,0,0,0,0,13221,0,0,0,0,0,0,0,0,0,1,0
9432,-3.11492e-12,6.87482e-38,-1.52385e-06,-3.18057e-12,6.87434e-38,0,-1.06596e-13,0,0,-3.97092,-0.226185,0.57304,0,0,0,0,0,0,0,287,-46,287,-46,402,-45,285,63,0,-0.35,1.5331,-1.5,3.94113e+12,0,0,2,0,0,0,0,0,0,0,0,13572,0,0,0,0,0,0,0,0,0,1,0
9448,-3.11492e-12,6.87482e-38,-1.52385e-06,-3.18057e-12,6.87434e-38,0,-1.06596e-13,0,0,-3.97092,-0.226185,0.57304,0,0,0,0,0,0,0,287,-46,287,-46,402,-45,285,63,0,-0.35,1.55666,-1.5,3.94113e+12,0,0,2,0,0,0,0,0,0,0,0,13572,0,0,0,0,0,0,0,0,0,1,0
9463,-3.11492e-12,6.87482e-38,-1.52385e-06,-3.18057e-12,6.87434e-38,0,-1.06596e-13,0,0,-3.94982,-0.229796,0.561494,0,0,0,0,0,0,0,287,-46,287,-46,402,-45,285,63,0,-0.35,1.58179,-1.5,3.94113e+12,0,0,2,0,0,0,0,0,0,0,0,13572,0,0,0,0,0,0,0,0,0,1,0
9479,-3.11492e-12,6.87482e-38,-1.52385e-06,-3.18057e-12,6.87434e-38,0,-1.06596e-13,0,0,-3.94982,-0.229796,0.561494,0,0,0,0,0,0,0,287,-46,287,-46,402,-45,285,63,0,-0.35,1.60693,-1.5,3.94113e+12,0,0,2,0,0,0,0,0,0,0,0,13572,0,0,0,0,0,0,0,0,0,1,0
9495,-3.11492e-12,6.87482e-38,-1.52385e-06,-3.18057e-12,6.87434e-38,0,-1.06597e-13,0,0,-3.9429,-0.235997,0.555831,0,0,0,0,0,0,0,287,-46,287,-46,402,-43,285,66,0,-0.35,1.63049,-1.5,3.94113e+12,0,0,2,0,0,0,0,0,0,0,0,13328,0,0,0,0,0,0,0,0,0,1,0
9510,-3.11492e-12,6.87482e-38,-1.52385e-06,-3.18057e-12,6.87434e-38,0,-1.06597e-13,0,0,-3.9429,-0.235997,0.555831,0,0,0,0,0,0,0,287,-46,287,-46,402,-43,285,66,0,-0.35,1.65405,-1.5,3.94113e+12,0,0,2,0,0,0,0,0,0,0,0,13328,0,0,0,0,0,0,0,0,0,1,0
9526,-3.11492e-12,6.87482e-38,-1.52385e-06,-3.18057e-12,6.87434e-38,0,-1.06597e-13,0,0,-3.98628,-0.226859,0.596586,0,0,0,0,0,0,0,287,-48,287,-48,400,-45,285,63,0,-0.35,1.67918,-1.5,3.94113e+12,0,0,2,0,0,0,0,0,0,0,0,13224,0,0,0,0,0,0,0,0,0,1,0
9542,-3.11492e-12,6.87482e-38,-1.52385e-06,-3.18057e-12,6.87434e-38,0,-1.06597e-13,0,0,-3.98628,-0.226859,0.596586,0,0,0,0,0,0,0,287,-48,287,-48,400,-45,285,63,0,-0.35,1.70275,-1.5,3.94113e+12,0,0,2,0,0,0,0,0,0,0,0,13224,0,0,0,0,0,0,0,0,0,1,0
9585,-3.11492e-12,6.87482e-38,-1.52385e-06,-3.18057e-12,6.87434e-38,0,-1.06598e-13,0,0,-3.98889,-0.217285,0.597902,0,0,0,0,0,0,0,285,-48,285,-48,400,-45,285,63,0,-0.35,1.77186,-1.5,3.94113e+12,0,0,2,0,0,0,0,0,0,0,0,13110,0,0,0,0,0,0,0,0,0,1,0
9601,-3.11492e-12,6.87482e-38,-1.52385e-06,-3.18057e-12,6.87434e-38,0,-1.06598e-13,0,0,-4.01446,-0.22571,0.607494,0,0,0,0,0,0,0,287,-46,287,-46,401,-45,285,63,0,-0.35,1.79699,-1.5,3.94113e+12,0,0,2,0,0,0,0,0,0,0,0,12992,0,0,0,0,0,0,0,0,0,1,0
9619,-3.11492e-12,6.87482e-38,-1.52385e-06,-3.18057e-12,6.87434e-38,0,-1.06598e-13,0,0,-4.01446,-0.22571,0.607494,0,0,0,0,0,0,0,287,-46,287,-46,401,-45,285,63,0,-0.35,1.82527,-1.5,3.94113e+12,0,0,2,0,0,0,0,0,0,0,0,12992,0,0,0,0,0,0,0,0,0,1,0
9634,-3.11492e-12,6.87482e-38,-1.52385e-06,-3.18057e-12,6.87434e-38,0,-1.06599e-13,0,0,-4.02717,-0.229221,0.619256,0,0,0,0,0,0,0,289,-48,289,-48,400,-45,285,63,0,-0.35,1.84883,-1.5,3.94113e+12,0,0,2,0,0,0,0,0,0,0,0,13110,0,0,0,0,0,0,0,0,0,1,0
9647,-3.11492e-12,6.87482e-38,-1.52385e-06,-3.18057e-12,6.87434e-38,0,-1.06599e-13,0,0,-4.02717,-0.229221,0.619256,0,0,0,0,0,0,0,289,-48,289,-48,400,-45,285,63,0,-0.35,1.86925,-1.5,3.94113e+12,0,0,2,0,0,0,0,0,0,0,0,13110,0,0,0,0,0,0,0,0,0,1,0
9663,-3.11492e-12,6.87482e-38,-1.52385e-06,-3.18057e-12,6.87434e-38,0,-1.06599e-13,0,0,-3.95777,-0.223193,0.572653,0,0,0,0,0,0,0,287,-48,287,-48,401,-46,285,63,0,-0.35,1.89281,-1.5,3.94113e+12,0,0,2,0,0,0,0,0,0,0,0,13688,0,0,0,0,0,0,0,0,0,1,0
9678,-3.11492e-12,6.87482e-38,-1.52385e-06,-3.18057e-12,6.87434e-38,0,-1.06599e-13,0,0,-3.95777,-0.223193,0.572653,0,0,0,0,0,0,0,287,-48,287,-48,401,-46,285,63,0,-0.35,1.91637,-1.5,3.94113e+12,0,0,2,0,0,0,0,0,0,0,0,13688,0,0,0,0,0,0,0,0,0,1,0
9694,-3.11492e-12,6.87482e-38,-1.52385e-06,-3.18057e-12,6.87434e-38,0,-1.066e-13,0,0,-3.96412,-0.235349,0.581366,0,0,0,0,0,0,0,286,-48,286,-48,401,-46,288,63,0,-0.35,1.94151,-1.5,3.94113e+12,0,0,2,0,0,0,0,0,0,0,0,13456,0,0,0,0,0,0,0,0,0,1,0
9709,-3.11492e-12,6.87482e-38,-1.52385e-06,-3.18057e-12,6.87434e-38,0,-1.066e-13,0,0,-3.96412,-0.235349,0.581366,0,0,0,0,0,0,0,286,-48,286,-48,401,-46,288,63,0,-0.35,1.96507,-1.5,3.94113e+12,0,0,2,0,0,0,0,0,0,0,0,13456,0,0,0,0,0,0,0,0,0,1,0
9731,-3.11492e-12,6.87482e-38,-1.52385e-06,-3.18057e-12,6.87434e-38,0,-1.066e-13,0,0,-3.96116,-0.235214,0.579842,0,0,0,0,0,0,0,289,-48,289,-48,401,-46,285,63,0,-0.35,1.99963,-1.5,3.94113e+12,0,0,2,0,0,0,0,0,0,0,0,13572,0,0,0,0,0,0,0,0,0,1,0
9747,-3.11492e-12,6.87482e-38,-1.52385e-06,-3.18057e-12,6.87434e-38,0,-1.066e-13,0,0,-3.96116,-0.235214,0.579842,0,0,0,0,0,0,0,289,-48,289,-48,401,-46,285,63,0,-0.35,2.02476,-1.5,3.94113e+12,0,0,2,0,0,0,0,0,0,0,0,13572,0,0,0,0,0,0,0,0,0,1,0
9764,-3.11492e-12,6.87482e-38,-1.52385e-06,-3.18057e-12,6.87434e-38,0,-1.06601e-13,0,0,-4.00125,-0.260046,0.587694,0,0,0,0,0,0,0,290,-46,290,-46,405,-43,289,62,0,-0.35,2.05146,-1.5,3.94113e+12,0,0,2,0,0,0,0,0,0,0,0,13456,0,0,0,0,0,0,0,0,0,1,0
9779,-3.11492e-12,6.87482e-38,-1.52385e-06,-3.18057e-12,6.87434e-38,0,-1.06601e-13,0,0,-4.00125,-0.260046,0.587694,0,0,0,0,0,0,0,290,-46,290,-46,405,-43,289,62,0,-0.35,2.07503,-1.5,3.94113e+12,0,0,2,0,0,0,0,0,0,0,0,13456,0,0,0,0,0,0,0,0,0,1,0
9795,-3.11492e-12,6.87482e-38,-1.52385e-06,-3.18057e-12,6.87434e-38,0,-1.06601e-13,0,0,-3.96348,-0.257414,0.563768,0,0,0,0,0,0,0,290,-46,290,-46,405,-45,289,63,0,-0.35,2.10016,-1.5,3.94113e+12,0,0,2,0,0,0,0,0,0,0,0,13688,0,0,0,0,0,0,0,0,0,1,0
9810,-3.11492e-12,6.87482e-38,-1.52385e-06,-3.18057e-12,6.87434e-38,0,-1.06602e-13,0,0,-3.96348,-0.257414,0.563768,0,0,0,0,0,0,0,290,-46,290,-46,405,-45,289,63,0,-0.35,2.12372,-1.5,3.94113e+12,0,0,2,0,0,0,0,0,0,0,0,13688,0,0,0,0,0,0,0,0,0,1,0
9826,-3.11492e-12,6.87482e-38,-1.52385e-06,-3.18057e-12,6.87434e-38,0,-1.06602e-13,0,0,-4.02669,-0.246546,0.589977,0,0,0,0,0,0,0,287,-44,287,-44,402,-41,289,64,0,-0.35,2.14885,-1.5,3.94113e+12,0,0,2,0,0,0,0,0,0,0,0,12995,0,0,0,0,0,0,0,0,0,1,0
9841,-3.11492e-12,6.87482e-38,-1.52385e-06,-3.18057e-12,6.87434e-38,0,-1.06602e-13,0,0,-4.02669,-0.246546,0.589977,0,0,0,0,0,0,0,287,-44,287,-44,402,-41,289,64,0,-0.35,2.17242,-1.5,3.94113e+12,0,0,2,0,0,0,0,0,0,0,0,12995,0,0,0,0,0,0,0,0,0,1,0
9857,-3.11492e-12,6.87482e-38,-1.52385e-06,-3.18057e-12,6.87434e-38,0,-1.06602e-13,0,0,-4.02669,-0.246546,0.589977,0,0,0,0,0,0,0,287,-44,287,-44,402,-41,289,64,0,-0.35,2.19755,-1.5,3.94113e+12,0,0,2,0,0,0,0,0,0,0,0,12995,0,0,0,0,0,0,0,0,0,1,0
9873,-3.11492e-12,6.87482e-38,-1.52385e-06,-3.18057e-12,6.87434e-38,0,-1.06603e-13,0,0,-3.96514,-0.243376,0.548186,0,0,0,0,0,0,0,286,-41,286,-41,404,-45,289,69,0,-0.35,2.22111,-1.5,3.94113e+12,0,0,2,0,0,0,0,0,0,0,0,13452,0,0,0,0,0,0,0,0,0,1,0
9888,-3.11492e-12,6.87482e-38,-1.52385e-06,-3.18057e-12,6.87434e-38,0,-1.06603e-13,0,0,-3.96514,-0.243376,0.548186,0,0,0,0,0,0,0,286,-41,286,-41,404,-45,289,69,0,-0.35,2.24624,-1.5,3.94113e+12,0,0,2,0,0,0,0,0,0,0,0,13452,0,0,0,0,0,0,0,0,0,1,0
9901,-3.11492e-12,6.87482e-38,-1.52385e-06,-3.18057e-12,6.87434e-38,0,-1.06603e-13,0,0,-3.96249,-0.249462,0.570878,0,0,0,0,0,0,0,287,-46,287,-46,405,-45,289,64,0,-0.35,2.26666,-1.5,3.94113e+12,0,0,2,0,0,0,0,0,0,0,0,13452,0,0,0,0,0,0,0,0,0,1,0
9914,-3.11492e-12,6.87482e-38,-1.52385e-06,-3.18057e-12,6.87434e-38,0,-1.06603e-13,0,0,-3.96249,-0.249462,0.570878,0,0,0,0,0,0,0,287,-46,287,-46,405,-45,289,64,0,-0.35,2.28708,-1.5,3.94113e+12,0,0,2,0,0,0,0,0,0,0,0,13452,0,0,0,0,0,0,0,0,0,1,0
9930,-3.11492e-12,6.87482e-38,-1.52385e-06,-3.18057e-12,6.87434e-38,0,-1.06604e-13,0,0,-4.01112,-0.257427,0.588588,0,0,0,0,0,0,0,290,-44,290,-44,405,-43,288,64,0,-0.35,2.31222,-1.5,3.94113e+12,0,0,2,0,0,0,0,0,0,0,0,13104,0,0,0,0,0,0,0,0,0,1,0
9946,-3.11492e-12,6.87482e-38,-1.52385e-06,-3.18057e-12,6.87434e-38,0,-1.06604e-13,0,0,-4.01112,-0.257427,0.588588,0,0,0,0,0,0,0,290,-44,290,-44,405,-43,288,64,0,-0.35,2.33735,-1.5,3.94113e+12,0,0,2,0,0,0,0,0,0,0,0,13104,0,0,0,0,0,0,0,0,0,1,0
9962,-3.11492e-12,6.87482e-38,-1.52385e-06,-3.18057e-12,6.87434e-38,0,-1.06604e-13,0,0,-3.98939,-0.261309,0.583257,0,0,0,0,0,0,0,292,-46,292,-46,405,-45,288,63,0,-0.35,2.36091,-1.5,3.94113e+12,0,0,2,0,0,0,0,0,0,0,0,13572,0,0,0,0,0,0,0,0,0,1,0
9977,-3.11492e-12,6.87482e-38,-1.52385e-06,-3.18057e-12,6.87434e-38,0,-1.06605e-13,0,0,-3.98939,-0.261309,0.583257,0,0,0,0,0,0,0,292,-46,292,-46,405,-45,288,63,0,-0.35,2.3856,-1.5,3.94113e+12,0,0,2,0,0,0,0,0,0,0,0,13572,0,0,0,0,0,0,0,0,0,1,0
9993,-3.11492e-12,6.87482e-38,-1.52385e-06,-3.18057e-12,6.87434e-38,0,-1.06605e-13,0,0,-3.98972,-0.263389,0.586091,0,0,0,0,0,0,0,292,-46,292,-46,405,-45,288,64,0,-0.35,2.40951,-1.5,3.94113e+12,0,0,2,0,0,0,0,0,0,0,0,13338,0,0,0,0,0,0,0,0,0,1,0
10008,-3.11492e-12,6.87482e-38,-1.52385e-06,-3.18057e-12,6.87434e-38,0,-1.06605e-13,0,0,-3.98972,-0.263389,0.586091,0,0,0,0,0,0,0,292,-46,292,-46,405,-45,288,64,0,-0.35,2.43124,-1.5,3.94113e+12,0,0,2,0,0,0,0,0,0,0,0,13338,0,0,0,0,0,0,0,0,0,1,0
10024,-3.11492e-12,6.87482e-38,-1.52385e-06,-3.18057e-12,6.87434e-38,0,-1.06605e-13,0,0,-3.98972,-0.263389,0.586091,0,0,0,0,0,0,0,292,-46,292,-46,405,-45,288,64,0,-0.35,2.45372,-1.5,3.94113e+12,0,0,2,0,0,0,0,0,0,0,0,13338,0,0,0,0,0,0,0,0,0,1,0
10066,-3.11492e-12,6.87482e-38,-1.52385e-06,-3.18057e-12,6.87434e-38,0,-1.06606e-13,0,0,-3.98459,-0.253536,0.568824,0,0,0,0,0,0,0,289,-44,289,-44,405,-43,288,64,0,-0.35,2.51069,-1.5,3.94113e+12,0,0,2,0,0,0,0,0,0,0,0,13338,0,0,0,0,0,0,0,0,0,1,0
10082,-3.11492e-12,6.87482e-38,-1.52385e-06,-3.18057e-12,6.87434e-38,0,-1.06606e-13,0,0,-3.98459,-0.253536,0.568824,0,0,0,0,0,0,0,289,-44,289,-44,405,-43,288,64,0,-0.35,2.53065,-1.5,3.94113e+12,0,0,2,0,0,0,0,0,0,0,0,13338,0,0,0,0,0,0,0,0,0,1,0
10098,-3.11492e-12,6.87482e-38,-1.52385e-06,-3.18057e-12,6.87434e-38,0,-1.06606e-13,0,0,-3.98372,-0.255124,0.572984,0,0,0,0,0,0,0,290,-44,290,-44,405,-45,288,66,0,-0.35,2.54999,-1.5,3.94113e+12,0,0,2,0,0,0,0,0,0,0,0,13221,0,0,0,0,0,0,0,0,0,1,0
10115,-3.11492e-12,6.87482e-38,-1.52385e-06,-3.18057e-12,6.87434e-38,0,-1.06606e-13,0,0,-3.98372,-0.255124,0.572984,0,0,0,0,0,0,0,290,-44,290,-44,405,-45,288,66,0,-0.35,2.56871,-1.5,3.94113e+12,0,0,2,0,0,0,0,0,0,0,0,13221,0,0,0,0,0,0,0,0,0,1,0
10130,-3.11492e-12,6.87482e-38,-1.52385e-06,-3.18057e-12,6.87434e-38,0,-1.06607e-13,0,0,-3.98839,-0.275856,0.577906,0,0,0,0,0,0,0,290,-46,290,-46,408,-43,292,64,0,-0.35,2.58684,-1.5,3.94113e+12,0,0,2,0,0,0,0,0,0,0,0,13570,0,0,0,0,0,0,0,0,0,1,0
10146,-3.11492e-12,6.87482e-38,-1.52385e-06,-3.18057e-12,6.87434e-38,0,-1.06607e-13,0,0,-3.98839,-0.275856,0.577906,0,0,0,0,0,0,0,290,-46,290,-46,408,-43,292,64,0,-0.35,2.60439,-1.5,3.94113e+12,0,0,2,0,0,0,0,0,0,0,0,13570,0,0,0,0,0,0,0,0,0,1,0
10162,-3.11492e-12,6.87482e-38,-1.52385e-06,-3.18057e-12,6.87434e-38,0,-1.06607e-13,0,0,-4.01575,-0.272796,0.583959,0,0,0,0,0,0,0,289,-44,289,-44,405,-41,292,64,0,-0.35,2.62138,-1.5,3.94113e+12,0,0,2,0,0,0,0,0,0,0,0,13108,0,0,0,0,0,0,0,0,0,1,0
10177,-3.11492e-12,6.87482e-38,-1.52385e-06,-3.18057e-12,6.87434e-38,0,-1.06607e-13,0,0,-4.01575,-0.272796,0.583959,0,0,0,0,0,0,0,289,-44,289,-44,405,-41,292,64,0,-0.35,2.63682,-1.5,3.94113e+12,0,0,2,0,0,0,0,0,0,0,0,13108,0,0,0,0,0,0,0,0,0,1,0
10191,-3.11492e-12,6.87482e-38,-1.52385e-06,-3.18057e-12,6.87434e-38,0,-1.06608e-13,0,0,-4.01575,-0.272796,0.583959,0,0,0,0,0,0,0,289,-44,289,-44,405,-41,292,64,0,-0.35,2.6508,-1.5,3.94113e+12,0,0,2,0,0,0,0,0,0,0,0,13108,0,0,0,0,0,0,0,0,0,1,0
10204,-3.11492e-12,6.87482e-38,-1.52385e-06,-3.18057e-12,6.87434e-38,0,-1.06608e-13,0,0,-3.96949,-0.281795,0.559978,0,0,0,0,0,0,0,292,-44,292,-44,407,-45,292,63,0,-0.35,2.66344,-1.5,3.94113e+12,0,0,2,0,0,0,0,0,0,0,0,13570,0,0,0,0,0,0,0,0,0,1,0
10219,-3.11492e-12,6.87482e-38,-1.52385e-06,-3.18057e-12,6.87434e-38,0,-1.06608e-13,0,0,-3.96949,-0.281795,0.559978,0,0,0,0,0,0,0,292,-44,292,-44,407,-45,292,63,0,-0.35,2.67763,-1.5,3.94113e+12,0,0,2,0,0,0,0,0,0,0,0,13570,0,0,0,0,0,0,0,0,0,1,0
10235,-3.11492e-12,6.87482e-38,-1.52385e-06,-3.18057e-12,6.87434e-38,0,-1.06609e-13,0,0,-4.04381,-0.291709,0.609416,0,0,0,0,0,0,0,293,-44,293,-44,408,-42,292,63,0,-0.35,2.6923,-1.5,3.94113e+12,0,0,2,0,0,0,0,0,0,0,0,12876,0,0,0,0,0,0,0,0,0,1,0
10250,-3.11492e-12,6.87482e-38,-1.52385e-06,-3.18057e-12,6.87434e-38,0,-1.06609e-13,0,0,-4.04381,-0.291709,0.609416,0,0,0,0,0,0,0,293,-44,293,-44,408,-42,292,63,0,-0.35,2.70564,-1.5,3.94113e+12,0,0,2,0,0,0,0,0,0,0,0,12876,0,0,0,0,0,0,0,0,0,1,0
10266,-3.11492e-12,6.87482e-38,-1.52385e-06,-3.18057e-12,6.87434e-38,0,-1.06609e-13,0,0,-4.0265,-0.26685,0.58953,0,0,0,0,0,0,0,293,-46,293,-46,405,-40,288,64,0,-0.35,2.71944,-1.5,3.94113e+12,0,0,2,0,0,0,0,0,0,0,0,13572,0,0,0,0,0,0,0,0,0,1,0
10281,-3.11492e-12,6.87482e-38,-1.52385e-06,-3.18057e-12,6.87434e-38,0,-1.06609e-13,0,0,-4.0265,-0.26685,0.58953,0,0,0,0,0,0,0,293,-46,293,-46,405,-40,288,64,0,-0.35,2.73197,-1.5,3.94113e+12,0,0,2,0,0,0,0,0,0,0,0,13572,0,0,0,0,0,0,0,0,0,1,0
10297,-3.11492e-12,6.87482e-38,-1.52385e-06,-3.18057e-12,6.87434e-38,0,-1.0661e-13,0,0,-4.00977,-0.281913,0.599514,0,0,0,0,0,0,0,292,-46,292,-46,408,-45,292,63,0,-0.35,2.74493,-1.5,3.94113e+12,0,0,2,0,0,0,0,0,0,0,0,13224,0,0,0,0,0,0,0,0,0,1,0
10313,-3.11492e-12,6.87482e-38,-1.52385e-06,-3.18057e-12,6.87434e-38,0,-1.0661e-13,0,0,-4.00977,-0.281913,0.599514,0,0,0,0,0,0,0,292,-46,292,-46,408,-45,292,63,0,-0.35,2.75748,-1.5,3.94113e+12,0,0,2,0,0,0,0,0,0,0,0,13224,0,0,0,0,0,0,0,0,0,1,0
10329,-3.11492e-12,6.87482e-38,-1.52385e-06,-3.18057e-12,6.87434e-38,0,-1.0661e-13,0,0,-3.95915,-0.254729,0.549784,0,0,0,0,0,0,0,289,-46,289,-46,405,-41,288,66,0,-0.35,2.76888,-1.5,3.94113e+12,0,0,2,0,0,0,0,0,0,0,0,13572,0,0,0,0,0,0,0,0,0,1,0
10344,-3.11492e-12,6.87482e-38,-1.52385e-06,-3.18057e-12,6.87434e-38,0,-1.0661e-13,0,0,-3.95915,-0.254729,0.549784,0,0,0,0,0,0,0,289,-46,289,-46,405,-41,288,66,0,-0.35,2.78067,-1.5,3.94113e+12,0,0,2,0,0,0,0,0,0,0,0,13572,0,0,0,0,0,0,0,0,0,1,0
10360,-3.11492e-12,6.87482e-38,-1.52385e-06,-3.18057e-12,6.87434e-38,0,-1.06611e-13,0,0,-3.95915,-0.254729,0.549784,0,0,0,0,0,0,0,289,-46,289,-46,405,-41,288,66,0,-0.35,2.79208,-1.5,3.94113e+12,0,0,2,0,0,0,0,0,0,0,0,13572,0,0,0,0,0,0,0,0,0,1,0
10375,-3.11492e-12,6.87482e-38,-1.52385e-06,-3.18057e-12,6.87434e-38,0,-1.06611e-13,0,0,-3.95915,-0.254729,0.549784,0,0,0,0,0,0,0,289,-46,289,-46,405,-41,288,66,0,-0.35,2.80246,-1.5,3.94113e+12,0,0,2,0,0,0,0,0,0,0,0,13572,0,0,0,0,0,0,0,0,0,1,0
10398,-3.11492e-12,6.87482e-38,-1.52385e-06,-3.18057e-12,6.87434e-38,0,-1.06611e-13,0,0,-3.98478,-0.258483,0.559281,0,0,0,0,0,0,0,290,-44,290,-44,405,-41,288,66,0,-0.35,2.8172,-1.5,3.94113e+12,0,0,2,0,0,0,0,0,0,0,0,13338,0,0,0,0,0,0,0,0,0,1,0
10414,-3.11492e-12,6.87482e-38,-1.52385e-06,-3.18057e-12,6.87434e-38,0,-1.06612e-13,0,0,-3.98478,-0.258483,0.559281,0,0,0,0,0,0,0,290,-44,290,-44,405,-41,288,66,0,-0.35,2.82809,-1.5,3.94113e+12,0,0,2,0,0,0,0,0,0,0,0,13338,0,0,0,0,0,0,0,0,0,1,0
10430,-3.11492e-12,6.87482e-38,-1.52385e-06,-3.18057e-12,6.87434e-38,0,-1.06612e-13,0,0,-3.97026,-0.262976,0.550792,0,0,0,0,0,0,0,292,-46,292,-46,405,-41,288,66,0,-0.35,2.83801,-1.5,3.94113e+12,0,0,2,0,0,0,0,0,0,0,0,13806,0,0,0,0,0,0,0,0,0,1,0
10445,-3.11492e-12,6.87482e-38,-1.52385e-06,-3.18057e-12,6.87434e-38,0,-1.06612e-13,0,0,-3.97026,-0.262976,0.550792,0,0,0,0,0,0,0,292,-46,292,-46,405,-41,288,66,0,-0.35,2.84702,-1.5,3.94113e+12,0,0,2,0,0,0,0,0,0,0,0,13806,0,0,0,0,0,0,0,0,0,1,0
10459,-3.11492e-12,6.87482e-38,-1.52385e-06,-3.18057e-12,6.87434e-38,0,-1.06612e-13,0,0,-3.89573,-0.26697,0.519578,0,0,0,0,0,0,0,290,-46,290,-46,408,-43,288,66,0,-0.35,2.85518,-1.5,3.94113e+12,0,0,2,0,0,0,0,0,0,0,0,13920,0,0,0,0,0,0,0,0,0,1,0
10472,-3.11492e-12,6.87482e-38,-1.52385e-06,-3.18057e-12,6.87434e-38,0,-1.06613e-13,0,0,-3.89573,-0.26697,0.519578,0,0,0,0,0,0,0,290,-46,290,-46,408,-43,288,66,0,-0.35,2.86256,-1.5,3.94113e+12,0,0,2,0,0,0,0,0,0,0,0,13920,0,0,0,0,0,0,0,0,0,1,0
10488,-3.11492e-12,6.87482e-38,-1.52385e-06,-3.18057e-12,6.87434e-38,0,-1.06613e-13,0,0,-3.89573,-0.26697,0.519578,0,0,0,0,0,0,0,290,-46,290,-46,408,-43,288,66,0,-0.35,2.87138,-1.5,3.94113e+12,0,0,2,0,0,0,0,0,0,0,0,13920,0,0,0,0,0,0,0,0,0,1,0
10503,-3.11492e-12,6.87482e-38,-1.52385e-06,-3.18057e-12,6.87434e-38,0,-1.06613e-13,0,0,-3.95915,-0.254729,0.549784,0,0,0,0,0,0,0,289,-46,289,-46,405,-41,288,66,0,-0.35,2.8794,-1.5,3.94113e+12,0,0,2,0,0,0,0,0,0,0,0,13572,0,0,0,0,0,0,0,0,0,1,0
10518,-3.11492e-12,6.87482e-38,-1.52385e-06,-3.18057e-12,6.87434e-38,0,-1.06613e-13,0,0,-3.95915,-0.254729,0.549784,0,0,0,0,0,0,0,289,-46,289,-46,405,-41,288,66,0,-0.35,2.88719,-1.5,3.94113e+12,0,0,2,0,0,0,0,0,0,0,0,13572,0,0,0,0,0,0,0,0,0,1,0
10534,-3.11492e-12,6.87482e-38,-1.52385e-06,-3.18057e-12,6.87434e-38,0,-1.06614e-13,0,0,-3.92409,-0.257152,0.520541,0,0,0,0,0,0,0,289,-44,289,-44,408,-42,288,66,0,-0.35,2.89523,-1.5,3.94113e+12,0,0,2,0,0,0,0,0,0,0,0,14040,0,0,0,0,0,0,0,0,0,1,0
10549,-3.11492e-12,6.87482e-38,-1.52385e-06,-3.18057e-12,6.87434e-38,0,-1.06614e-13,0,0,-3.92409,-0.257152,0.520541,0,0,0,0,0,0,0,289,-44,289,-44,408,-42,288,66,0,-0.35,2.90254,-1.5,3.94113e+12,0,0,2,0,0,0,0,0,0,0,0,14040,0,0,0,0,0,0,0,0,0,1,0
10565,-3.11492e-12,6.87482e-38,-1.52385e-06,-3.18057e-12,6.87434e-38,0,-1.06614e-13,0,0,-3.95818,-0.261437,0.546822,0,0,0,0,0,0,0,290,-44,290,-44,408,-42,288,66,0,-0.35,2.90964,-1.5,3.94113e+12,0,0,2,0,0,0,0,0,0,0,0,13680,0,0,0,0,0,0,0,0,0,1,0
10580,-3.11492e-12,6.87482e-38,-1.52385e-06,-3.18057e-12,6.87434e-38,0,-1.06615e-13,0,0,-3.95818,-0.261437,0.546822,0,0,0,0,0,0,0,290,-44,290,-44,408,-42,288,66,0,-0.35,2.91698,-1.5,3.94113e+12,0,0,2,0,0,0,0,0,0,0,0,13680,0,0,0,0,0,0,0,0,0,1,0
10595,-3.11492e-12,6.87482e-38,-1.52385e-06,-3.18057e-12,6.87434e-38,0,-1.06615e-13,0,0,-3.93305,-0.257705,0.537562,0,0,0,0,0,0,0,289,-46,289,-46,408,-42,288,66,0,-0.35,2.92364,-1.5,3.94113e+12,0,0,2,0,0,0,0,0,0,0,0,13920,0,0,0,0,0,0,0,0,0,1,0
10611,-3.11492e-12,6.87482e-38,-1.52385e-06,-3.18057e-12,6.87434e-38,0,-1.06615e-13,0,0,-3.93305,-0.257705,0.537562,0,0,0,0,0,0,0,289,-46,289,-46,408,-42,288,66,0,-0.35,2.93011,-1.5,3.94113e+12,0,0,2,0,0,0,0,0,0,0,0,13920,0,0,0,0,0,0,0,0,0,1,0
10626,-3.11492e-12,6.87482e-38,-1.52385e-06,-3.18057e-12,6.87434e-38,0,-1.06615e-13,0,0,-3.91756,-0.280509,0.529694,0,0,0,0,0,0,0,292,-44,292,-44,411,-42,288,64,0,-0.35,2.93681,-1.5,3.94113e+12,0,0,2,0,0,0,0,0,0,0,0,14022,0,0,0,0,0,0,0,0,0,1,0
10641,-3.11492e-12,6.87482e-38,-1.52385e-06,-3.18057e-12,6.87434e-38,0,-1.06616e-13,0,0,-3.91756,-0.280509,0.529694,0,0,0,0,0,0,0,292,-44,292,-44,411,-42,288,64,0,-0.35,2.94288,-1.5,3.94113e+12,0,0,2,0,0,0,0,0,0,0,0,14022,0,0,0,0,0,0,0,0,0,1,0
10656,-3.11492e-12,6.87482e-38,-1.52385e-06,-3.18057e-12,6.87434e-38,0,-1.06616e-13,0,0,-3.91756,-0.280509,0.529694,0,0,0,0,0,0,0,292,-44,292,-44,411,-42,288,64,0,-0.35,2.94878,-1.5,3.94113e+12,0,0,2,0,0,0,0,0,0,0,0,14022,0,0,0,0,0,0,0,0,0,1,0
10672,-3.11492e-12,6.87482e-38,-1.52385e-06,-3.18057e-12,6.87434e-38,0,-1.06616e-13,0,0,-3.90097,-0.28206,0.517794,0,0,0,0,0,0,0,293,-44,293,-44,411,-43,288,63,0,-0.35,2.95488,-1.5,3.94113e+12,0,0,2,0,0,0,0,0,0,0,0,14391,0,0,0,0,0,0,0,0,0,1,0
10690,-3.11492e-12,6.87482e-38,-1.52385e-06,-3.18057e-12,6.87434e-38,0,-1.06616e-13,0,0,-3.90097,-0.28206,0.517794,0,0,0,0,0,0,0,293,-44,293,-44,411,-43,288,63,0,-0.35,2.96153,-1.5,3.94113e+12,0,0,2,0,0,0,0,0,0,0,0,14391,0,0,0,0,0,0,0,0,0,1,0
10704,-3.11492e-12,6.87482e-38,-1.52385e-06,-3.18057e-12,6.87434e-38,0,-1.06617e-13,0,0,-3.95754,-0.301329,0.560236,0,0,0,0,0,0,0,294,-48,294,-48,411,-43,294,62,0,-0.35,2.96652,-1.5,3.94113e+12,0,0,2,0,0,0,0,0,0,0,0,14157,0,0,0,0,0,0,0,0,0,1,0
10718,-3.11492e-12,6.87482e-38,-1.52385e-06,-3.18057e-12,6.87434e-38,0,-1.06617e-13,0,0,-3.95754,-0.301329,0.560236,0,0,0,0,0,0,0,294,-48,294,-48,411,-43,294,62,0,-0.35,2.97137,-1.5,3.94113e+12,0,0,2,0,0,0,0,0,0,0,0,14157,0,0,0,0,0,0,0,0,0,1,0
10733,-3.11492e-12,6.87482e-38,-1.52385e-06,-3.18057e-12,6.87434e-38,0,-1.06617e-13,0,0,-3.96356,-0.289789,0.558979,0,0,0,0,0,0,0,296,-48,296,-48,408,-42,290,63,0,-0.35,2.97609,-1.5,3.94113e+12,0,0,2,0,0,0,0,0,0,0,0,14278,0,0,0,0,0,0,0,0,0,1,0
10748,-3.11492e-12,6.87482e-38,-1.52385e-06,-3.18057e-12,6.87434e-38,0,-1.06618e-13,0,0,-3.96356,-0.289789,0.558979,0,0,0,0,0,0,0,296,-48,296,-48,408,-42,290,63,0,-0.35,2.98132,-1.5,3.94113e+12,0,0,2,0,0,0,0,0,0,0,0,14278,0,0,0,0,0,0,0,0,0,1,0
10764,-3.11492e-12,6.87482e-38,-1.52385e-06,-3.18057e-12,6.87434e-38,0,-1.06618e-13,0,0,-3.95877,-0.295632,0.551732,0,0,0,0,0,0,0,296,-46,296,-46,411,-42,290,66,0,-0.35,2.98639,-1.5,3.94113e+12,0,0,2,0,0,0,0,0,0,0,0,14036,0,0,0,0,0,0,0,0,0,1,0
10779,-3.11492e-12,6.87482e-38,-1.52385e-06,-3.18057e-12,6.87434e-38,0,-1.06618e-13,0,0,-3.95877,-0.295632,0.551732,0,0,0,0,0,0,0,296,-46,296,-46,411,-42,290,66,0,-0.35,2.99069,-1.5,3.94113e+12,0,0,2,0,0,0,0,0,0,0,0,14036,0,0,0,0,0,0,0,0,0,1,0
10795,-3.11492e-12,6.87482e-38,-1.52385e-06,-3.18057e-12,6.87434e-38,0,-1.06618e-13,0,0,-4.04529,-0.294904,0.604391,0,0,0,0,0,0,0,296,-46,296,-46,408,-42,292,64,0,-0.35,2.99546,-1.5,3.94113e+12,0,0,2,0,0,0,0,0,0,0,0,13456,0,0,0,0,0,0,0,0,0,1,0
10810,-3.11492e-12,6.87482e-38,-1.52385e-06,-3.18057e-12,6.87434e-38,0,-1.06619e-13,0,0,-4.04529,-0.294904,0.604391,0,0,0,0,0,0,0,296,-46,296,-46,408,-42,292,64,0,-0.35,2.9998,-1.5,3.94113e+12,0,0,2,0,0,0,0,0,0,0,0,13456,0,0,0,0,0,0,0,0,0,1,0
10826,-3.11492e-12,6.87482e-38,-1.52385e-06,-3.18057e-12,6.87434e-38,0,-1.06619e-13,0,0,-3.98033,-0.290693,0.563646,0,0,0,0,0,0,0,296,-46,296,-46,408,-42,290,63,0,-0.35,3.00428,-1.5,3.94113e+12,0,0,2,0,0,0,0,0,0,0,0,14042,0,0,0,0,0,0,0,0,0,1,0
10841,-3.11492e-12,6.87482e-38,-1.52385e-06,-3.18057e-12,6.87434e-38,0,-1.06619e-13,0,0,-3.98033,-0.290693,0.563646,0,0,0,0,0,0,0,296,-46,296,-46,408,-42,290,63,0,-0.35,3.00836,-1.5,3.94113e+12,0,0,2,0,0,0,0,0,0,0,0,14042,0,0,0,0,0,0,0,0,0,1,0
10857,-3.11492e-12,6.87482e-38,-1.52385e-06,-3.18057e-12,6.87434e-38,0,-1.06619e-13,0,0,-3.98033,-0.290693,0.563646,0,0,0,0,0,0,0,296,-46,296,-46,408,-42,290,63,0,-0.35,3.01258,-1.5,3.94113e+12,0,0,2,0,0,0,0,0,0,0,0,14042,0,0,0,0,0,0,0,0,0,1,0
10872,-3.11492e-12,6.87482e-38,-1.52385e-06,-3.18057e-12,6.87434e-38,0,-1.0662e-13,0,0,-3.98317,-0.304921,0.575102,0,0,0,0,0,0,0,296,-46,296,-46,411,-43,292,63,0,-0.35,3.01641,-1.5,3.94113e+12,0,0,2,0,0,0,0,0,0,0,0,13804,0,0,0,0,0,0,0,0,0,1,0
10888,-3.11492e-12,6.87482e-38,-1.52385e-06,-3.18057e-12,6.87434e-38,0,-1.0662e-13,0,0,-3.98317,-0.304921,0.575102,0,0,0,0,0,0,0,296,-46,296,-46,411,-43,292,63,0,-0.35,3.02036,-1.5,3.94113e+12,0,0,2,0,0,0,0,0,0,0,0,13804,0,0,0,0,0,0,0,0,0,1,0
10903,-3.11492e-12,6.87482e-38,-1.52385e-06,-3.18057e-12,6.87434e-38,0,-1.0662e-13,0,0,-3.96057,-0.298391,0.562686,0,0,0,0,0,0,0,296,-46,296,-46,411,-43,290,63,0,-0.35,3.02396,-1.5,3.94113e+12,0,0,2,0,0,0,0,0,0,0,0,14036,0,0,0,0,0,0,0,0,0,1,0
10918,-3.11492e-12,6.87482e-38,-1.52385e-06,-3.18057e-12,6.87434e-38,0,-1.0662e-13,0,0,-3.96057,-0.298391,0.562686,0,0,0,0,0,0,0,296,-46,296,-46,411,-43,290,63,0,-0.35,3.02745,-1.5,3.94113e+12,0,0,2,0,0,0,0,0,0,0,0,14036,0,0,0,0,0,0,0,0,0,1,0
10934,-3.11492e-12,6.87482e-38,-1.52385e-06,-3.18057e-12,6.87434e-38,0,-1.06621e-13,0,0,-3.94865,-0.289887,0.572792,0,0,0,0,0,0,0,294,-48,294,-48,411,-45,290,63,0,-0.35,3.03107,-1.5,3.94113e+12,0,0,2,0,0,0,0,0,0,0,0,13915,0,0,0,0,0,0,0,0,0,1,0
10950,-3.11492e-12,6.87482e-38,-1.52385e-06,-3.18057e-12,6.87434e-38,0,-1.06621e-13,0,0,-3.94865,-0.289887,0.572792,0,0,0,0,0,0,0,294,-48,294,-48,411,-45,290,63,0,-0.35,3.03435,-1.5,3.94113e+12,0,0,2,0,0,0,0,0,0,0,0,13915,0,0,0,0,0,0,0,0,0,1,0
10963,-3.11492e-12,6.87482e-38,-1.52385e-06,-3.18057e-12,6.87434e-38,0,-1.06621e-13,0,0,-3.96414,-0.290692,0.576839,0,0,0,0,0,0,0,294,-46,294,-46,411,-45,290,63,0,-0.35,3.03711,-1.5,3.94113e+12,0,0,2,0,0,0,0,0,0,0,0,13673,0,0,0,0,0,0,0,0,0,1,0
10977,-3.11492e-12,6.87482e-38,-1.52385e-06,-3.18057e-12,6.87434e-38,0,-1.06622e-13,0,0,-3.96414,-0.290692,0.576839,0,0,0,0,0,0,0,294,-46,294,-46,411,-45,290,63,0,-0.35,3.0398,-1.5,3.94113e+12,0,0,2,0,0,0,0,0,0,0,0,13673,0,0,0,0,0,0,0,0,0,1,0
10992,-3.11492e-12,6.87482e-38,-1.52385e-06,-3.18057e-12,6.87434e-38,0,-1.06622e-13,0,0,-4.04306,-0.294572,0.616364,0,0,0,0,0,0,0,294,-46,294,-46,407,-42,292,62,0,-0.35,3.04302,-1.5,3.94113e+12,0,0,2,0,0,0,0,0,0,0,0,12995,0,0,0,0,0,0,0,0,0,1,0
11040,-3.11492e-12,6.87482e-38,-1.52385e-06,-3.18057e-12,6.87434e-38,0,-1.06622e-13,0,0,-3.97697,-0.267548,0.557136,0,0,0,0,0,0,0,292,-44,292,-44,408,-42,288,66,0,-0.35,3.05235,-1.5,3.94113e+12,0,0,2,0,0,0,0,0,0,0,0,13680,0,0,0,0,0,0,0,0,0,1,0
11056,-3.11492e-12,6.87482e-38,-1.52385e-06,-3.18057e-12,6.87434e-38,0,-1.06622e-13,0,0,-3.97697,-0.267548,0.557136,0,0,0,0,0,0,0,292,-44,292,-44,408,-42,288,66,0,-0.35,3.05517,-1.5,3.94113e+12,0,0,2,0,0,0,0,0,0,0,0,13680,0,0,0,0,0,0,0,0,0,1,0
11072,-3.11492e-12,6.87482e-38,-1.52385e-06,-3.18057e-12,6.87434e-38,0,-1.06623e-13,0,0,-3.89833,-0.274302,0.495323,0,0,0,0,0,0,0,290,-41,290,-41,411,-40,288,66,0,-0.35,3.05791,-1.5,3.94113e+12,0,0,2,0,0,0,0,0,0,0,0,14022,0,0,0,0,0,0,0,0,0,1,0
11089,-3.11492e-12,6.87482e-38,-1.52385e-06,-3.18057e-12,6.87434e-38,0,-1.06623e-13,0,0,-3.89833,-0.274302,0.495323,0,0,0,0,0,0,0,290,-41,290,-41,411,-40,288,66,0,-0.35,3.06055,-1.5,3.94113e+12,0,0,2,0,0,0,0,0,0,0,0,14022,0,0,0,0,0,0,0,0,0,1,0
11104,-3.11492e-12,6.87482e-38,-1.52385e-06,-3.18057e-12,6.87434e-38,0,-1.06623e-13,0,0,-3.94713,-0.275356,0.521677,0,0,0,0,0,0,0,292,-41,292,-41,411,-40,288,66,0,-0.35,3.06296,-1.5,3.94113e+12,0,0,2,0,0,0,0,0,0,0,0,14022,0,0,0,0,0,0,0,0,0,1,0
11119,-3.11492e-12,6.87482e-38,-1.52385e-06,-3.18057e-12,6.87434e-38,0,-1.06623e-13,0,0,-3.94713,-0.275356,0.521677,0,0,0,0,0,0,0,292,-41,292,-41,411,-40,288,66,0,-0.35,3.06529,-1.5,3.94113e+12,0,0,2,0,0,0,0,0,0,0,0,14022,0,0,0,0,0,0,0,0,0,1,0
11135,-3.11492e-12,6.87482e-38,-1.52385e-06,-3.18057e-12,6.87434e-38,0,-1.06624e-13,0,0,-3.91653,-0.273925,0.518849,0,0,0,0,0,0,0,292,-46,292,-46,411,-40,288,66,0,-0.35,3.06771,-1.5,3.94113e+12,0,0,2,0,0,0,0,0,0,0,0,14514,0,0,0,0,0,0,0,0,0,1,0
11150,-3.11492e-12,6.87482e-38,-1.52385e-06,-3.18057e-12,6.87434e-38,0,-1.06624e-13,0,0,-3.91653,-0.273925,0.518849,0,0,0,0,0,0,0,292,-46,292,-46,411,-40,288,66,0,-0.35,3.0699,-1.5,3.94113e+12,0,0,2,0,0,0,0,0,0,0,0,14514,0,0,0,0,0,0,0,0,0,1,0
11166,-3.11492e-12,6.87482e-38,-1.52385e-06,-3.18057e-12,6.87434e-38,0,-1.06624e-13,0,0,-3.95434,-0.264187,0.544229,0,0,0,0,0,0,0,292,-46,292,-46,407,-42,288,66,0,-0.35,3.07217,-1.5,3.94113e+12,0,0,2,0,0,0,0,0,0,0,0,14042,0,0,0,0,0,0,0,0,0,1,0
11182,-3.11492e-12,6.87482e-38,-1.52385e-06,-3.18057e-12,6.87434e-38,0,-1.06625e-13,0,0,-3.95434,-0.264187,0.544229,0,0,0,0,0,0,0,292,-46,292,-46,407,-42,288,66,0,-0.35,3.07423,-1.5,3.94113e+12,0,0,2,0,0,0,0,0,0,0,0,14042,0,0,0,0,0,0,0,0,0,1,0
11197,-3.11492e-12,6.87482e-38,-1.52385e-06,-3.18057e-12,6.87434e-38,0,-1.06625e-13,0,0,-3.97697,-0.267548,0.557136,0,0,0,0,0,0,0,292,-44,292,-44,408,-42,288,66,0,-0.35,3.07636,-1.5,3.94113e+12,0,0,2,0,0,0,0,0,0,0,0,13680,0,0,0,0,0,0,0,0,0,1,0
11213,-3.11492e-12,6.87482e-38,-1.52385e-06,-3.18057e-12,6.87434e-38,0,-1.06625e-13,0,0,-3.97697,-0.267548,0.557136,0,0,0,0,0,0,0,292,-44,292,-44,408,-42,288,66,0,-0.35,3.07843,-1.5,3.94113e+12,0,0,2,0,0,0,0,0,0,0,0,13680,0,0,0,0,0,0,0,0,0,1,0
11229,-3.11492e-12,6.87482e-38,-1.52385e-06,-3.18057e-12,6.87434e-38,0,-1.06625e-13,0,0,-3.97861,-0.255913,0.550719,0,0,0,0,0,0,0,290,-44,290,-44,405,-41,288,66,0,-0.35,3.0803,-1.5,3.94113e+12,0,0,2,0,0,0,0,0,0,0,0,13572,0,0,0,0,0,0,0,0,0,1,0
11244,-3.11492e-12,6.87482e-38,-1.52385e-06,-3.18057e-12,6.87434e-38,0,-1.06626e-13,0,0,-3.97861,-0.255913,0.550719,0,0,0,0,0,0,0,290,-44,290,-44,405,-41,288,66,0,-0.35,3.08224,-1.5,3.94113e+12,0,0,2,0,0,0,0,0,0,0,0,13572,0,0,0,0,0,0,0,0,0,1,0
11258,-3.11492e-12,6.87482e-38,-1.52385e-06,-3.18057e-12,6.87434e-38,0,-1.06626e-13,0,0,-3.97861,-0.255913,0.550719,0,0,0,0,0,0,0,290,-44,290,-44,405,-41,288,66,0,-0.35,3.08388,-1.5,3.94113e+12,0,0,2,0,0,0,0,0,0,0,0,13572,0,0,0,0,0,0,0,0,0,1,0
11271,-3.11492e-12,6.87482e-38,-1.52385e-06,-3.18057e-12,6.87434e-38,0,-1.06626e-13,0,0,-3.97348,-0.263487,0.53854,0,0,0,0,0,0,0,290,-44,290,-44,408,-37,288,66,0,-0.35,3.08537,-1.5,3.94113e+12,0,0,2,0,0,0,0,0,0,0,0,13920,0,0,0,0,0,0,0,0,0,1,0
11286,-3.11492e-12,6.87482e-38,-1.52385e-06,-3.18057e-12,6.87434e-38,0,-1.06626e-13,0,0,-3.97348,-0.263487,0.53854,0,0,0,0,0,0,0,290,-44,290,-44,408,-37,288,66,0,-0.35,3.08704,-1.5,3.94113e+12,0,0,2,0,0,0,0,0,0,0,0,13920,0,0,0,0,0,0,0,0,0,1,0
11302,-3.11492e-12,6.87482e-38,-1.52385e-06,-3.18057e-12,6.87434e-38,0,-1.06627e-13,0,0,-3.97114,-0.26261,0.549315,0,0,0,0,0,0,0,290,-44,290,-44,408,-40,288,66,0,-0.35,3.08876,-1.5,3.94113e+12,0,0,2,0,0,0,0,0,0,0,0,13680,0,0,0,0,0,0,0,0,0,1,0
11317,-3.11492e-12,6.87482e-38,-1.52385e-06,-3.18057e-12,6.87434e-38,0,-1.06627e-13,0,0,-3.97114,-0.26261,0.549315,0,0,0,0,0,0,0,290,-44,290,-44,408,-40,288,66,0,-0.35,3.09033,-1.5,3.94113e+12,0,0,2,0,0,0,0,0,0,0,0,13680,0,0,0,0,0,0,0,0,0,1,0
11333,-3.11492e-12,6.87482e-38,-1.52385e-06,-3.18057e-12,6.87434e-38,0,-1.06627e-13,0,0,-4.02289,-0.25873,0.560955,0,0,0,0,0,0,0,290,-41,290,-41,405,-38,288,66,0,-0.35,3.09195,-1.5,3.94113e+12,0,0,2,0,0,0,0,0,0,0,0,13221,0,0,0,0,0,0,0,0,0,1,0
11348,-3.11492e-12,6.87482e-38,-1.52385e-06,-3.18057e-12,6.87434e-38,0,-1.06628e-13,0,0,-4.02289,-0.25873,0.560955,0,0,0,0,0,0,0,290,-41,290,-41,405,-38,288,66,0,-0.35,3.09343,-1.5,3.94113e+12,0,0,2,0,0,0,0,0,0,0,0,13221,0,0,0,0,0,0,0,0,0,1,0
11364,-3.11492e-12,6.87482e-38,-1.52385e-06,-3.18057e-12,6.87434e-38,0,-1.06628e-13,0,0,-3.9459,-0.267902,0.523473,0,0,0,0,0,0,0,290,-41,290,-41,411,-40,288,66,0,-0.35,3.09495,-1.5,3.94113e+12,0,0,2,0,0,0,0,0,0,0,0,13899,0,0,0,0,0,0,0,0,0,1,0
11380,-3.11492e-12,6.87482e-38,-1.52385e-06,-3.18057e-12,6.87434e-38,0,-1.06628e-13,0,0,-3.9459,-0.267902,0.523473,0,0,0,0,0,0,0,290,-41,290,-41,411,-40,288,66,0,-0.35,3.09643,-1.5,3.94113e+12,0,0,2,0,0,0,0,0,0,0,0,13899,0,0,0,0,0,0,0,0,0,1,0
11396,-3.11492e-12,6.87482e-38,-1.52385e-06,-3.18057e-12,6.87434e-38,0,-1.06628e-13,0,0,-3.98912,-0.303143,0.563696,0,0,0,0,0,0,0,296,-44,296,-44,411,-42,292,63,0,-0.35,3.09786,-1.5,3.94113e+12,0,0,2,0,0,0,0,0,0,0,0,13923,0,0,0,0,0,0,0,0,0,1,0
11412,-3.11492e-12,6.87482e-38,-1.52385e-06,-3.18057e-12,6.87434e-38,0,-1.06629e-13,0,0,-3.98912,-0.303143,0.563696,0,0,0,0,0,0,0,296,-44,296,-44,411,-42,292,63,0,-0.35,3.09924,-1.5,3.94113e+12,0,0,2,0,0,0,0,0,0,0,0,13923,0,0,0,0,0,0,0,0,0,1,0
11428,-3.11492e-12,6.87482e-38,-1.52385e-06,-3.18057e-12,6.87434e-38,0,-1.06629e-13,0,0,-4.00796,-0.302246,0.593381,0,0,0,0,0,0,0,296,-48,296,-48,409,-43,293,63,0,-0.35,3.10058,-1.5,3.94113e+12,0,0,2,0,0,0,0,0,0,0,0,13688,0,0,0,0,0,0,0,0,0,1,0
11444,-3.11492e-12,6.87482e-38,-1.52385e-06,-3.18057e-12,6.87434e-38,0,-1.06629e-13,0,0,-4.00796,-0.302246,0.593381,0,0,0,0,0,0,0,296,-48,296,-48,409,-43,293,63,0,-0.35,3.1018,-1.5,3.94113e+12,0,0,2,0,0,0,0,0,0,0,0,13688,0,0,0,0,0,0,0,0,0,1,0
11460,-3.11492e-12,6.87482e-38,-1.52385e-06,-3.18057e-12,6.87434e-38,0,-1.06629e-13,0,0,-3.98202,-0.311975,0.577132,0,0,0,0,0,0,0,296,-46,296,-46,411,-43,293,63,0,-0.35,3.10306,-1.5,3.94113e+12,0,0,2,0,0,0,0,0,0,0,0,13570,0,0,0,0,0,0,0,0,0,1,0
11475,-3.11492e-12,6.87482e-38,-1.52385e-06,-3.18057e-12,6.87434e-38,0,-1.0663e-13,0,0,-3.98202,-0.311975,0.577132,0,0,0,0,0,0,0,296,-46,296,-46,411,-43,293,63,0,-0.35,3.10428,-1.5,3.94113e+12,0,0,2,0,0,0,0,0,0,0,0,13570,0,0,0,0,0,0,0,0,0,1,0
11491,-3.11492e-12,6.87482e-38,-1.52385e-06,-3.18057e-12,6.87434e-38,0,-1.0663e-13,0,0,-3.98202,-0.311975,0.577132,0,0,0,0,0,0,0,296,-46,296,-46,411,-43,293,63,0,-0.35,3.10546,-1.5,3.94113e+12,0,0,2,0,0,0,0,0,0,0,0,13570,0,0,0,0,0,0,0,0,0,1,0
11506,-3.11492e-12,6.87482e-38,-1.52385e-06,-3.18057e-12,6.87434e-38,0,-1.0663e-13,0,0,-3.99458,-0.332799,0.608291,0,0,0,0,0,0,0,301,-49,301,-49,414,-45,293,60,0,-0.35,3.10653,-1.5,3.94113e+12,0,0,2,0,0,0,0,0,0,0,0,14036,0,0,0,0,0,0,0,0,0,1,0
11520,-3.11492e-12,6.87482e-38,-1.52385e-06,-3.18057e-12,6.87434e-38,0,-1.06631e-13,0,0,-3.99458,-0.332799,0.608291,0,0,0,0,0,0,0,301,-49,301,-49,414,-45,293,60,0,-0.35,3.1075,-1.5,3.94113e+12,0,0,2,0,0,0,0,0,0,0,0,14036,0,0,0,0,0,0,0,0,0,1,0
11533,-3.11492e-12,6.87482e-38,-1.52385e-06,-3.18057e-12,6.87434e-38,0,-1.06631e-13,0,0,-3.94502,-0.333958,0.582924,0,0,0,0,0,0,0,300,-51,300,-51,415,-44,293,60,0,-0.35,3.10838,-1.5,3.94113e+12,0,0,2,0,0,0,0,0,0,0,0,14396,0,0,0,0,0,0,0,0,0,1,0
11548,-3.11492e-12,6.87482e-38,-1.52385e-06,-3.18057e-12,6.87434e-38,0,-1.06631e-13,0,0,-3.94502,-0.333958,0.582924,0,0,0,0,0,0,0,300,-51,300,-51,415,-44,293,60,0,-0.35,3.10936,-1.5,3.94113e+12,0,0,2,0,0,0,0,0,0,0,0,14396,0,0,0,0,0,0,0,0,0,1,0
11564,-3.11492e-12,6.87482e-38,-1.52385e-06,-3.18057e-12,6.87434e-38,0,-1.06631e-13,0,0,-3.95681,-0.330123,0.582094,0,0,0,0,0,0,0,299,-49,299,-49,414,-45,294,59,0,-0.35,3.11038,-1.5,3.94113e+12,0,0,2,0,0,0,0,0,0,0,0,14280,0,0,0,0,0,0,0,0,0,1,0
11579,-3.11492e-12,6.87482e-38,-1.52385e-06,-3.18057e-12,6.87434e-38,0,-1.06632e-13,0,0,-3.95681,-0.330123,0.582094,0,0,0,0,0,0,0,299,-49,299,-49,414,-45,294,59,0,-0.35,3.11131,-1.5,3.94113e+12,0,0,2,0,0,0,0,0,0,0,0,14280,0,0,0,0,0,0,0,0,0,1,0
11595,-3.11492e-12,6.87482e-38,-1.52385e-06,-3.18057e-12,6.87434e-38,0,-1.06632e-13,0,0,-3.98876,-0.342441,0.612213,0,0,0,0,0,0,0,300,-51,300,-51,414,-45,296,59,0,-0.35,3.11227,-1.5,3.94113e+12,0,0,2,0,0,0,0,0,0,0,0,13924,0,0,0,0,0,0,0,0,0,1,0
11611,-3.11492e-12,6.87482e-38,-1.52385e-06,-3.18057e-12,6.87434e-38,0,-1.06632e-13,0,0,-3.98876,-0.342441,0.612213,0,0,0,0,0,0,0,300,-51,300,-51,414,-45,296,59,0,-0.35,3.11314,-1.5,3.94113e+12,0,0,2,0,0,0,0,0,0,0,0,13924,0,0,0,0,0,0,0,0,0,1,0
11627,-3.11492e-12,6.87482e-38,-1.52385e-06,-3.18057e-12,6.87434e-38,0,-1.06632e-13,0,0,-3.95936,-0.342304,0.595841,0,0,0,0,0,0,0,298,-51,298,-51,414,-45,297,59,0,-0.35,3.11404,-1.5,3.94113e+12,0,0,2,0,0,0,0,0,0,0,0,13806,0,0,0,0,0,0,0,0,0,1,0
11642,-3.11492e-12,6.87482e-38,-1.52385e-06,-3.18057e-12,6.87434e-38,0,-1.06633e-13,0,0,-3.95936,-0.342304,0.595841,0,0,0,0,0,0,0,298,-51,298,-51,414,-45,297,59,0,-0.35,3.11491,-1.5,3.94113e+12,0,0,2,0,0,0,0,0,0,0,0,13806,0,0,0,0,0,0,0,0,0,1,0
11658,-3.11492e-12,6.87482e-38,-1.52385e-06,-3.18057e-12,6.87434e-38,0,-1.06633e-13,0,0,-3.95936,-0.342304,0.595841,0,0,0,0,0,0,0,298,-51,298,-51,414,-45,297,59,0,-0.35,3.11575,-1.5,3.94113e+12,0,0,2,0,0,0,0,0,0,0,0,13806,0,0,0,0,0,0,0,0,0,1,0
11673,-3.11492e-12,6.87482e-38,-1.52385e-06,-3.18057e-12,6.87434e-38,0,-1.06633e-13,0,0,-3.95456,-0.332136,0.590512,0,0,0,0,0,0,0,297,-51,297,-51,414,-45,296,60,0,-0.35,3.11652,-1.5,3.94113e+12,0,0,2,0,0,0,0,0,0,0,0,13924,0,0,0,0,0,0,0,0,0,1,0
11689,-3.11492e-12,6.87482e-38,-1.52385e-06,-3.18057e-12,6.87434e-38,0,-1.06634e-13,0,0,-3.95456,-0.332136,0.590512,0,0,0,0,0,0,0,297,-51,297,-51,414,-45,296,60,0,-0.35,3.11727,-1.5,3.94113e+12,0,0,2,0,0,0,0,0,0,0,0,13924,0,0,0,0,0,0,0,0,0,1,0
11704,-3.11492e-12,6.87482e-38,-1.52385e-06,-3.18057e-12,6.87434e-38,0,-1.06634e-13,0,0,-3.97067,-0.336022,0.602045,0,0,0,0,0,0,0,297,-51,297,-51,414,-45,297,59,0,-0.35,3.11804,-1.5,3.94113e+12,0,0,2,0,0,0,0,0,0,0,0,13806,0,0,0,0,0,0,0,0,0,1,0
11720,-3.11492e-12,6.87482e-38,-1.52385e-06,-3.18057e-12,6.87434e-38,0,-1.06634e-13,0,0,-3.97067,-0.336022,0.602045,0,0,0,0,0,0,0,297,-51,297,-51,414,-45,297,59,0,-0.35,3.11873,-1.5,3.94113e+12,0,0,2,0,0,0,0,0,0,0,0,13806,0,0,0,0,0,0,0,0,0,1,0
11736,-3.11492e-12,6.87482e-38,-1.52385e-06,-3.18057e-12,6.87434e-38,0,-1.06634e-13,0,0,-3.99735,-0.311067,0.59004,0,0,0,0,0,0,0,296,-48,296,-48,411,-43,294,63,0,-0.35,3.1195,-1.5,3.94113e+12,0,0,2,0,0,0,0,0,0,0,0,13689,0,0,0,0,0,0,0,0,0,1,0
11752,-3.11492e-12,6.87482e-38,-1.52385e-06,-3.18057e-12,6.87434e-38,0,-1.06635e-13,0,0,-3.99735,-0.311067,0.59004,0,0,0,0,0,0,0,296,-48,296,-48,411,-43,294,63,0,-0.35,3.1202,-1.5,3.94113e+12,0,0,2,0,0,0,0,0,0,0,0,13689,0,0,0,0,0,0,0,0,0,1,0
11770,-3.11492e-12,6.87482e-38,-1.52385e-06,-3.18057e-12,6.87434e-38,0,-1.06635e-13,0,0,-4.01112,-0.312048,0.593032,0,0,0,0,0,0,0,296,-46,296,-46,411,-43,294,62,0,-0.35,3.12096,-1.5,3.94113e+12,0,0,2,0,0,0,0,0,0,0,0,13572,0,0,0,0,0,0,0,0,0,1,0
11784,-3.11492e-12,6.87482e-38,-1.52385e-06,-3.18057e-12,6.87434e-38,0,-1.06635e-13,0,0,-4.01112,-0.312048,0.593032,0,0,0,0,0,0,0,296,-46,296,-46,411,-43,294,62,0,-0.35,3.12153,-1.5,3.94113e+12,0,0,2,0,0,0,0,0,0,0,0,13572,0,0,0,0,0,0,0,0,0,1,0
11798,-3.11492e-12,6.87482e-38,-1.52385e-06,-3.18057e-12,6.87434e-38,0,-1.06635e-13,0,0,-3.98496,-0.283387,0.583395,0,0,0,0,0,0,0,294,-48,294,-48,407,-43,290,63,0,-0.35,3.12209,-1.5,3.94113e+12,0,0,2,0,0,0,0,0,0,0,0,13689,0,0,0,0,0,0,0,0,0,1,0
11813,-3.11492e-12,6.87482e-38,-1.52385e-06,-3.18057e-12,6.87434e-38,0,-1.06636e-13,0,0,-3.98496,-0.283387,0.583395,0,0,0,0,0,0,0,294,-48,294,-48,407,-43,290,63,0,-0.35,3.12267,-1.5,3.94113e+12,0,0,2,0,0,0,0,0,0,0,0,13689,0,0,0,0,0,0,0,0,0,1,0
11829,-3.11492e-12,6.87482e-38,-1.52385e-06,-3.18057e-12,6.87434e-38,0,-1.06636e-13,0,0,-3.98496,-0.283387,0.583395,0,0,0,0,0,0,0,294,-48,294,-48,407,-43,290,63,0,-0.35,3.12327,-1.5,3.94113e+12,0,0,2,0,0,0,0,0,0,0,0,13689,0,0,0,0,0,0,0,0,0,1,0
11844,-3.11492e-12,6.87482e-38,-1.52385e-06,-3.18057e-12,6.87434e-38,0,-1.06636e-13,0,0,-3.98496,-0.283387,0.583395,0,0,0,0,0,0,0,294,-48,294,-48,407,-43,290,63,0,-0.35,3.12381,-1.5,3.94113e+12,0,0,2,0,0,0,0,0,0,0,0,13689,0,0,0,0,0,0,0,0,0,1,0
11860,-3.11492e-12,6.87482e-38,-1.52385e-06,-3.18057e-12,6.87434e-38,0,-1.06636e-13,0,0,-3.97382,-0.245365,0.592212,0,0,0,0,0,0,0,287,-48,287,-48,402,-45,288,63,0,-0.35,3.12437,-1.5,3.94113e+12,0,0,2,0,0,0,0,0,0,0,0,13221,0,0,0,0,0,0,0,0,0,1,0
11875,-3.11492e-12,6.87482e-38,-1.52385e-06,-3.18057e-12,6.87434e-38,0,-1.06637e-13,0,0,-3.97382,-0.245365,0.592212,0,0,0,0,0,0,0,287,-48,287,-48,402,-45,288,63,0,-0.35,3.12488,-1.5,3.94113e+12,0,0,2,0,0,0,0,0,0,0,0,13221,0,0,0,0,0,0,0,0,0,1,0
11891,-3.11492e-12,6.87482e-38,-1.52385e-06,-3.18057e-12,6.87434e-38,0,-1.06637e-13,0,0,-3.98571,-0.216367,0.608061,0,0,0,0,0,0,0,286,-48,286,-48,398,-49,285,63,0,-0.35,3.12541,-1.5,3.94113e+12,0,0,2,0,0,0,0,0,0,0,0,13110,0,0,0,0,0,0,0,0,0,1,0
11907,-3.11492e-12,6.87482e-38,-1.52385e-06,-3.18057e-12,6.87434e-38,0,-1.06637e-13,0,0,-3.98571,-0.216367,0.608061,0,0,0,0,0,0,0,286,-48,286,-48,398,-49,285,63,0,-0.35,3.12589,-1.5,3.94113e+12,0,0,2,0,0,0,0,0,0,0,0,13110,0,0,0,0,0,0,0,0,0,1,0
11922,-3.11492e-12,6.87482e-38,-1.52385e-06,-3.18057e-12,6.87434e-38,0,-1.06638e-13,0,0,-3.98571,-0.216367,0.608061,0,0,0,0,0,0,0,286,-48,286,-48,398,-49,285,63,0,-0.35,3.12639,-1.5,3.94113e+12,0,0,2,0,0,0,0,0,0,0,0,13110,0,0,0,0,0,0,0,0,0,1,0
11937,-3.11492e-12,6.87482e-38,-1.52385e-06,-3.18057e-12,6.87434e-38,0,-1.06638e-13,0,0,-3.98201,-0.216755,0.59638,0,0,0,0,0,0,0,285,-48,285,-48,400,-46,285,63,0,-0.35,3.12684,-1.5,3.94113e+12,0,0,2,0,0,0,0,0,0,0,0,13110,0,0,0,0,0,0,0,0,0,1,0
11953,-3.11492e-12,6.87482e-38,-1.52385e-06,-3.18057e-12,6.87434e-38,0,-1.06638e-13,0,0,-3.98201,-0.216755,0.59638,0,0,0,0,0,0,0,285,-48,285,-48,400,-46,285,63,0,-0.35,3.12728,-1.5,3.94113e+12,0,0,2,0,0,0,0,0,0,0,0,13110,0,0,0,0,0,0,0,0,0,1,0
11968,-3.11492e-12,6.87482e-38,-1.52385e-06,-3.18057e-12,6.87434e-38,0,-1.06638e-13,0,0,-3.98201,-0.216755,0.59638,0,0,0,0,0,0,0,285,-48,285,-48,400,-46,285,63,0,-0.35,3.12773,-1.5,3.94113e+12,0,0,2,0,0,0,0,0,0,0,0,13110,0,0,0,0,0,0,0,0,0,1,0
11984,-3.11492e-12,6.87482e-38,-1.52385e-06,-3.18057e-12,6.87434e-38,0,-1.06639e-13,0,0,-3.98201,-0.216755,0.59638,0,0,0,0,0,0,0,285,-48,285,-48,400,-46,285,63,0,-0.35,3.12814,-1.5,3.94113e+12,0,0,2,0,0,0,0,0,0,0,0,13110,0,0,0,0,0,0,0,0,0,1,0
11999,-3.11492e-12,6.87482e-38,-1.52385e-06,-3.18057e-12,6.87434e-38,0,-1.06639e-13,0,0,-3.902,-0.217039,0.563232,0,0,0,0,0,0,0,283,-50,283,-50,403,-48,285,63,0,-0.35,3.12857,-1.5,3.94113e+12,0,0,2,0,0,0,0,0,0,0,0,13800,0,0,0,0,0,0,0,0,0,1,0
12015,-3.11492e-12,6.87482e-38,-1.52385e-06,-3.18057e-12,6.87434e-38,0,-1.06639e-13,0,0,-3.902,-0.217039,0.563232,0,0,0,0,0,0,0,283,-50,283,-50,403,-48,285,63,0,-0.35,3.12898,-1.5,3.94113e+12,0,0,2,0,0,0,0,0,0,0,0,13800,0,0,0,0,0,0,0,0,0,1,0
12028,-3.11492e-12,6.87482e-38,-1.52385e-06,-3.18057e-12,6.87434e-38,0,-1.06639e-13,0,0,-3.95568,-0.219703,0.588844,0,0,0,0,0,0,0,285,-48,285,-48,401,-48,285,63,0,-0.35,3.1293,-1.5,3.94113e+12,0,0,2,0,0,0,0,0,0,0,0,13108,0,0,0,0,0,0,0,0,0,1,0
12042,-3.11492e-12,6.87482e-38,-1.52385e-06,-3.18057e-12,6.87434e-38,0,-1.0664e-13,0,0,-3.95568,-0.219703,0.588844,0,0,0,0,0,0,0,285,-48,285,-48,401,-48,285,63,0,-0.35,3.12962,-1.5,3.94113e+12,0,0,2,0,0,0,0,0,0,0,0,13108,0,0,0,0,0,0,0,0,0,1,0
12056,-3.11492e-12,6.87482e-38,-1.52385e-06,-3.18057e-12,6.87434e-38,0,-1.0664e-13,0,0,-3.95568,-0.219703,0.588844,0,0,0,0,0,0,0,285,-48,285,-48,401,-48,285,63,0,-0.35,3.12995,-1.5,3.94113e+12,0,0,2,0,0,0,0,0,0,0,0,13108,0,0,0,0,0,0,0,0,0,1,0
12071,-3.11492e-12,6.87482e-38,-1.52385e-06,-3.18057e-12,6.87434e-38,0,-1.0664e-13,0,0,-5.22393,-5.86264,1.07896,0,0,0,0,0,0,0,741,1,741,1,820,-36,742,81,0,-0.35,3.13032,-1.5,3.94113e+12,0,0,2,0,0,0,0,0,0,0,0,9243,0,0,0,0,0,0,0,0,0,1,0
12087,-3.11492e-12,6.87482e-38,-1.52385e-06,-3.18057e-12,6.87434e-38,0,-1.06641e-13,0,0,-5.22393,-5.86264,1.07896,0,0,0,0,0,0,0,741,1,741,1,820,-36,742,81,0,-0.35,3.13068,-1.5,3.94113e+12,0,0,2,0,0,0,0,0,0,0,0,9243,0,0,0,0,0,0,0,0,0,1,0
12103,-3.11492e-12,6.87482e-38,-1.52385e-06,-3.18057e-12,6.87434e-38,0,-1.06641e-13,0,0,-3.97798,-0.228537,0.596794,0,0,0,0,0,0,0,287,-48,287,-48,401,-46,285,63,0,-0.35,3.131,-1.5,3.94113e+12,0,0,2,0,0,0,0,0,0,0,0,13108,0,0,0,0,0,0,0,0,0,1,0
12118,-3.11492e-12,6.87482e-38,-1.52385e-06,-3.18057e-12,6.87434e-38,0,-1.06641e-13,0,0,-3.97798,-0.228537,0.596794,0,0,0,0,0,0,0,287,-48,287,-48,401,-46,285,63,0,-0.35,3.13134,-1.5,3.94113e+12,0,0,2,0,0,0,0,0,0,0,0,13108,0,0,0,0,0,0,0,0,0,1,0
12134,-3.11492e-12,6.87482e-38,-1.52385e-06,-3.18057e-12,6.87434e-38,0,-1.06641e-13,0,0,-3.96792,-0.230352,0.591196,0,0,0,0,0,0,0,286,-48,286,-48,401,-46,286,63,0,-0.35,3.13166,-1.5,3.94113e+12,0,0,2,0,0,0,0,0,0,0,0,13108,0,0,0,0,0,0,0,0,0,1,0
12150,-3.11492e-12,6.87482e-38,-1.52385e-06,-3.18057e-12,6.87434e-38,0,-1.06642e-13,0,0,-3.96792,-0.230352,0.591196,0,0,0,0,0,0,0,286,-48,286,-48,401,-46,286,63,0,-0.35,3.13196,-1.5,3.94113e+12,0,0,2,0,0,0,0,0,0,0,0,13108,0,0,0,0,0,0,0,0,0,1,0
12166,-3.11492e-12,6.87482e-38,-1.52385e-06,-3.18057e-12,6.87434e-38,0,-1.06642e-13,0,0,-3.95968,-0.229961,0.574339,0,0,0,0,0,0,0,287,-46,287,-46,402,-46,285,63,0,-0.35,3.13226,-1.5,3.94113e+12,0,0,2,0,0,0,0,0,0,0,0,13338,0,0,0,0,0,0,0,0,0,1,0
12181,-3.11492e-12,6.87482e-38,-1.52385e-06,-3.18057e-12,6.87434e-38,0,-1.06642e-13,0,0,-3.95968,-0.229961,0.574339,0,0,0,0,0,0,0,287,-46,287,-46,402,-46,285,63,0,-0.35,3.13256,-1.5,3.94113e+12,0,0,2,0,0,0,0,0,0,0,0,13338,0,0,0,0,0,0,0,0,0,1,0
12197,-3.11492e-12,6.87482e-38,-1.52385e-06,-3.18057e-12,6.87434e-38,0,-1.06642e-13,0,0,-3.95412,-0.219603,0.58807,0,0,0,0,0,0,0,285,-48,285,-48,400,-48,285,63,0,-0.35,3.13284,-1.5,3.94113e+12,0,0,2,0,0,0,0,0,0,0,0,13108,0,0,0,0,0,0,0,0,0,1,0
12213,-3.11492e-12,6.87482e-38,-1.52385e-06,-3.18057e-12,6.87434e-38,0,-1.06643e-13,0,0,-3.95412,-0.219603,0.58807,0,0,0,0,0,0,0,285,-48,285,-48,400,-48,285,63,0,-0.35,3.1331,-1.5,3.94113e+12,0,0,2,0,0,0,0,0,0,0,0,13108,0,0,0,0,0,0,0,0,0,1,0
12229,-3.11492e-12,6.87482e-38,-1.52385e-06,-3.18057e-12,6.87434e-38,0,-1.06643e-13,0,0,-3.95139,-0.215033,0.578795,0,0,0,0,0,0,0,285,-48,285,-48,400,-48,285,63,0,-0.35,3.13337,-1.5,3.94113e+12,0,0,2,0,0,0,0,0,0,0,0,13340,0,0,0,0,0,0,0,0,0,1,0
12244,-3.11492e-12,6.87482e-38,-1.52385e-06,-3.18057e-12,6.87434e-38,0,-1.06643e-13,0,0,-3.95139,-0.215033,0.578795,0,0,0,0,0,0,0,285,-48,285,-48,400,-48,285,63,0,-0.35,3.13363,-1.5,3.94113e+12,0,0,2,0,0,0,0,0,0,0,0,13340,0,0,0,0,0,0,0,0,0,1,0
12260,-3.11492e-12,6.87482e-38,-1.52385e-06,-3.18057e-12,6.87434e-38,0,-1.06644e-13,0,0,-3.89986,-0.214562,0.550253,0,0,0,0,0,0,0,283,-48,283,-48,400,-48,285,63,0,-0.35,3.13388,-1.5,3.94113e+12,0,0,2,0,0,0,0,0,0,0,0,13804,0,0,0,0,0,0,0,0,0,1,0
12276,-3.11492e-12,6.87482e-38,-1.52385e-06,-3.18057e-12,6.87434e-38,0,-1.06644e-13,0,0,-3.89986,-0.214562,0.550253,0,0,0,0,0,0,0,283,-48,283,-48,400,-48,285,63,0,-0.35,3.13413,-1.5,3.94113e+12,0,0,2,0,0,0,0,0,0,0,0,13804,0,0,0,0,0,0,0,0,0,1,0
12290,-3.11492e-12,6.87482e-38,-1.52385e-06,-3.18057e-12,6.87434e-38,0,-1.06644e-13,0,0,-3.89986,-0.214562,0.550253,0,0,0,0,0,0,0,283,-48,283,-48,400,-48,285,63,0,-0.35,3.13433,-1.5,3.94113e+12,0,0,2,0,0,0,0,0,0,0,0,13804,0,0,0,0,0,0,0,0,0,1,0
12303,-3.11492e-12,6.87482e-38,-1.52385e-06,-3.18057e-12,6.87434e-38,0,-1.06644e-13,0,0,-3.88872,-0.215985,0.560291,0,0,0,0,0,0,0,283,-50,283,-50,403,-50,285,63,0,-0.35,3.13452,-1.5,3.94113e+12,0,0,2,0,0,0,0,0,0,0,0,13800,0,0,0,0,0,0,0,0,0,1,0
12318,-3.11492e-12,6.87482e-38,-1.52385e-06,-3.18057e-12,6.87434e-38,0,-1.06645e-13,0,0,-3.88872,-0.215985,0.560291,0,0,0,0,0,0,0,283,-50,283,-50,403,-50,285,63,0,-0.35,3.13473,-1.5,3.94113e+12,0,0,2,0,0,0,0,0,0,0,0,13800,0,0,0,0,0,0,0,0,0,1,0
12335,-3.11492e-12,6.87482e-38,-1.52385e-06,-3.18057e-12,6.87434e-38,0,-1.06645e-13,0,0,-3.91004,-0.224841,0.558269,0,0,0,0,0,0,0,286,-49,286,-49,400,-48,285,63,0,-0.35,3.13496,-1.5,3.94113e+12,0,0,2,0,0,0,0,0,0,0,0,13806,0,0,0,0,0,0,0,0,0,1,0
12351,-3.11492e-12,6.87482e-38,-1.52385e-06,-3.18057e-12,6.87434e-38,0,-1.06645e-13,0,0,-3.91004,-0.224841,0.558269,0,0,0,0,0,0,0,286,-49,286,-49,400,-48,285,63,0,-0.35,3.13517,-1.5,3.94113e+12,0,0,2,0,0,0,0,0,0,0,0,13806,0,0,0,0,0,0,0,0,0,1,0
12367,-3.11492e-12,6.87482e-38,-1.52385e-06,-3.18057e-12,6.87434e-38,0,-1.06645e-13,0,0,-3.93025,-0.211415,0.579175,0,0,0,0,0,0,0,283,-50,283,-50,400,-48,285,63,0,-0.35,3.13537,-1.5,3.94113e+12,0,0,2,0,0,0,0,0,0,0,0,13455,0,0,0,0,0,0,0,0,0,1,0
12383,-3.11492e-12,6.87482e-38,-1.52385e-06,-3.18057e-12,6.87434e-38,0,-1.06646e-13,0,0,-3.93025,-0.211415,0.579175,0,0,0,0,0,0,0,283,-50,283,-50,400,-48,285,63,0,-0.35,3.13557,-1.5,3.94113e+12,0,0,2,0,0,0,0,0,0,0,0,13455,0,0,0,0,0,0,0,0,0,1,0
12399,-3.11492e-12,6.87482e-38,-1.52385e-06,-3.18057e-12,6.87434e-38,0,-1.06646e-13,0,0,-3.91177,-0.212921,0.566364,0,0,0,0,0,0,0,283,-50,283,-50,400,-48,285,63,0,-0.35,3.13576,-1.5,3.94113e+12,0,0,2,0,0,0,0,0,0,0,0,13688,0,0,0,0,0,0,0,0,0,1,0
12414,-3.11492e-12,6.87482e-38,-1.52385e-06,-3.18057e-12,6.87434e-38,0,-1.06646e-13,0,0,-3.91177,-0.212921,0.566364,0,0,0,0,0,0,0,283,-50,283,-50,400,-48,285,63,0,-0.35,3.13593,-1.5,3.94113e+12,0,0,2,0,0,0,0,0,0,0,0,13688,0,0,0,0,0,0,0,0,0,1,0
12430,-3.11492e-12,6.87482e-38,-1.52385e-06,-3.18057e-12,6.87434e-38,0,-1.06647e-13,0,0,-3.902,-0.217039,0.563232,0,0,0,0,0,0,0,283,-50,283,-50,403,-48,285,63,0,-0.35,3.13611,-1.5,3.94113e+12,0,0,2,0,0,0,0,0,0,0,0,13800,0,0,0,0,0,0,0,0,0,1,0
12446,-3.11492e-12,6.87482e-38,-1.52385e-06,-3.18057e-12,6.87434e-38,0,-1.06647e-13,0,0,-3.902,-0.217039,0.563232,0,0,0,0,0,0,0,283,-50,283,-50,403,-48,285,63,0,-0.35,3.13629,-1.5,3.94113e+12,0,0,2,0,0,0,0,0,0,0,0,13800,0,0,0,0,0,0,0,0,0,1,0
12462,-3.11492e-12,6.87482e-38,-1.52385e-06,-3.18057e-12,6.87434e-38,0,-1.06647e-13,0,0,-3.9449,-0.205096,0.590023,0,0,0,0,0,0,0,283,-50,283,-50,398,-48,284,62,0,-0.35,3.13645,-1.5,3.94113e+12,0,0,2,0,0,0,0,0,0,0,0,13455,0,0,0,0,0,0,0,0,0,1,0
12478,-3.11492e-12,6.87482e-38,-1.52385e-06,-3.18057e-12,6.87434e-38,0,-1.06647e-13,0,0,-3.9449,-0.205096,0.590023,0,0,0,0,0,0,0,283,-50,283,-50,398,-48,284,62,0,-0.35,3.13661,-1.5,3.94113e+12,0,0,2,0,0,0,0,0,0,0,0,13455,0,0,0,0,0,0,0,0,0,1,0
12494,-3.11492e-12,6.87482e-38,-1.52385e-06,-3.18057e-12,6.87434e-38,0,-1.06648e-13,0,0,-3.97905,-0.218882,0.597344,0,0,0,0,0,0,0,285,-48,285,-48,400,-46,285,63,0,-0.35,3.13676,-1.5,3.94113e+12,0,0,2,0,0,0,0,0,0,0,0,12995,0,0,0,0,0,0,0,0,0,1,0
12509,-3.11492e-12,6.87482e-38,-1.52385e-06,-3.18057e-12,6.87434e-38,0,-1.06648e-13,0,0,-3.97905,-0.218882,0.597344,0,0,0,0,0,0,0,285,-48,285,-48,400,-46,285,63,0,-0.35,3.13691,-1.5,3.94113e+12,0,0,2,0,0,0,0,0,0,0,0,12995,0,0,0,0,0,0,0,0,0,1,0
12525,-3.11492e-12,6.87482e-38,-1.52385e-06,-3.18057e-12,6.87434e-38,0,-1.06648e-13,0,0,-3.96692,-0.232419,0.594959,0,0,0,0,0,0,0,285,-48,285,-48,403,-48,288,63,0,-0.35,3.13706,-1.5,3.94113e+12,0,0,2,0,0,0,0,0,0,0,0,13334,0,0,0,0,0,0,0,0,0,1,0
12541,-3.11492e-12,6.87482e-38,-1.52385e-06,-3.18057e-12,6.87434e-38,0,-1.06648e-13,0,0,-3.96692,-0.232419,0.594959,0,0,0,0,0,0,0,285,-48,285,-48,403,-48,288,63,0,-0.35,3.1372,-1.5,3.94113e+12,0,0,2,0,0,0,0,0,0,0,0,13334,0,0,0,0,0,0,0,0,0,1,0
12555,-3.11492e-12,6.87482e-38,-1.52385e-06,-3.18057e-12,6.87434e-38,0,-1.06649e-13,0,0,-3.96692,-0.232419,0.594959,0,0,0,0,0,0,0,285,-48,285,-48,403,-48,288,63,0,-0.35,3.13732,-1.5,3.94113e+12,0,0,2,0,0,0,0,0,0,0,0,13334,0,0,0,0,0,0,0,0,0,1,0
12568,-3.11492e-12,6.87482e-38,-1.52385e-06,-3.18057e-12,6.87434e-38,0,-1.06649e-13,0,0,-3.98925,-0.227225,0.59602,0,0,0,0,0,0,0,286,-48,286,-48,402,-43,285,63,0,-0.35,3.13743,-1.5,3.94113e+12,0,0,2,0,0,0,0,0,0,0,0,13221,0,0,0,0,0,0,0,0,0,1,0
12584,-3.11492e-12,6.87482e-38,-1.52385e-06,-3.18057e-12,6.87434e-38,0,-1.06649e-13,0,0,-3.98925,-0.227225,0.59602,0,0,0,0,0,0,0,286,-48,286,-48,402,-43,285,63,0,-0.35,3.13755,-1.5,3.94113e+12,0,0,2,0,0,0,0,0,0,0,0,13221,0,0,0,0,0,0,0,0,0,1,0
12600,-3.11492e-12,6.87482e-38,-1.52385e-06,-3.18057e-12,6.87434e-38,0,-1.06649e-13,0,0,-3.94692,-0.229289,0.590807,0,0,0,0,0,0,0,283,-50,283,-50,403,-48,289,62,0,-0.35,3.13769,-1.5,3.94113e+12,0,0,2,0,0,0,0,0,0,0,0,13800,0,0,0,0,0,0,0,0,0,1,0
12615,-3.11492e-12,6.87482e-38,-1.52385e-06,-3.18057e-12,6.87434e-38,0,-1.0665e-13,0,0,-3.94692,-0.229289,0.590807,0,0,0,0,0,0,0,283,-50,283,-50,403,-48,289,62,0,-0.35,3.13781,-1.5,3.94113e+12,0,0,2,0,0,0,0,0,0,0,0,13800,0,0,0,0,0,0,0,0,0,1,0
12631,-3.11492e-12,6.87482e-38,-1.52385e-06,-3.18057e-12,6.87434e-38,0,-1.0665e-13,0,0,-3.95568,-0.224772,0.588667,0,0,0,0,0,0,0,285,-48,285,-48,403,-48,286,62,0,-0.35,3.13792,-1.5,3.94113e+12,0,0,2,0,0,0,0,0,0,0,0,13452,0,0,0,0,0,0,0,0,0,1,0
12648,-3.11492e-12,6.87482e-38,-1.52385e-06,-3.18057e-12,6.87434e-38,0,-1.0665e-13,0,0,-3.95568,-0.224772,0.588667,0,0,0,0,0,0,0,285,-48,285,-48,403,-48,286,62,0,-0.35,3.13804,-1.5,3.94113e+12,0,0,2,0,0,0,0,0,0,0,0,13452,0,0,0,0,0,0,0,0,0,1,0
12664,-3.11492e-12,6.87482e-38,-1.52385e-06,-3.18057e-12,6.87434e-38,0,-1.06651e-13,0,0,-3.95568,-0.224772,0.588667,0,0,0,0,0,0,0,285,-48,285,-48,403,-48,286,62,0,-0.35,3.13815,-1.5,3.94113e+12,0,0,2,0,0,0,0,0,0,0,0,13452,0,0,0,0,0,0,0,0,0,1,0
12680,-3.11492e-12,6.87482e-38,-1.52385e-06,-3.18057e-12,6.87434e-38,0,-1.06651e-13,0,0,-3.95568,-0.224772,0.588667,0,0,0,0,0,0,0,285,-48,285,-48,403,-48,286,62,0,-0.35,3.13826,-1.5,3.94113e+12,0,0,2,0,0,0,0,0,0,0,0,13452,0,0,0,0,0,0,0,0,0,1,0
12696,-3.11492e-12,6.87482e-38,-1.52385e-06,-3.18057e-12,6.87434e-38,0,-1.06651e-13,0,0,-3.95568,-0.224772,0.588667,0,0,0,0,0,0,0,285,-48,285,-48,403,-48,286,62,0,-0.35,3.13836,-1.5,3.94113e+12,0,0,2,0,0,0,0,0,0,0,0,13452,0,0,0,0,0,0,0,0,0,1,0
12711,-3.11492e-12,6.87482e-38,-1.52385e-06,-3.18057e-12,6.87434e-38,0,-1.06651e-13,0,0,-3.95568,-0.224772,0.588667,0,0,0,0,0,0,0,285,-48,285,-48,403,-48,286,62,0,-0.35,3.13846,-1.5,3.94113e+12,0,0,2,0,0,0,0,0,0,0,0,13452,0,0,0,0,0,0,0,0,0,1,0
12727,-3.11492e-12,6.87482e-38,-1.52385e-06,-3.18057e-12,6.87434e-38,0,-1.06652e-13,0,0,-3.98643,-0.211824,0.603528,0,0,0,0,0,0,0,285,-48,285,-48,398,-48,285,63,0,-0.35,3.13856,-1.5,3.94113e+12,0,0,2,0,0,0,0,0,0,0,0,12996,0,0,0,0,0,0,0,0,0,1,0
12743,-3.11492e-12,6.87482e-38,-1.52385e-06,-3.18057e-12,6.87434e-38,0,-1.06652e-13,0,0,-3.98643,-0.211824,0.603528,0,0,0,0,0,0,0,285,-48,285,-48,398,-48,285,63,0,-0.35,3.13865,-1.5,3.94113e+12,0,0,2,0,0,0,0,0,0,0,0,12996,0,0,0,0,0,0,0,0,0,1,0
12759,-3.11492e-12,6.87482e-38,-1.52385e-06,-3.18057e-12,6.87434e-38,0,-1.06652e-13,0,0,-3.94059,-0.231375,0.561267,0,0,0,0,0,0,0,287,-46,287,-46,402,-46,285,63,0,-0.35,3.13874,-1.5,3.94113e+12,0,0,2,0,0,0,0,0,0,0,0,13455,0,0,0,0,0,0,0,0,0,1,0
12774,-3.11492e-12,6.87482e-38,-1.52385e-06,-3.18057e-12,6.87434e-38,0,-1.06652e-13,0,0,-3.94059,-0.231375,0.561267,0,0,0,0,0,0,0,287,-46,287,-46,402,-46,285,63,0,-0.35,3.13883,-1.5,3.94113e+12,0,0,2,0,0,0,0,0,0,0,0,13455,0,0,0,0,0,0,0,0,0,1,0
12790,-3.11492e-12,6.87482e-38,-1.52385e-06,-3.18057e-12,6.87434e-38,0,-1.06653e-13,0,0,-3.94059,-0.231375,0.561267,0,0,0,0,0,0,0,287,-46,287,-46,402,-46,285,63,0,-0.35,3.13891,-1.5,3.94113e+12,0,0,2,0,0,0,0,0,0,0,0,13455,0,0,0,0,0,0,0,0,0,1,0
12808,-3.11492e-12,6.87482e-38,-1.52385e-06,-3.18057e-12,6.87434e-38,0,-1.06653e-13,0,0,-3.92917,-0.259364,0.567107,0,0,0,0,0,0,0,289,-48,289,-48,405,-46,288,63,0,-0.35,3.139,-1.5,3.94113e+12,0,0,2,0,0,0,0,0,0,0,0,13452,0,0,0,0,0,0,0,0,0,1,0
12822,-3.11492e-12,6.87482e-38,-1.52385e-06,-3.18057e-12,6.87434e-38,0,-1.06653e-13,0,0,-3.98422,-0.263002,0.602854,0,0,0,0,0,0,0,290,-48,290,-48,404,-46,289,62,0,-0.35,3.13908,-1.5,3.94113e+12,0,0,2,0,0,0,0,0,0,0,0,13108,0,0,0,0,0,0,0,0,0,1,0
12835,-3.11492e-12,6.87482e-38,-1.52385e-06,-3.18057e-12,6.87434e-38,0,-1.06654e-13,0,0,-3.98422,-0.263002,0.602854,0,0,0,0,0,0,0,290,-48,290,-48,404,-46,289,62,0,-0.35,3.13914,-1.5,3.94113e+12,0,0,2,0,0,0,0,0,0,0,0,13108,0,0,0,0,0,0,0,0,0,1,0
12850,-3.11492e-12,6.87482e-38,-1.52385e-06,-3.18057e-12,6.87434e-38,0,-1.06654e-13,0,0,-3.98422,-0.263002,0.602854,0,0,0,0,0,0,0,290,-48,290,-48,404,-46,289,62,0,-0.35,3.13921,-1.5,3.94113e+12,0,0,2,0,0,0,0,0,0,0,0,13108,0,0,0,0,0,0,0,0,0,1,0
12866,-3.11492e-12,6.87482e-38,-1.52385e-06,-3.18057e-12,6.87434e-38,0,-1.06654e-13,0,0,-3.99004,-0.251131,0.603388,0,0,0,0,0,0,0,289,-48,289,-48,404,-46,288,63,0,-0.35,3.13929,-1.5,3.94113e+12,0,0,2,0,0,0,0,0,0,0,0,13108,0,0,0,0,0,0,0,0,0,1,0
12881,-3.11492e-12,6.87482e-38,-1.52385e-06,-3.18057e-12,6.87434e-38,0,-1.06654e-13,0,0,-3.99004,-0.251131,0.603388,0,0,0,0,0,0,0,289,-48,289,-48,404,-46,288,63,0,-0.35,3.13936,-1.5,3.94113e+12,0,0,2,0,0,0,0,0,0,0,0,13108,0,0,0,0,0,0,0,0,0,1,0
12897,-3.11492e-12,6.87482e-38,-1.52385e-06,-3.18057e-12,6.87434e-38,0,-1.06655e-13,0,0,-3.95808,-0.251962,0.578712,0,0,0,0,0,0,0,287,-48,287,-48,405,-43,288,63,0,-0.35,3.13943,-1.5,3.94113e+12,0,0,2,0,0,0,0,0,0,0,0,13334,0,0,0,0,0,0,0,0,0,1,0
12912,-3.11492e-12,6.87482e-38,-1.52385e-06,-3.18057e-12,6.87434e-38,0,-1.06655e-13,0,0,-3.95808,-0.251962,0.578712,0,0,0,0,0,0,0,287,-48,287,-48,405,-43,288,63,0,-0.35,3.13949,-1.5,3.94113e+12,0,0,2,0,0,0,0,0,0,0,0,13334,0,0,0,0,0,0,0,0,0,1,0
12928,-3.11492e-12,6.87482e-38,-1.52385e-06,-3.18057e-12,6.87434e-38,0,-1.06655e-13,0,0,-4.02743,-0.257413,0.619525,0,0,0,0,0,0,0,289,-44,289,-44,404,-48,290,63,0,-0.35,3.13956,-1.5,3.94113e+12,0,0,2,0,0,0,0,0,0,0,0,12995,0,0,0,0,0,0,0,0,0,1,0
12944,-3.11492e-12,6.87482e-38,-1.52385e-06,-3.18057e-12,6.87434e-38,0,-1.06655e-13,0,0,-4.02743,-0.257413,0.619525,0,0,0,0,0,0,0,289,-44,289,-44,404,-48,290,63,0,-0.35,3.13962,-1.5,3.94113e+12,0,0,2,0,0,0,0,0,0,0,0,12995,0,0,0,0,0,0,0,0,0,1,0
