timestamp,A_x,A_y,A_z,P,Q,R,Phi,Theta,Psi,poseX,poseY,poseZ,state_X,state_Y,state_Z,state_VzB,state_Bx,state_By,state_Bz,p1_x,p1_y,p2_x,p2_y,p3_x,p3_y,p4_x,p4_y,roll,pitch,yaw,alt,targetHeading,highLevelState,lowLevelState,gateNumber,filtered_x,filtered_y,x_OT,y_OT,vx_OT,vy_OT,filtered_vx,filtered_vygateArearansac_corr_x,ransac_corr_y,ransac_corr_vx,ransac_corr_vy,detectionTimeStamppTermX,dTermX,pTermY,dTermY,vxcmd,vycmd
9455,0,0,0,0,0,0,0,0,0,0,0,0,0,0,0,0,0,0,0,0,0,0,0,0,0,0,0,0,-0.349066,0.0141372,-1.5,nan,0,0,2,0,0,0,0,0,0,0,0,1.9603e-19,0,0,0,0,0,0,0,0,0,2.5,0
9560,0,0,0,0,0,0,0,0,0,0,0,0,0,0,0,0,0,0,0,0,0,0,0,0,0,0,0,0,-0.349066,0.179071,-1.5,nan,0,0,2,0,0,0,0,0,0,0,0,1.9603e-19,0,0,0,0,0,0,0,0,0,2.5,0
10446,-3.11491e-12,0,-1.52338e-06,-3.18057e-12,0,0,-1.06589e-13,0,0,0,0,0,0,0,0,0,0,0,0,0,0,0,0,0,0,0,0,0,-0.349066,1.5708,-1.5,nan,0,0,2,0,0,0,0,0,0,0,0,1.9603e-19,0,0,0,0,0,0,0,0,0,2.5,0
10550,-3.11491e-12,0,-1.52338e-06,-3.18057e-12,0,0,-1.0659e-13,0,0,0,0,0,0,0,0,0,0,0,0,0,0,0,0,0,0,0,0,0,-0.349066,1.73416,-1.5,nan,0,0,2,0,0,0,0,0,0,0,0,1.9603e-19,0,0,0,0,0,0,0,0,0,2.5,0
10930,-3.11491e-12,0,-1.52338e-06,-3.18057e-12,0,0,-1.0659e-13,0,0,0,0,0,0,0,0,0,0,0,0,0,0,0,0,0,0,0,0,0,-0.349066,2.33106,-1.5,nan,0,0,2,0,0,0,0,0,0,0,0,1.9603e-19,0,0,0,0,0,0,0,0,0,2.5,0
11080,-3.11491e-12,0,-1.52338e-06,-3.18057e-12,0,0,-1.0659e-13,0,0,0,0,0,0,0,0,0,0,0,0,0,0,0,0,0,0,0,0,0,-0.349066,2.56346,-1.5,nan,0,0,2,0,0,0,0,0,0,0,0,1.9603e-19,0,0,0,0,0,0,0,0,0,2.5,0
11220,-3.11491e-12,0,-1.52338e-06,-3.18057e-12,0,0,-1.0659e-13,0,0,0,0,0,0,0,0,0,0,0,0,0,0,0,0,0,0,0,0,0,-0.349066,2.72285,-1.5,nan,0,0,2,0,0,0,0,0,0,0,0,1.9603e-19,0,0,0,0,0,0,0,0,0,2.5,0
11540,-3.11491e-12,0,-1.52338e-06,-3.18057e-12,0,0,-1.06591e-13,0,0,0,0,0,0,0,0,0,0,0,0,0,0,0,0,0,0,0,0,0,-0.349066,2.98665,-1.5,nan,0,0,2,0,0,0,0,0,0,0,0,1.9603e-19,0,0,0,0,0,0,0,0,0,2.5,0
11840,-3.11491e-12,0,-1.52338e-06,-3.18057e-12,0,0,-1.06591e-13,0,0,0,0,0,0,0,0,0,0,0,0,0,0,0,0,0,0,0,0,0,-0.349066,3.07816,-1.5,nan,0,0,2,0,0,0,0,0,0,0,0,1.9603e-19,0,0,0,0,0,0,0,0,0,2.5,0
11953,-3.11491e-12,0,-1.52338e-06,-3.18057e-12,0,0,-1.06591e-13,0,0,0,0,0,0,0,0,0,0,0,0,0,0,0,0,0,0,0,0,0,-0.349066,3.09225,-1.5,nan,0,0,2,0,0,0,0,0,0,0,0,1.9603e-19,0,0,0,0,0,0,0,0,0,2.5,0
11970,-3.11491e-12,0,-1.52338e-06,-3.18057e-12,0,0,-1.06591e-13,0,0,0,0,0,0,0,0,0,0,0,0,0,0,0,0,0,0,0,0,0,-0.349066,3.09391,-1.5,nan,0,0,2,0,0,0,0,0,0,0,0,1.9603e-19,0,0,0,0,0,0,0,0,0,2.5,0
11986,-3.11491e-12,0,-1.52338e-06,-3.18057e-12,0,0,-1.06592e-13,0,0,0,0,0,0,0,0,0,0,0,0,0,0,0,0,0,0,0,0,0,-0.349066,3.09542,-1.5,nan,0,0,2,0,0,0,0,0,0,0,0,1.9603e-19,0,0,0,0,0,0,0,0,0,2.5,0
12002,-3.11491e-12,0,-1.52338e-06,-3.18057e-12,0,0,-1.06592e-13,0,0,0,0,0,0,0,0,0,0,0,0,0,0,0,0,0,0,0,0,0,-0.349066,3.09688,-1.5,nan,0,0,2,0,0,0,0,0,0,0,0,1.9603e-19,0,0,0,0,0,0,0,0,0,2.5,0
12018,-3.11491e-12,0,-1.52338e-06,-3.18057e-12,0,0,-1.06592e-13,0,0,0,0,0,0,0,0,0,0,0,0,0,0,0,0,0,0,0,0,0,-0.349066,3.09829,-1.5,nan,0,0,2,0,0,0,0,0,0,0,0,1.9603e-19,0,0,0,0,0,0,0,0,0,2.5,0
12034,-3.11491e-12,0,-1.52338e-06,-3.18057e-12,0,0,-1.06593e-13,0,0,0,0,0,0,0,0,0,0,0,0,0,0,0,0,0,0,0,0,0,-0.349066,3.09966,-1.5,nan,0,0,2,0,0,0,0,0,0,0,0,1.9603e-19,0,0,0,0,0,0,0,0,0,2.5,0
12050,-3.11491e-12,0,-1.52338e-06,-3.18057e-12,0,0,-1.06593e-13,0,0,0,0,0,0,0,0,0,0,0,0,0,0,0,0,0,0,0,0,0,-0.349066,3.10099,-1.5,nan,0,0,2,0,0,0,0,0,0,0,0,1.9603e-19,0,0,0,0,0,0,0,0,0,2.5,0
12066,-3.11491e-12,0,-1.52338e-06,-3.18057e-12,0,0,-1.06593e-13,0,0,0,0,0,0,0,0,0,0,0,0,0,0,0,0,0,0,0,0,0,-0.349066,3.10227,-1.5,nan,0,0,2,0,0,0,0,0,0,0,0,1.9603e-19,0,0,0,0,0,0,0,0,0,2.5,0
12082,-3.11491e-12,0,-1.52338e-06,-3.18057e-12,0,0,-1.06593e-13,0,0,0,0,0,0,0,0,0,0,0,0,0,0,0,0,0,0,0,0,0,-0.349066,3.10344,-1.5,nan,0,0,2,0,0,0,0,0,0,0,0,1.9603e-19,0,0,0,0,0,0,0,0,0,2.5,0
12098,-3.11491e-12,0,-1.52338e-06,-3.18057e-12,0,0,-1.06594e-13,0,0,0,0,0,0,0,0,0,0,0,0,0,0,0,0,0,0,0,0,0,-0.349066,3.10472,-1.5,nan,0,0,2,0,0,0,0,0,0,0,0,1.9603e-19,0,0,0,0,0,0,0,0,0,2.5,0
12114,-3.11491e-12,0,-1.52338e-06,-3.18057e-12,0,0,-1.06594e-13,0,0,0,0,0,0,0,0,0,0,0,0,0,0,0,0,0,0,0,0,0,-0.349066,3.10589,-1.5,nan,0,0,2,0,0,0,0,0,0,0,0,1.9603e-19,0,0,0,0,0,0,0,0,0,2.5,0
12130,-3.11491e-12,0,-1.52338e-06,-3.18057e-12,0,0,-1.06594e-13,0,0,0,0,0,0,0,0,0,0,0,0,0,0,0,0,0,0,0,0,0,-0.349066,3.10702,-1.5,nan,0,0,2,0,0,0,0,0,0,0,0,1.9603e-19,0,0,0,0,0,0,0,0,0,2.5,0
12143,-3.11491e-12,0,-1.52338e-06,-3.18057e-12,0,0,-1.06594e-13,0,0,0,0,0,0,0,0,0,0,0,0,0,0,0,0,0,0,0,0,0,-0.349066,3.10791,-1.5,nan,0,0,2,0,0,0,0,0,0,0,0,1.9603e-19,0,0,0,0,0,0,0,0,0,2.5,0
12157,-3.11491e-12,0,-1.52338e-06,-3.18057e-12,0,0,-1.06595e-13,0,0,0,0,0,0,0,0,0,0,0,0,0,0,0,0,0,0,0,0,0,-0.349066,3.10884,-1.5,nan,0,0,2,0,0,0,0,0,0,0,0,1.9603e-19,0,0,0,0,0,0,0,0,0,2.5,0
12171,-3.11491e-12,0,-1.52338e-06,-3.18057e-12,0,0,-1.06595e-13,0,0,0,0,0,0,0,0,0,0,0,0,0,0,0,0,0,0,0,0,0,-0.349066,3.10975,-1.5,nan,0,0,2,0,0,0,0,0,0,0,0,1.9603e-19,0,0,0,0,0,0,0,0,0,2.5,0
12206,-3.11491e-12,0,-1.52338e-06,-3.18057e-12,0,0,-1.06595e-13,0,0,0,0,0,0,0,0,0,0,0,0,0,0,0,0,0,0,0,0,0,-0.349066,3.11195,-1.5,nan,0,0,2,0,0,0,0,0,0,0,0,1.9603e-19,0,0,0,0,0,0,0,0,0,2.5,0
12222,-3.11491e-12,0,-1.52338e-06,-3.18057e-12,0,0,-1.06596e-13,0,0,0,0,0,0,0,0,0,0,0,0,0,0,0,0,0,0,0,0,0,-0.349066,3.11283,-1.5,nan,0,0,2,0,0,0,0,0,0,0,0,1.9603e-19,0,0,0,0,0,0,0,0,0,2.5,0
12237,-3.11491e-12,0,-1.52338e-06,-3.18057e-12,0,0,-1.06596e-13,0,0,0,0,0,0,0,0,0,0,0,0,0,0,0,0,0,0,0,0,0,-0.349066,3.11374,-1.5,nan,0,0,2,0,0,0,0,0,0,0,0,1.9603e-19,0,0,0,0,0,0,0,0,0,2.5,0
12253,-3.11491e-12,0,-1.52338e-06,-3.18057e-12,0,0,-1.06596e-13,0,0,0,0,0,0,0,0,0,0,0,0,0,0,0,0,0,0,0,0,0,-0.349066,3.11462,-1.5,nan,0,0,2,0,0,0,0,0,0,0,0,1.9603e-19,0,0,0,0,0,0,0,0,0,2.5,0
12269,-3.11491e-12,0,-1.52338e-06,-3.18057e-12,0,0,-1.06596e-13,0,0,0,0,0,0,0,0,0,0,0,0,0,0,0,0,0,0,0,0,0,-0.349066,3.11547,-1.5,nan,0,0,2,0,0,0,0,0,0,0,0,1.9603e-19,0,0,0,0,0,0,0,0,0,2.5,0
12285,-3.11491e-12,0,-1.52338e-06,-3.18057e-12,0,0,-1.06597e-13,0,0,0,0,0,0,0,0,0,0,0,0,0,0,0,0,0,0,0,0,0,-0.349066,3.1163,-1.5,nan,0,0,2,0,0,0,0,0,0,0,0,1.9603e-19,0,0,0,0,0,0,0,0,0,2.5,0
12301,-3.11491e-12,0,-1.52338e-06,-3.18057e-12,0,0,-1.06597e-13,0,0,0,0,0,0,0,0,0,0,0,0,0,0,0,0,0,0,0,0,0,-0.349066,3.11705,-1.5,nan,0,0,2,0,0,0,0,0,0,0,0,1.9603e-19,0,0,0,0,0,0,0,0,0,2.5,0
12317,-3.11491e-12,0,-1.52338e-06,-3.18057e-12,0,0,-1.06597e-13,0,0,0,0,0,0,0,0,0,0,0,0,0,0,0,0,0,0,0,0,0,-0.349066,3.11783,-1.5,nan,0,0,2,0,0,0,0,0,0,0,0,1.9603e-19,0,0,0,0,0,0,0,0,0,2.5,0
12332,-3.11491e-12,0,-1.52338e-06,-3.18057e-12,0,0,-1.06597e-13,0,0,0,0,0,0,0,0,0,0,0,0,0,0,0,0,0,0,0,0,0,-0.349066,3.11858,-1.5,nan,0,0,2,0,0,0,0,0,0,0,0,1.9603e-19,0,0,0,0,0,0,0,0,0,2.5,0
12348,-3.11491e-12,0,-1.52338e-06,-3.18057e-12,0,0,-1.06598e-13,0,0,0,0,0,0,0,0,0,0,0,0,0,0,0,0,0,0,0,0,0,-0.349066,3.11931,-1.5,nan,0,0,2,0,0,0,0,0,0,0,0,1.9603e-19,0,0,0,0,0,0,0,0,0,2.5,0
12365,-3.11491e-12,0,-1.52338e-06,-3.18057e-12,0,0,-1.06598e-13,0,0,0,0,0,0,0,0,0,0,0,0,0,0,0,0,0,0,0,0,0,-0.349066,3.12001,-1.5,nan,0,0,2,0,0,0,0,0,0,0,0,1.9603e-19,0,0,0,0,0,0,0,0,0,2.5,0
12380,-3.11491e-12,0,-1.52338e-06,-3.18057e-12,0,0,-1.06598e-13,0,0,0,0,0,0,0,0,0,0,0,0,0,0,0,0,0,0,0,0,0,-0.349066,3.12069,-1.5,nan,0,0,2,0,0,0,0,0,0,0,0,1.9603e-19,0,0,0,0,0,0,0,0,0,2.5,0
12397,-3.11491e-12,0,-1.52338e-06,-3.18057e-12,0,0,-1.06599e-13,0,0,0,0,0,0,0,0,0,0,0,0,0,0,0,0,0,0,0,0,0,-0.349066,3.1214,-1.5,nan,0,0,2,0,0,0,0,0,0,0,0,1.9603e-19,0,0,0,0,0,0,0,0,0,2.5,0
12412,-3.11491e-12,0,-1.52338e-06,-3.18057e-12,0,0,-1.06599e-13,0,0,0,0,0,0,0,0,0,0,0,0,0,0,0,0,0,0,0,0,0,-0.349066,3.122,-1.5,nan,0,0,2,0,0,0,0,0,0,0,0,1.9603e-19,0,0,0,0,0,0,0,0,0,2.5,0
12428,-3.11491e-12,0,-1.52338e-06,-3.18057e-12,0,0,-1.06599e-13,0,0,0,0,0,0,0,0,0,0,0,0,0,0,0,0,0,0,0,0,0,-0.349066,3.12262,-1.5,nan,0,0,2,0,0,0,0,0,0,0,0,1.9603e-19,0,0,0,0,0,0,0,0,0,2.5,0
12444,-3.11491e-12,0,-1.52338e-06,-3.18057e-12,0,0,-1.06599e-13,0,0,0,0,0,0,0,0,0,0,0,0,0,0,0,0,0,0,0,0,0,-0.349066,3.12322,-1.5,nan,0,0,2,0,0,0,0,0,0,0,0,1.9603e-19,0,0,0,0,0,0,0,0,0,2.5,0
12460,-3.11491e-12,0,-1.52338e-06,-3.18057e-12,0,0,-1.066e-13,0,0,0,0,0,0,0,0,0,0,0,0,0,0,0,0,0,0,0,0,0,-0.349066,3.1238,-1.5,nan,0,0,2,0,0,0,0,0,0,0,0,1.9603e-19,0,0,0,0,0,0,0,0,0,2.5,0
12475,-3.11491e-12,0,-1.52338e-06,-3.18057e-12,0,0,-1.066e-13,0,0,0,0,0,0,0,0,0,0,0,0,0,0,0,0,0,0,0,0,0,-0.349066,3.12433,-1.5,nan,0,0,2,0,0,0,0,0,0,0,0,1.9603e-19,0,0,0,0,0,0,0,0,0,2.5,0
12492,-3.11491e-12,0,-1.52338e-06,-3.18057e-12,0,0,-1.066e-13,0,0,0,0,0,0,0,0,0,0,0,0,0,0,0,0,0,0,0,0,0,-0.349066,3.12491,-1.5,nan,0,0,2,0,0,0,0,0,0,0,0,1.9603e-19,0,0,0,0,0,0,0,0,0,2.5,0
12518,-3.11491e-12,0,-1.52338e-06,-3.18057e-12,0,0,-1.066e-13,0,0,0,0,0,0,0,0,0,0,0,0,0,0,0,0,0,0,0,0,0,-0.349066,3.12576,-1.5,nan,0,0,2,0,0,0,0,0,0,0,0,1.9603e-19,0,0,0,0,0,0,0,0,0,2.5,0
12532,-3.11491e-12,0,-1.52338e-06,-3.18057e-12,0,0,-1.06601e-13,0,0,0,0,0,0,0,0,0,0,0,0,0,0,0,0,0,0,0,0,0,-0.349066,3.1262,-1.5,nan,0,0,2,0,0,0,0,0,0,0,0,1.9603e-19,0,0,0,0,0,0,0,0,0,2.5,0
12547,-3.11491e-12,0,-1.52338e-06,-3.18057e-12,0,0,-1.06601e-13,0,0,0,0,0,0,0,0,0,0,0,0,0,0,0,0,0,0,0,0,0,-0.349066,3.12663,-1.5,nan,0,0,2,0,0,0,0,0,0,0,0,1.9603e-19,0,0,0,0,0,0,0,0,0,2.5,0
12563,-3.11491e-12,0,-1.52338e-06,-3.18057e-12,0,0,-1.06601e-13,0,0,0,0,0,0,0,0,0,0,0,0,0,0,0,0,0,0,0,0,0,-0.349066,3.12713,-1.5,nan,0,0,2,0,0,0,0,0,0,0,0,1.9603e-19,0,0,0,0,0,0,0,0,0,2.5,0
12579,-3.11491e-12,0,-1.52338e-06,-3.18057e-12,0,0,-1.06602e-13,0,0,0,0,0,0,0,0,0,0,0,0,0,0,0,0,0,0,0,0,0,-0.349066,3.12759,-1.5,nan,0,0,2,0,0,0,0,0,0,0,0,1.9603e-19,0,0,0,0,0,0,0,0,0,2.5,0
12595,-3.11491e-12,0,-1.52338e-06,-3.18057e-12,0,0,-1.06602e-13,0,0,0,0,0,0,0,0,0,0,0,0,0,0,0,0,0,0,0,0,0,-0.349066,3.12803,-1.5,nan,0,0,2,0,0,0,0,0,0,0,0,1.9603e-19,0,0,0,0,0,0,0,0,0,2.5,0
12611,-3.11491e-12,0,-1.52338e-06,-3.18057e-12,0,0,-1.06602e-13,0,0,0,0,0,0,0,0,0,0,0,0,0,0,0,0,0,0,0,0,0,-0.349066,3.12843,-1.5,nan,0,0,2,0,0,0,0,0,0,0,0,1.9603e-19,0,0,0,0,0,0,0,0,0,2.5,0
12628,-3.11491e-12,0,-1.52338e-06,-3.18057e-12,0,0,-1.06602e-13,0,0,0,0,0,0,0,0,0,0,0,0,0,0,0,0,0,0,0,0,0,-0.349066,3.12887,-1.5,nan,0,0,2,0,0,0,0,0,0,0,0,1.9603e-19,0,0,0,0,0,0,0,0,0,2.5,0
12643,-3.11491e-12,0,-1.52338e-06,-3.18057e-12,0,0,-1.06603e-13,0,0,0,0,0,0,0,0,0,0,0,0,0,0,0,0,0,0,0,0,0,-0.349066,3.12928,-1.5,nan,0,0,2,0,0,0,0,0,0,0,0,1.9603e-19,0,0,0,0,0,0,0,0,0,2.5,0
12659,-3.11491e-12,0,-1.52338e-06,-3.18057e-12,0,0,-1.06603e-13,0,0,0,0,0,0,0,0,0,0,0,0,0,0,0,0,0,0,0,0,0,-0.349066,3.12967,-1.5,nan,0,0,2,0,0,0,0,0,0,0,0,1.9603e-19,0,0,0,0,0,0,0,0,0,2.5,0
12677,-3.11491e-12,0,-1.52338e-06,-3.18057e-12,0,0,-1.06603e-13,0,0,0,0,0,0,0,0,0,0,0,0,0,0,0,0,0,0,0,0,0,-0.349066,3.13007,-1.5,nan,0,0,2,0,0,0,0,0,0,0,0,1.9603e-19,0,0,0,0,0,0,0,0,0,2.5,0
12693,-3.11491e-12,0,-1.52338e-06,-3.18057e-12,0,0,-1.06603e-13,0,0,0,0,0,0,0,0,0,0,0,0,0,0,0,0,0,0,0,0,0,-0.349066,3.13043,-1.5,nan,0,0,2,0,0,0,0,0,0,0,0,1.9603e-19,0,0,0,0,0,0,0,0,0,2.5,0
12709,-3.11491e-12,0,-1.52338e-06,-3.18057e-12,0,0,-1.06604e-13,0,0,0,0,0,0,0,0,0,0,0,0,0,0,0,0,0,0,0,0,0,-0.349066,3.13081,-1.5,nan,0,0,2,0,0,0,0,0,0,0,0,1.9603e-19,0,0,0,0,0,0,0,0,0,2.5,0
12725,-3.11491e-12,0,-1.52338e-06,-3.18057e-12,0,0,-1.06604e-13,0,0,0,0,0,0,0,0,0,0,0,0,0,0,0,0,0,0,0,0,0,-0.349066,3.13113,-1.5,nan,0,0,2,0,0,0,0,0,0,0,0,1.9603e-19,0,0,0,0,0,0,0,0,0,2.5,0
12741,-3.11491e-12,0,-1.52338e-06,-3.18057e-12,0,0,-1.06604e-13,0,0,0,0,0,0,0,0,0,0,0,0,0,0,0,0,0,0,0,0,0,-0.349066,3.13148,-1.5,nan,0,0,2,0,0,0,0,0,0,0,0,1.9603e-19,0,0,0,0,0,0,0,0,0,2.5,0
12758,-3.11491e-12,0,-1.52338e-06,-3.18057e-12,0,0,-1.06605e-13,0,0,0,0,0,0,0,0,0,0,0,0,0,0,0,0,0,0,0,0,0,-0.349066,3.13182,-1.5,nan,0,0,2,0,0,0,0,0,0,0,0,1.9603e-19,0,0,0,0,0,0,0,0,0,2.5,0
12774,-3.11491e-12,0,-1.52338e-06,-3.18057e-12,0,0,-1.06605e-13,0,0,0,0,0,0,0,0,0,0,0,0,0,0,0,0,0,0,0,0,0,-0.349066,3.13213,-1.5,nan,0,0,2,0,0,0,0,0,0,0,0,1.9603e-19,0,0,0,0,0,0,0,0,0,2.5,0
12790,-3.11491e-12,0,-1.52338e-06,-3.18057e-12,0,0,-1.06605e-13,0,0,0,0,0,0,0,0,0,0,0,0,0,0,0,0,0,0,0,0,0,-0.349066,3.13243,-1.5,nan,0,0,2,0,0,0,0,0,0,0,0,1.9603e-19,0,0,0,0,0,0,0,0,0,2.5,0
12807,-3.11491e-12,0,-1.52338e-06,-3.18057e-12,0,0,-1.06605e-13,0,0,0,0,0,0,0,0,0,0,0,0,0,0,0,0,0,0,0,0,0,-0.349066,3.13273,-1.5,nan,0,0,2,0,0,0,0,0,0,0,0,1.9603e-19,0,0,0,0,0,0,0,0,0,2.5,0
12823,-3.11491e-12,0,-1.52338e-06,-3.18057e-12,0,0,-1.06606e-13,0,0,0,0,0,0,0,0,0,0,0,0,0,0,0,0,0,0,0,0,0,-0.349066,3.13301,-1.5,nan,0,0,2,0,0,0,0,0,0,0,0,1.9603e-19,0,0,0,0,0,0,0,0,0,2.5,0
12840,-3.11491e-12,0,-1.52338e-06,-3.18057e-12,0,0,-1.06606e-13,0,0,0,0,0,0,0,0,0,0,0,0,0,0,0,0,0,0,0,0,0,-0.349066,3.1333,-1.5,nan,0,0,2,0,0,0,0,0,0,0,0,1.9603e-19,0,0,0,0,0,0,0,0,0,2.5,0
12853,-3.11491e-12,0,-1.52338e-06,-3.18057e-12,0,0,-1.06606e-13,0,0,0,0,0,0,0,0,0,0,0,0,0,0,0,0,0,0,0,0,0,-0.349066,3.13352,-1.5,nan,0,0,2,0,0,0,0,0,0,0,0,1.9603e-19,0,0,0,0,0,0,0,0,0,2.5,0
12868,-3.11491e-12,0,-1.52338e-06,-3.18057e-12,0,0,-1.06606e-13,0,0,0,0,0,0,0,0,0,0,0,0,0,0,0,0,0,0,0,0,0,-0.349066,3.13374,-1.5,nan,0,0,2,0,0,0,0,0,0,0,0,1.9603e-19,0,0,0,0,0,0,0,0,0,2.5,0
12882,-3.11491e-12,0,-1.52338e-06,-3.18057e-12,0,0,-1.06607e-13,0,0,0,0,0,0,0,0,0,0,0,0,0,0,0,0,0,0,0,0,0,-0.349066,3.13397,-1.5,nan,0,0,2,0,0,0,0,0,0,0,0,1.9603e-19,0,0,0,0,0,0,0,0,0,2.5,0
12898,-3.11491e-12,0,-1.52338e-06,-3.18057e-12,0,0,-1.06607e-13,0,0,0,0,0,0,0,0,0,0,0,0,0,0,0,0,0,0,0,0,0,-0.349066,3.13421,-1.5,nan,0,0,2,0,0,0,0,0,0,0,0,1.9603e-19,0,0,0,0,0,0,0,0,0,2.5,0
12914,-3.11491e-12,0,-1.52338e-06,-3.18057e-12,0,0,-1.06607e-13,0,0,0,0,0,0,0,0,0,0,0,0,0,0,0,0,0,0,0,0,0,-0.349066,3.13445,-1.5,nan,0,0,2,0,0,0,0,0,0,0,0,1.9603e-19,0,0,0,0,0,0,0,0,0,2.5,0
12932,-3.11491e-12,0,-1.52338e-06,-3.18057e-12,0,0,-1.06607e-13,0,0,0,0,0,0,0,0,0,0,0,0,0,0,0,0,0,0,0,0,0,-0.349066,3.13469,-1.5,nan,0,0,2,0,0,0,0,0,0,0,0,1.9603e-19,0,0,0,0,0,0,0,0,0,2.5,0
12948,-3.11491e-12,0,-1.52338e-06,-3.18057e-12,0,0,-1.06608e-13,0,0,0,0,0,0,0,0,0,0,0,0,0,0,0,0,0,0,0,0,0,-0.349066,3.13491,-1.5,nan,0,0,2,0,0,0,0,0,0,0,0,1.9603e-19,0,0,0,0,0,0,0,0,0,2.5,0
12964,-3.11491e-12,0,-1.52338e-06,-3.18057e-12,0,0,-1.06608e-13,0,0,0,0,0,0,0,0,0,0,0,0,0,0,0,0,0,0,0,0,0,-0.349066,3.13512,-1.5,nan,0,0,2,0,0,0,0,0,0,0,0,1.9603e-19,0,0,0,0,0,0,0,0,0,2.5,0
12981,-3.11491e-12,0,-1.52338e-06,-3.18057e-12,0,0,-1.06608e-13,0,0,0,0,0,0,0,0,0,0,0,0,0,0,0,0,0,0,0,0,0,-0.349066,3.13533,-1.5,nan,0,0,2,0,0,0,0,0,0,0,0,1.9603e-19,0,0,0,0,0,0,0,0,0,2.5,0
12997,-3.11491e-12,0,-1.52338e-06,-3.18057e-12,0,0,-1.06609e-13,0,0,0,0,0,0,0,0,0,0,0,0,0,0,0,0,0,0,0,0,0,-0.349066,3.13553,-1.5,nan,0,0,2,0,0,0,0,0,0,0,0,1.9603e-19,0,0,0,0,0,0,0,0,0,2.5,0
13013,-3.11491e-12,0,-1.52338e-06,-3.18057e-12,0,0,-1.06609e-13,0,0,0,0,0,0,0,0,0,0,0,0,0,0,0,0,0,0,0,0,0,-0.349066,3.13572,-1.5,nan,0,0,2,0,0,0,0,0,0,0,0,1.9603e-19,0,0,0,0,0,0,0,0,0,2.5,0
13030,-3.11491e-12,0,-1.52338e-06,-3.18057e-12,0,0,-1.06609e-13,0,0,0,0,0,0,0,0,0,0,0,0,0,0,0,0,0,0,0,0,0,-0.349066,3.13592,-1.5,nan,0,0,2,0,0,0,0,0,0,0,0,1.9603e-19,0,0,0,0,0,0,0,0,0,2.5,0
13045,-3.11491e-12,0,-1.52338e-06,-3.18057e-12,0,0,-1.06609e-13,0,0,0,0,0,0,0,0,0,0,0,0,0,0,0,0,0,0,0,0,0,-0.349066,3.13609,-1.5,nan,0,0,2,0,0,0,0,0,0,0,0,1.9603e-19,0,0,0,0,0,0,0,0,0,2.5,0
13062,-3.11491e-12,0,-1.52338e-06,-3.18057e-12,0,0,-1.0661e-13,0,0,0,0,0,0,0,0,0,0,0,0,0,0,0,0,0,0,0,0,0,-0.349066,3.13628,-1.5,nan,0,0,2,0,0,0,0,0,0,0,0,1.9603e-19,0,0,0,0,0,0,0,0,0,2.5,0
13078,-3.11491e-12,0,-1.52338e-06,-3.18057e-12,0,0,-1.0661e-13,0,0,0,0,0,0,0,0,0,0,0,0,0,0,0,0,0,0,0,0,0,-0.349066,3.13644,-1.5,nan,0,0,2,0,0,0,0,0,0,0,0,1.9603e-19,0,0,0,0,0,0,0,0,0,2.5,0
13094,-3.11491e-12,0,-1.52338e-06,-3.18057e-12,0,0,-1.0661e-13,0,0,0,0,0,0,0,0,0,0,0,0,0,0,0,0,0,0,0,0,0,-0.349066,3.13661,-1.5,nan,0,0,2,0,0,0,0,0,0,0,0,1.9603e-19,0,0,0,0,0,0,0,0,0,2.5,0
13111,-3.11491e-12,0,-1.52338e-06,-3.18057e-12,0,0,-1.0661e-13,0,0,0,0,0,0,0,0,0,0,0,0,0,0,0,0,0,0,0,0,0,-0.349066,3.13677,-1.5,nan,0,0,2,0,0,0,0,0,0,0,0,1.9603e-19,0,0,0,0,0,0,0,0,0,2.5,0
13127,-3.11491e-12,0,-1.52338e-06,-3.18057e-12,0,0,-1.06611e-13,0,0,0,0,0,0,0,0,0,0,0,0,0,0,0,0,0,0,0,0,0,-0.349066,3.13693,-1.5,nan,0,0,2,0,0,0,0,0,0,0,0,1.9603e-19,0,0,0,0,0,0,0,0,0,2.5,0
13174,-3.11491e-12,0,-1.52338e-06,-3.18057e-12,0,0,-1.06611e-13,0,0,0,0,0,0,0,0,0,0,0,0,0,0,0,0,0,0,0,0,0,-0.349066,3.13736,-1.5,nan,0,0,2,0,0,0,0,0,0,0,0,1.9603e-19,0,0,0,0,0,0,0,0,0,2.5,0
13190,-3.11491e-12,0,-1.52338e-06,-3.18057e-12,0,0,-1.06611e-13,0,0,0,0,0,0,0,0,0,0,0,0,0,0,0,0,0,0,0,0,0,-0.349066,3.13749,-1.5,nan,0,0,2,0,0,0,0,0,0,0,0,1.9603e-19,0,0,0,0,0,0,0,0,0,2.5,0
13206,-3.11491e-12,0,-1.52338e-06,-3.18057e-12,0,0,-1.06612e-13,0,0,0,0,0,0,0,0,0,0,0,0,0,0,0,0,0,0,0,0,0,-0.349066,3.13762,-1.5,nan,0,0,2,0,0,0,0,0,0,0,0,1.9603e-19,0,0,0,0,0,0,0,0,0,2.5,0
13224,-3.11491e-12,0,-1.52338e-06,-3.18057e-12,0,0,-1.06612e-13,0,0,0,0,0,0,0,0,0,0,0,0,0,0,0,0,0,0,0,0,0,-0.349066,3.13776,-1.5,nan,0,0,2,0,0,0,0,0,0,0,0,1.9603e-19,0,0,0,0,0,0,0,0,0,2.5,0
13239,-3.11491e-12,0,-1.52338e-06,-3.18057e-12,0,0,-1.06612e-13,0,0,0,0,0,0,0,0,0,0,0,0,0,0,0,0,0,0,0,0,0,-0.349066,3.13788,-1.5,nan,0,0,2,0,0,0,0,0,0,0,0,1.9603e-19,0,0,0,0,0,0,0,0,0,2.5,0
13252,-3.11491e-12,0,-1.52338e-06,-3.18057e-12,0,0,-1.06612e-13,0,0,0,0,0,0,0,0,0,0,0,0,0,0,0,0,0,0,0,0,0,-0.349066,3.13797,-1.5,nan,0,0,2,0,0,0,0,0,0,0,0,1.9603e-19,0,0,0,0,0,0,0,0,0,2.5,0
13267,-3.11491e-12,0,-1.52338e-06,-3.18057e-12,0,0,-1.06613e-13,0,0,0,0,0,0,0,0,0,0,0,0,0,0,0,0,0,0,0,0,0,-0.349066,3.13807,-1.5,nan,0,0,2,0,0,0,0,0,0,0,0,1.9603e-19,0,0,0,0,0,0,0,0,0,2.5,0
13282,-3.11491e-12,0,-1.52338e-06,-3.18057e-12,0,0,-1.06613e-13,0,0,0,0,0,0,0,0,0,0,0,0,0,0,0,0,0,0,0,0,0,-0.349066,3.13818,-1.5,nan,0,0,2,0,0,0,0,0,0,0,0,1.9603e-19,0,0,0,0,0,0,0,0,0,2.5,0
13298,-3.11491e-12,0,-1.52338e-06,-3.18057e-12,0,0,-1.06613e-13,0,0,0,0,0,0,0,0,0,0,0,0,0,0,0,0,0,0,0,0,0,-0.349066,3.13828,-1.5,nan,0,0,2,0,0,0,0,0,0,0,0,1.9603e-19,0,0,0,0,0,0,0,0,0,2.5,0
13314,-3.11491e-12,0,-1.52338e-06,-3.18057e-12,0,0,-1.06613e-13,0,0,0,0,0,0,0,0,0,0,0,0,0,0,0,0,0,0,0,0,0,-0.349066,3.13838,-1.5,nan,0,0,2,0,0,0,0,0,0,0,0,1.9603e-19,0,0,0,0,0,0,0,0,0,2.5,0
13330,-3.11491e-12,0,-1.52338e-06,-3.18057e-12,0,0,-1.06614e-13,0,0,0,0,0,0,0,0,0,0,0,0,0,0,0,0,0,0,0,0,0,-0.349066,3.13849,-1.5,nan,0,0,2,0,0,0,0,0,0,0,0,1.9603e-19,0,0,0,0,0,0,0,0,0,2.5,0
13346,-3.11491e-12,0,-1.52338e-06,-3.18057e-12,0,0,-1.06614e-13,0,0,0,0,0,0,0,0,0,0,0,0,0,0,0,0,0,0,0,0,0,-0.349066,3.13859,-1.5,nan,0,0,2,0,0,0,0,0,0,0,0,1.9603e-19,0,0,0,0,0,0,0,0,0,2.5,0
13362,-3.11491e-12,0,-1.52338e-06,-3.18057e-12,0,0,-1.06614e-13,0,0,0,0,0,0,0,0,0,0,0,0,0,0,0,0,0,0,0,0,0,-0.349066,3.13868,-1.5,nan,0,0,2,0,0,0,0,0,0,0,0,1.9603e-19,0,0,0,0,0,0,0,0,0,2.5,0
13378,-3.11491e-12,0,-1.52338e-06,-3.18057e-12,0,0,-1.06615e-13,0,0,0,0,0,0,0,0,0,0,0,0,0,0,0,0,0,0,0,0,0,-0.349066,3.13878,-1.5,nan,0,0,2,0,0,0,0,0,0,0,0,1.9603e-19,0,0,0,0,0,0,0,0,0,2.5,0
13395,-3.11491e-12,0,-1.52338e-06,-3.18057e-12,0,0,-1.06615e-13,0,0,0,0,0,0,0,0,0,0,0,0,0,0,0,0,0,0,0,0,0,-0.349066,3.13886,-1.5,nan,0,0,2,0,0,0,0,0,0,0,0,1.9603e-19,0,0,0,0,0,0,0,0,0,2.5,0
13410,-3.11491e-12,0,-1.52338e-06,-3.18057e-12,0,0,-1.06615e-13,0,0,0,0,0,0,0,0,0,0,0,0,0,0,0,0,0,0,0,0,0,-0.349066,3.13895,-1.5,nan,0,0,2,0,0,0,0,0,0,0,0,1.9603e-19,0,0,0,0,0,0,0,0,0,2.5,0
13426,-3.11491e-12,0,-1.52338e-06,-3.18057e-12,0,0,-1.06615e-13,0,0,0,0,0,0,0,0,0,0,0,0,0,0,0,0,0,0,0,0,0,-0.349066,3.13903,-1.5,nan,0,0,2,0,0,0,0,0,0,0,0,1.9603e-19,0,0,0,0,0,0,0,0,0,2.5,0
13443,-3.11491e-12,0,-1.52338e-06,-3.18057e-12,0,0,-1.06616e-13,0,0,0,0,0,0,0,0,0,0,0,0,0,0,0,0,0,0,0,0,0,-0.349066,3.13912,-1.5,nan,0,0,2,0,0,0,0,0,0,0,0,1.9603e-19,0,0,0,0,0,0,0,0,0,2.5,0
13458,-3.11491e-12,0,-1.52338e-06,-3.18057e-12,0,0,-1.06616e-13,0,0,0,0,0,0,0,0,0,0,0,0,0,0,0,0,0,0,0,0,0,-0.349066,3.13919,-1.5,nan,0,0,2,0,0,0,0,0,0,0,0,1.9603e-19,0,0,0,0,0,0,0,0,0,2.5,0
13474,-3.11491e-12,0,-1.52338e-06,-3.18057e-12,0,0,-1.06616e-13,0,0,0,0,0,0,0,0,0,0,0,0,0,0,0,0,0,0,0,0,0,-0.349066,3.13927,-1.5,nan,0,0,2,0,0,0,0,0,0,0,0,1.9603e-19,0,0,0,0,0,0,0,0,0,2.5,0
13490,-3.11491e-12,0,-1.52338e-06,-3.18057e-12,0,0,-1.06616e-13,0,0,0,0,0,0,0,0,0,0,0,0,0,0,0,0,0,0,0,0,0,-0.349066,3.13934,-1.5,nan,0,0,2,0,0,0,0,0,0,0,0,1.9603e-19,0,0,0,0,0,0,0,0,0,2.5,0
13506,-3.11491e-12,0,-1.52338e-06,-3.18057e-12,0,0,-1.06617e-13,0,0,0,0,0,0,0,0,0,0,0,0,0,0,0,0,0,0,0,0,0,-0.349066,3.13941,-1.5,nan,0,0,2,0,0,0,0,0,0,0,0,1.9603e-19,0,0,0,0,0,0,0,0,0,2.5,0
13522,-3.11491e-12,0,-1.52338e-06,-3.18057e-12,0,0,-1.06617e-13,0,0,0,0,0,0,0,0,0,0,0,0,0,0,0,0,0,0,0,0,0,-0.349066,3.13948,-1.5,nan,0,0,2,0,0,0,0,0,0,0,0,1.9603e-19,0,0,0,0,0,0,0,0,0,2.5,0
13538,-3.11491e-12,0,-1.52338e-06,-3.18057e-12,0,0,-1.06617e-13,0,0,0,0,0,0,0,0,0,0,0,0,0,0,0,0,0,0,0,0,0,-0.349066,3.13955,-1.5,nan,0,0,2,0,0,0,0,0,0,0,0,1.9603e-19,0,0,0,0,0,0,0,0,0,2.5,0
13554,-3.11491e-12,0,-1.52338e-06,-3.18057e-12,0,0,-1.06618e-13,0,0,0,0,0,0,0,0,0,0,0,0,0,0,0,0,0,0,0,0,0,-0.349066,3.13961,-1.5,nan,0,0,2,0,0,0,0,0,0,0,0,1.9603e-19,0,0,0,0,0,0,0,0,0,2.5,0
13571,-3.11491e-12,0,-1.52338e-06,-3.18057e-12,0,0,-1.06618e-13,0,0,0,0,0,0,0,0,0,0,0,0,0,0,0,0,0,0,0,0,0,-0.349066,3.13968,-1.5,nan,0,0,2,0,0,0,0,0,0,0,0,1.9603e-19,0,0,0,0,0,0,0,0,0,2.5,0
13584,-3.11491e-12,0,-1.52338e-06,-3.18057e-12,0,0,-1.06618e-13,0,0,0,0,0,0,0,0,0,0,0,0,0,0,0,0,0,0,0,0,0,-0.349066,3.13973,-1.5,nan,0,0,2,0,0,0,0,0,0,0,0,1.9603e-19,0,0,0,0,0,0,0,0,0,2.5,0
13598,-3.11491e-12,0,-1.52338e-06,-3.18057e-12,0,0,-1.06618e-13,0,0,0,0,0,0,0,0,0,0,0,0,0,0,0,0,0,0,0,0,0,-0.349066,3.13978,-1.5,nan,0,0,2,0,0,0,0,0,0,0,0,1.9603e-19,0,0,0,0,0,0,0,0,0,2.5,0
13613,-3.11491e-12,0,-1.52338e-06,-3.18057e-12,0,0,-1.06619e-13,0,0,0,0,0,0,0,0,0,0,0,0,0,0,0,0,0,0,0,0,0,-0.349066,3.13983,-1.5,nan,0,0,2,0,0,0,0,0,0,0,0,1.9603e-19,0,0,0,0,0,0,0,0,0,2.5,0
13630,-3.11491e-12,0,-1.52338e-06,-3.18057e-12,0,0,-1.06619e-13,0,0,0,0,0,0,0,0,0,0,0,0,0,0,0,0,0,0,0,0,0,-0.349066,3.13989,-1.5,nan,0,0,2,0,0,0,0,0,0,0,0,1.9603e-19,0,0,0,0,0,0,0,0,0,2.5,0
13646,-3.11491e-12,0,-1.52338e-06,-3.18057e-12,0,0,-1.06619e-13,0,0,0,0,0,0,0,0,0,0,0,0,0,0,0,0,0,0,0,0,0,-0.349066,3.13995,-1.5,nan,0,0,2,0,0,0,0,0,0,0,0,1.9603e-19,0,0,0,0,0,0,0,0,0,2.5,0
13662,-3.11491e-12,0,-1.52338e-06,-3.18057e-12,0,0,-1.06619e-13,0,0,0,0,0,0,0,0,0,0,0,0,0,0,0,0,0,0,0,0,0,-0.349066,3.14,-1.5,nan,0,0,2,0,0,0,0,0,0,0,0,1.9603e-19,0,0,0,0,0,0,0,0,0,2.5,0
13677,-3.11491e-12,0,-1.52338e-06,-3.18057e-12,0,0,-1.0662e-13,0,0,0,0,0,0,0,0,0,0,0,0,0,0,0,0,0,0,0,0,0,-0.349066,3.14005,-1.5,nan,0,0,2,0,0,0,0,0,0,0,0,1.9603e-19,0,0,0,0,0,0,0,0,0,2.5,0
13694,-3.11491e-12,0,-1.52338e-06,-3.18057e-12,0,0,-1.0662e-13,0,0,0,0,0,0,0,0,0,0,0,0,0,0,0,0,0,0,0,0,0,-0.349066,3.1401,-1.5,nan,0,0,2,0,0,0,0,0,0,0,0,1.9603e-19,0,0,0,0,0,0,0,0,0,2.5,0
13709,-3.11491e-12,0,-1.52338e-06,-3.18057e-12,0,0,-1.0662e-13,0,0,0,0,0,0,0,0,0,0,0,0,0,0,0,0,0,0,0,0,0,-0.349066,3.14014,-1.5,nan,0,0,2,0,0,0,0,0,0,0,0,1.9603e-19,0,0,0,0,0,0,0,0,0,2.5,0
13725,-3.11491e-12,0,-1.52338e-06,-3.18057e-12,0,0,-1.0662e-13,0,0,0,0,0,0,0,0,0,0,0,0,0,0,0,0,0,0,0,0,0,-0.349066,3.14019,-1.5,nan,0,0,2,0,0,0,0,0,0,0,0,1.9603e-19,0,0,0,0,0,0,0,0,0,2.5,0
13740,-3.11491e-12,0,-1.52338e-06,-3.18057e-12,0,0,-1.06621e-13,0,0,0,0,0,0,0,0,0,0,0,0,0,0,0,0,0,0,0,0,0,-0.349066,3.14023,-1.5,nan,0,0,2,0,0,0,0,0,0,0,0,1.9603e-19,0,0,0,0,0,0,0,0,0,2.5,0
13756,-3.11491e-12,0,-1.52338e-06,-3.18057e-12,0,0,-1.06621e-13,0,0,0,0,0,0,0,0,0,0,0,0,0,0,0,0,0,0,0,0,0,-0.349066,3.14027,-1.5,nan,0,0,2,0,0,0,0,0,0,0,0,1.9603e-19,0,0,0,0,0,0,0,0,0,2.5,0
13773,-3.11491e-12,0,-1.52338e-06,-3.18057e-12,0,0,-1.06621e-13,0,0,0,0,0,0,0,0,0,0,0,0,0,0,0,0,0,0,0,0,0,-0.349066,3.14032,-1.5,nan,0,0,2,0,0,0,0,0,0,0,0,1.9603e-19,0,0,0,0,0,0,0,0,0,2.5,0
13789,-3.11491e-12,0,-1.52338e-06,-3.18057e-12,0,0,-1.06622e-13,0,0,0,0,0,0,0,0,0,0,0,0,0,0,0,0,0,0,0,0,0,-0.349066,3.14036,-1.5,nan,0,0,2,0,0,0,0,0,0,0,0,1.9603e-19,0,0,0,0,0,0,0,0,0,2.5,0
13805,-3.11491e-12,0,-1.52338e-06,-3.18057e-12,0,0,-1.06622e-13,0,0,0,0,0,0,0,0,0,0,0,0,0,0,0,0,0,0,0,0,0,-0.349066,3.1404,-1.5,nan,0,0,2,0,0,0,0,0,0,0,0,1.9603e-19,0,0,0,0,0,0,0,0,0,2.5,0
13821,-3.11491e-12,0,-1.52338e-06,-3.18057e-12,0,0,-1.06622e-13,0,0,0,0,0,0,0,0,0,0,0,0,0,0,0,0,0,0,0,0,0,-0.349066,3.14043,-1.5,nan,0,0,2,0,0,0,0,0,0,0,0,1.9603e-19,0,0,0,0,0,0,0,0,0,2.5,0
13837,-3.11491e-12,0,-1.52338e-06,-3.18057e-12,0,0,-1.06622e-13,0,0,0,0,0,0,0,0,0,0,0,0,0,0,0,0,0,0,0,0,0,-0.349066,3.14047,-1.5,nan,0,0,2,0,0,0,0,0,0,0,0,1.9603e-19,0,0,0,0,0,0,0,0,0,2.5,0
13853,-3.11491e-12,0,-1.52338e-06,-3.18057e-12,0,0,-1.06623e-13,0,0,0,0,0,0,0,0,0,0,0,0,0,0,0,0,0,0,0,0,0,-0.349066,3.14051,-1.5,nan,0,0,2,0,0,0,0,0,0,0,0,1.9603e-19,0,0,0,0,0,0,0,0,0,2.5,0
13870,-3.11491e-12,0,-1.52338e-06,-3.18057e-12,0,0,-1.06623e-13,0,0,0,0,0,0,0,0,0,0,0,0,0,0,0,0,0,0,0,0,0,-0.349066,3.14054,-1.5,nan,0,0,2,0,0,0,0,0,0,0,0,1.9603e-19,0,0,0,0,0,0,0,0,0,2.5,0
13886,-3.11491e-12,0,-1.52338e-06,-3.18057e-12,0,0,-1.06623e-13,0,0,0,0,0,0,0,0,0,0,0,0,0,0,0,0,0,0,0,0,0,-0.349066,3.14057,-1.5,nan,0,0,2,0,0,0,0,0,0,0,0,1.9603e-19,0,0,0,0,0,0,0,0,0,2.5,0
13902,-3.11491e-12,0,-1.52338e-06,-3.18057e-12,0,0,-1.06623e-13,0,0,0,0,0,0,0,0,0,0,0,0,0,0,0,0,0,0,0,0,0,-0.349066,3.14061,-1.5,nan,0,0,2,0,0,0,0,0,0,0,0,1.9603e-19,0,0,0,0,0,0,0,0,0,2.5,0
13915,-3.11491e-12,0,-1.52338e-06,-3.18057e-12,0,0,-1.06624e-13,0,0,0,0,0,0,0,0,0,0,0,0,0,0,0,0,0,0,0,0,0,-0.349066,3.14063,-1.5,nan,0,0,2,0,0,0,0,0,0,0,0,1.9603e-19,0,0,0,0,0,0,0,0,0,2.5,0
13929,-3.11491e-12,0,-1.52338e-06,-3.18057e-12,0,0,-1.06624e-13,0,0,0,0,0,0,0,0,0,0,0,0,0,0,0,0,0,0,0,0,0,-0.349066,3.14066,-1.5,nan,0,0,2,0,0,0,0,0,0,0,0,1.9603e-19,0,0,0,0,0,0,0,0,0,2.5,0
13943,-3.11491e-12,0,-1.52338e-06,-3.18057e-12,0,0,-1.06624e-13,0,0,0,0,0,0,0,0,0,0,0,0,0,0,0,0,0,0,0,0,0,-0.349066,3.14069,-1.5,nan,0,0,2,0,0,0,0,0,0,0,0,1.9603e-19,0,0,0,0,0,0,0,0,0,2.5,0
13959,-3.11491e-12,0,-1.52338e-06,-3.18057e-12,0,0,-1.06625e-13,0,0,0,0,0,0,0,0,0,0,0,0,0,0,0,0,0,0,0,0,0,-0.349066,3.14071,-1.5,nan,0,0,2,0,0,0,0,0,0,0,0,1.9603e-19,0,0,0,0,0,0,0,0,0,2.5,0
13975,-3.11491e-12,0,-1.52338e-06,-3.18057e-12,0,0,-1.06625e-13,0,0,0,0,0,0,0,0,0,0,0,0,0,0,0,0,0,0,0,0,0,-0.349066,3.14074,-1.5,nan,0,0,2,0,0,0,0,0,0,0,0,1.9603e-19,0,0,0,0,0,0,0,0,0,2.5,0
13991,-3.11491e-12,0,-1.52338e-06,-3.18057e-12,0,0,-1.06625e-13,0,0,0,0,0,0,0,0,0,0,0,0,0,0,0,0,0,0,0,0,0,-0.349066,3.14077,-1.5,nan,0,0,2,0,0,0,0,0,0,0,0,1.9603e-19,0,0,0,0,0,0,0,0,0,2.5,0
14007,-3.11491e-12,0,-1.52338e-06,-3.18057e-12,0,0,-1.06625e-13,0,0,0,0,0,0,0,0,0,0,0,0,0,0,0,0,0,0,0,0,0,-0.349066,3.14079,-1.5,nan,0,0,2,0,0,0,0,0,0,0,0,1.9603e-19,0,0,0,0,0,0,0,0,0,2.5,0
14023,-3.11491e-12,0,-1.52338e-06,-3.18057e-12,0,0,-1.06626e-13,0,0,0,0,0,0,0,0,0,0,0,0,0,0,0,0,0,0,0,0,0,-0.349066,3.14082,-1.5,nan,0,0,2,0,0,0,0,0,0,0,0,1.9603e-19,0,0,0,0,0,0,0,0,0,2.5,0
14039,-3.11491e-12,0,-1.52338e-06,-3.18057e-12,0,0,-1.06626e-13,0,0,0,0,0,0,0,0,0,0,0,0,0,0,0,0,0,0,0,0,0,-0.349066,3.14084,-1.5,nan,0,0,2,0,0,0,0,0,0,0,0,1.9603e-19,0,0,0,0,0,0,0,0,0,2.5,0
14055,-3.11491e-12,0,-1.52338e-06,-3.18057e-12,0,0,-1.06626e-13,0,0,0,0,0,0,0,0,0,0,0,0,0,0,0,0,0,0,0,0,0,-0.349066,3.14087,-1.5,nan,0,0,2,0,0,0,0,0,0,0,0,1.9603e-19,0,0,0,0,0,0,0,0,0,2.5,0
14072,-3.11491e-12,0,-1.52338e-06,-3.18057e-12,0,0,-1.06626e-13,0,0,0,0,0,0,0,0,0,0,0,0,0,0,0,0,0,0,0,0,0,-0.349066,3.14089,-1.5,nan,0,0,2,0,0,0,0,0,0,0,0,1.9603e-19,0,0,0,0,0,0,0,0,0,2.5,0
14087,-3.11491e-12,0,-1.52338e-06,-3.18057e-12,0,0,-1.06627e-13,0,0,0,0,0,0,0,0,0,0,0,0,0,0,0,0,0,0,0,0,0,-0.349066,3.14091,-1.5,nan,0,0,2,0,0,0,0,0,0,0,0,1.9603e-19,0,0,0,0,0,0,0,0,0,2.5,0
14103,-3.11491e-12,0,-1.52338e-06,-3.18057e-12,0,0,-1.06627e-13,0,0,0,0,0,0,0,0,0,0,0,0,0,0,0,0,0,0,0,0,0,-0.349066,3.14093,-1.5,nan,0,0,2,0,0,0,0,0,0,0,0,1.9603e-19,0,0,0,0,0,0,0,0,0,2.5,0
14120,-3.11491e-12,0,-1.52338e-06,-3.18057e-12,0,0,-1.06627e-13,0,0,0,0,0,0,0,0,0,0,0,0,0,0,0,0,0,0,0,0,0,-0.349066,3.14096,-1.5,nan,0,0,2,0,0,0,0,0,0,0,0,1.9603e-19,0,0,0,0,0,0,0,0,0,2.5,0
14136,-3.11491e-12,0,-1.52338e-06,-3.18057e-12,0,0,-1.06628e-13,0,0,0,0,0,0,0,0,0,0,0,0,0,0,0,0,0,0,0,0,0,-0.349066,3.14098,-1.5,nan,0,0,2,0,0,0,0,0,0,0,0,1.9603e-19,0,0,0,0,0,0,0,0,0,2.5,0
14151,-3.11491e-12,0,-1.52338e-06,-3.18057e-12,0,0,-1.06628e-13,0,0,0,0,0,0,0,0,0,0,0,0,0,0,0,0,0,0,0,0,0,-0.349066,3.14099,-1.5,nan,0,0,2,0,0,0,0,0,0,0,0,1.9603e-19,0,0,0,0,0,0,0,0,0,2.5,0
14167,-3.11491e-12,0,-1.52338e-06,-3.18057e-12,0,0,-1.06628e-13,0,0,0,0,0,0,0,0,0,0,0,0,0,0,0,0,0,0,0,0,0,-0.349066,3.14101,-1.5,nan,0,0,2,0,0,0,0,0,0,0,0,1.9603e-19,0,0,0,0,0,0,0,0,0,2.5,0
14183,-3.11491e-12,0,-1.52338e-06,-3.18057e-12,0,0,-1.06628e-13,0,0,0,0,0,0,0,0,0,0,0,0,0,0,0,0,0,0,0,0,0,-0.349066,3.14103,-1.5,nan,0,0,2,0,0,0,0,0,0,0,0,1.9603e-19,0,0,0,0,0,0,0,0,0,2.5,0
14200,-3.11491e-12,0,-1.52338e-06,-3.18057e-12,0,0,-1.06629e-13,0,0,0,0,0,0,0,0,0,0,0,0,0,0,0,0,0,0,0,0,0,-0.349066,3.14105,-1.5,nan,0,0,2,0,0,0,0,0,0,0,0,1.9603e-19,0,0,0,0,0,0,0,0,0,2.5,0
14215,-3.11491e-12,0,-1.52338e-06,-3.18057e-12,0,0,-1.06629e-13,0,0,0,0,0,0,0,0,0,0,0,0,0,0,0,0,0,0,0,0,0,-0.349066,3.14107,-1.5,nan,0,0,2,0,0,0,0,0,0,0,0,1.9603e-19,0,0,0,0,0,0,0,0,0,2.5,0
14232,-3.11491e-12,0,-1.52338e-06,-3.18057e-12,0,0,-1.06629e-13,0,0,0,0,0,0,0,0,0,0,0,0,0,0,0,0,0,0,0,0,0,-0.349066,3.14108,-1.5,nan,0,0,2,0,0,0,0,0,0,0,0,1.9603e-19,0,0,0,0,0,0,0,0,0,2.5,0
14248,-3.11491e-12,0,-1.52338e-06,-3.18057e-12,0,0,-1.06629e-13,0,0,0,0,0,0,0,0,0,0,0,0,0,0,0,0,0,0,0,0,0,-0.349066,3.1411,-1.5,nan,0,0,2,0,0,0,0,0,0,0,0,1.9603e-19,0,0,0,0,0,0,0,0,0,2.5,0
14262,-3.11491e-12,0,-1.52338e-06,-3.18057e-12,0,0,-1.0663e-13,0,0,0,0,0,0,0,0,0,0,0,0,0,0,0,0,0,0,0,0,0,-0.349066,3.14111,-1.5,nan,0,0,2,0,0,0,0,0,0,0,0,1.9603e-19,0,0,0,0,0,0,0,0,0,2.5,0
14276,-3.11491e-12,0,-1.52338e-06,-3.18057e-12,0,0,-1.0663e-13,0,0,0,0,0,0,0,0,0,0,0,0,0,0,0,0,0,0,0,0,0,-0.349066,3.14113,-1.5,nan,0,0,2,0,0,0,0,0,0,0,0,1.9603e-19,0,0,0,0,0,0,0,0,0,2.5,0
14290,-3.11491e-12,0,-1.52338e-06,-3.18057e-12,0,0,-1.0663e-13,0,0,0,0,0,0,0,0,0,0,0,0,0,0,0,0,0,0,0,0,0,-0.349066,3.14114,-1.5,nan,0,0,2,0,0,0,0,0,0,0,0,1.9603e-19,0,0,0,0,0,0,0,0,0,2.5,0
14306,-3.11491e-12,0,-1.52338e-06,-3.18057e-12,0,0,-1.06631e-13,0,0,0,0,0,0,0,0,0,0,0,0,0,0,0,0,0,0,0,0,0,-0.349066,3.14115,-1.5,nan,0,0,2,0,0,0,0,0,0,0,0,1.9603e-19,0,0,0,0,0,0,0,0,0,2.5,0
14321,-3.11491e-12,0,-1.52338e-06,-3.18057e-12,0,0,-1.06631e-13,0,0,0,0,0,0,0,0,0,0,0,0,0,0,0,0,0,0,0,0,0,-0.349066,3.14117,-1.5,nan,0,0,2,0,0,0,0,0,0,0,0,1.9603e-19,0,0,0,0,0,0,0,0,0,2.5,0
14337,-3.11491e-12,0,-1.52338e-06,-3.18057e-12,0,0,-1.06631e-13,0,0,0,0,0,0,0,0,0,0,0,0,0,0,0,0,0,0,0,0,0,-0.349066,3.14118,-1.5,nan,0,0,2,0,0,0,0,0,0,0,0,1.9603e-19,0,0,0,0,0,0,0,0,0,2.5,0
14353,-3.11491e-12,0,-1.52338e-06,-3.18057e-12,0,0,-1.06631e-13,0,0,0,0,0,0,0,0,0,0,0,0,0,0,0,0,0,0,0,0,0,-0.349066,3.14119,-1.5,nan,0,0,2,0,0,0,0,0,0,0,0,1.9603e-19,0,0,0,0,0,0,0,0,0,2.5,0
14370,-3.11491e-12,0,-1.52338e-06,-3.18057e-12,0,0,-1.06632e-13,0,0,0,0,0,0,0,0,0,0,0,0,0,0,0,0,0,0,0,0,0,-0.349066,3.14121,-1.5,nan,0,0,2,0,0,0,0,0,0,0,0,1.9603e-19,0,0,0,0,0,0,0,0,0,2.5,0
14386,-3.11491e-12,0,-1.52338e-06,-3.18057e-12,0,0,-1.06632e-13,0,0,0,0,0,0,0,0,0,0,0,0,0,0,0,0,0,0,0,0,0,-0.349066,3.14122,-1.5,nan,0,0,2,0,0,0,0,0,0,0,0,1.9603e-19,0,0,0,0,0,0,0,0,0,2.5,0
14402,-3.11491e-12,0,-1.52338e-06,-3.18057e-12,0,0,-1.06632e-13,0,0,0,0,0,0,0,0,0,0,0,0,0,0,0,0,0,0,0,0,0,-0.349066,3.14123,-1.5,nan,0,0,2,0,0,0,0,0,0,0,0,1.9603e-19,0,0,0,0,0,0,0,0,0,2.5,0
14419,-3.11491e-12,0,-1.52338e-06,-3.18057e-12,0,0,-1.06632e-13,0,0,0,0,0,0,0,0,0,0,0,0,0,0,0,0,0,0,0,0,0,-0.349066,3.14124,-1.5,nan,0,0,2,0,0,0,0,0,0,0,0,1.9603e-19,0,0,0,0,0,0,0,0,0,2.5,0
14434,-3.11491e-12,0,-1.52338e-06,-3.18057e-12,0,0,-1.06633e-13,0,0,0,0,0,0,0,0,0,0,0,0,0,0,0,0,0,0,0,0,0,-0.349066,3.14125,-1.5,nan,0,0,2,0,0,0,0,0,0,0,0,1.9603e-19,0,0,0,0,0,0,0,0,0,2.5,0
14450,-3.11491e-12,0,-1.52338e-06,-3.18057e-12,0,0,-1.06633e-13,0,0,0,0,0,0,0,0,0,0,0,0,0,0,0,0,0,0,0,0,0,-0.349066,3.14126,-1.5,nan,0,0,2,0,0,0,0,0,0,0,0,1.9603e-19,0,0,0,0,0,0,0,0,0,2.5,0
14466,-3.11491e-12,0,-1.52338e-06,-3.18057e-12,0,0,-1.06633e-13,0,0,0,0,0,0,0,0,0,0,0,0,0,0,0,0,0,0,0,0,0,-0.349066,3.14127,-1.5,nan,0,0,2,0,0,0,0,0,0,0,0,1.9603e-19,0,0,0,0,0,0,0,0,0,2.5,0
14482,-3.11491e-12,0,-1.52338e-06,-3.18057e-12,0,0,-1.06634e-13,0,0,0,0,0,0,0,0,0,0,0,0,0,0,0,0,0,0,0,0,0,-0.349066,3.14128,-1.5,nan,0,0,2,0,0,0,0,0,0,0,0,1.9603e-19,0,0,0,0,0,0,0,0,0,2.5,0
14499,-3.11491e-12,0,-1.52338e-06,-3.18057e-12,0,0,-1.06634e-13,0,0,0,0,0,0,0,0,0,0,0,0,0,0,0,0,0,0,0,0,0,-0.349066,3.14129,-1.5,nan,0,0,2,0,0,0,0,0,0,0,0,1.9603e-19,0,0,0,0,0,0,0,0,0,2.5,0
14514,-3.11491e-12,0,-1.52338e-06,-3.18057e-12,0,0,-1.06634e-13,0,0,0,0,0,0,0,0,0,0,0,0,0,0,0,0,0,0,0,0,0,-0.349066,3.1413,-1.5,nan,0,0,2,0,0,0,0,0,0,0,0,1.9603e-19,0,0,0,0,0,0,0,0,0,2.5,0
14531,-3.11491e-12,0,-1.52338e-06,-3.18057e-12,0,0,-1.06634e-13,0,0,0,0,0,0,0,0,0,0,0,0,0,0,0,0,0,0,0,0,0,-0.349066,3.14131,-1.5,nan,0,0,2,0,0,0,0,0,0,0,0,1.9603e-19,0,0,0,0,0,0,0,0,0,2.5,0
14547,-3.11491e-12,0,-1.52338e-06,-3.18057e-12,0,0,-1.06635e-13,0,0,0,0,0,0,0,0,0,0,0,0,0,0,0,0,0,0,0,0,0,-0.349066,3.14132,-1.5,nan,0,0,2,0,0,0,0,0,0,0,0,1.9603e-19,0,0,0,0,0,0,0,0,0,2.5,0
14563,-3.11491e-12,0,-1.52338e-06,-3.18057e-12,0,0,-1.06635e-13,0,0,0,0,0,0,0,0,0,0,0,0,0,0,0,0,0,0,0,0,0,-0.349066,3.14133,-1.5,nan,0,0,2,0,0,0,0,0,0,0,0,1.9603e-19,0,0,0,0,0,0,0,0,0,2.5,0
14581,-3.11491e-12,0,-1.52338e-06,-3.18057e-12,0,0,-1.06635e-13,0,0,0,0,0,0,0,0,0,0,0,0,0,0,0,0,0,0,0,0,0,-0.349066,3.14134,-1.5,nan,0,0,2,0,0,0,0,0,0,0,0,1.9603e-19,0,0,0,0,0,0,0,0,0,2.5,0
14596,-3.11491e-12,0,-1.52338e-06,-3.18057e-12,0,0,-1.06635e-13,0,0,0,0,0,0,0,0,0,0,0,0,0,0,0,0,0,0,0,0,0,-0.349066,3.14135,-1.5,nan,0,0,2,0,0,0,0,0,0,0,0,1.9603e-19,0,0,0,0,0,0,0,0,0,2.5,0
14609,-3.11491e-12,0,-1.52338e-06,-3.18057e-12,0,0,-1.06636e-13,0,0,0,0,0,0,0,0,0,0,0,0,0,0,0,0,0,0,0,0,0,-0.349066,3.14135,-1.5,nan,0,0,2,0,0,0,0,0,0,0,0,1.9603e-19,0,0,0,0,0,0,0,0,0,2.5,0
14623,-3.11491e-12,0,-1.52338e-06,-3.18057e-12,0,0,-1.06636e-13,0,0,0,0,0,0,0,0,0,0,0,0,0,0,0,0,0,0,0,0,0,-0.349066,3.14136,-1.5,nan,0,0,2,0,0,0,0,0,0,0,0,1.9603e-19,0,0,0,0,0,0,0,0,0,2.5,0
14639,-3.11491e-12,0,-1.52338e-06,-3.18057e-12,0,0,-1.06636e-13,0,0,0,0,0,0,0,0,0,0,0,0,0,0,0,0,0,0,0,0,0,-0.349066,3.14137,-1.5,nan,0,0,2,0,0,0,0,0,0,0,0,1.9603e-19,0,0,0,0,0,0,0,0,0,2.5,0
14655,-3.11491e-12,0,-1.52338e-06,-3.18057e-12,0,0,-1.06636e-13,0,0,0,0,0,0,0,0,0,0,0,0,0,0,0,0,0,0,0,0,0,-0.349066,3.14137,-1.5,nan,0,0,2,0,0,0,0,0,0,0,0,1.9603e-19,0,0,0,0,0,0,0,0,0,2.5,0
14672,-3.11491e-12,0,-1.52338e-06,-3.18057e-12,0,0,-1.06637e-13,0,0,0,0,0,0,0,0,0,0,0,0,0,0,0,0,0,0,0,0,0,-0.349066,3.14138,-1.5,nan,0,0,2,0,0,0,0,0,0,0,0,1.9603e-19,0,0,0,0,0,0,0,0,0,2.5,0
14688,-3.11491e-12,0,-1.52338e-06,-3.18057e-12,0,0,-1.06637e-13,0,0,0,0,0,0,0,0,0,0,0,0,0,0,0,0,0,0,0,0,0,-0.349066,3.14139,-1.5,nan,0,0,2,0,0,0,0,0,0,0,0,1.9603e-19,0,0,0,0,0,0,0,0,0,2.5,0
14703,-3.11491e-12,0,-1.52338e-06,-3.18057e-12,0,0,-1.06637e-13,0,0,0,0,0,0,0,0,0,0,0,0,0,0,0,0,0,0,0,0,0,-0.349066,3.14139,-1.5,nan,0,0,2,0,0,0,0,0,0,0,0,1.9603e-19,0,0,0,0,0,0,0,0,0,2.5,0
14719,-3.11491e-12,0,-1.52338e-06,-3.18057e-12,0,0,-1.06638e-13,0,0,0,0,0,0,0,0,0,0,0,0,0,0,0,0,0,0,0,0,0,-0.349066,3.1414,-1.5,nan,0,0,2,0,0,0,0,0,0,0,0,1.9603e-19,0,0,0,0,0,0,0,0,0,2.5,0
14735,-3.11491e-12,0,-1.52338e-06,-3.18057e-12,0,0,-1.06638e-13,0,0,0,0,0,0,0,0,0,0,0,0,0,0,0,0,0,0,0,0,0,-0.349066,3.14141,-1.5,nan,0,0,2,0,0,0,0,0,0,0,0,1.9603e-19,0,0,0,0,0,0,0,0,0,2.5,0
14751,-3.11491e-12,0,-1.52338e-06,-3.18057e-12,0,0,-1.06638e-13,0,0,0,0,0,0,0,0,0,0,0,0,0,0,0,0,0,0,0,0,0,-0.349066,3.14141,-1.5,nan,0,0,2,0,0,0,0,0,0,0,0,1.9603e-19,0,0,0,0,0,0,0,0,0,2.5,0
14767,-3.11491e-12,0,-1.52338e-06,-3.18057e-12,0,0,-1.06638e-13,0,0,0,0,0,0,0,0,0,0,0,0,0,0,0,0,0,0,0,0,0,-0.349066,3.14142,-1.5,nan,0,0,2,0,0,0,0,0,0,0,0,1.9603e-19,0,0,0,0,0,0,0,0,0,2.5,0
14783,-3.11491e-12,0,-1.52338e-06,-3.18057e-12,0,0,-1.06639e-13,0,0,0,0,0,0,0,0,0,0,0,0,0,0,0,0,0,0,0,0,0,-0.349066,3.14142,-1.5,nan,0,0,2,0,0,0,0,0,0,0,0,1.9603e-19,0,0,0,0,0,0,0,0,0,2.5,0
14800,-3.11491e-12,0,-1.52338e-06,-3.18057e-12,0,0,-1.06639e-13,0,0,0,0,0,0,0,0,0,0,0,0,0,0,0,0,0,0,0,0,0,-0.349066,3.14143,-1.5,nan,0,0,2,0,0,0,0,0,0,0,0,1.9603e-19,0,0,0,0,0,0,0,0,0,2.5,0
14815,-3.11491e-12,0,-1.52338e-06,-3.18057e-12,0,0,-1.06639e-13,0,0,0,0,0,0,0,0,0,0,0,0,0,0,0,0,0,0,0,0,0,-0.349066,3.14143,-1.5,nan,0,0,2,0,0,0,0,0,0,0,0,1.9603e-19,0,0,0,0,0,0,0,0,0,2.5,0
14832,-3.11491e-12,0,-1.52338e-06,-3.18057e-12,0,0,-1.06639e-13,0,0,0,0,0,0,0,0,0,0,0,0,0,0,0,0,0,0,0,0,0,-0.349066,3.14144,-1.5,nan,0,0,2,0,0,0,0,0,0,0,0,1.9603e-19,0,0,0,0,0,0,0,0,0,2.5,0
14848,-3.11491e-12,0,-1.52338e-06,-3.18057e-12,0,0,-1.0664e-13,0,0,0,0,0,0,0,0,0,0,0,0,0,0,0,0,0,0,0,0,0,-0.349066,3.14144,-1.5,nan,0,0,2,0,0,0,0,0,0,0,0,1.9603e-19,0,0,0,0,0,0,0,0,0,2.5,0
14864,-3.11491e-12,0,-1.52338e-06,-3.18057e-12,0,0,-1.0664e-13,0,0,0,0,0,0,0,0,0,0,0,0,0,0,0,0,0,0,0,0,0,-0.349066,3.14145,-1.5,nan,0,0,2,0,0,0,0,0,0,0,0,1.9603e-19,0,0,0,0,0,0,0,0,0,2.5,0
14880,-3.11491e-12,0,-1.52338e-06,-3.18057e-12,0,0,-1.0664e-13,0,0,0,0,0,0,0,0,0,0,0,0,0,0,0,0,0,0,0,0,0,-0.349066,3.14145,-1.5,nan,0,0,2,0,0,0,0,0,0,0,0,1.9603e-19,0,0,0,0,0,0,0,0,0,2.5,0
14895,-3.11491e-12,0,-1.52338e-06,-3.18057e-12,0,0,-1.06641e-13,0,0,0,0,0,0,0,0,0,0,0,0,0,0,0,0,0,0,0,0,0,-0.349066,3.14146,-1.5,nan,0,0,2,0,0,0,0,0,0,0,0,1.9603e-19,0,0,0,0,0,0,0,0,0,2.5,0
14911,-3.11491e-12,0,-1.52338e-06,-3.18057e-12,0,0,-1.06641e-13,0,0,0,0,0,0,0,0,0,0,0,0,0,0,0,0,0,0,0,0,0,-0.349066,3.14146,-1.5,nan,0,0,2,0,0,0,0,0,0,0,0,1.9603e-19,0,0,0,0,0,0,0,0,0,2.5,0
14927,-3.11491e-12,0,-1.52338e-06,-3.18057e-12,0,0,-1.06641e-13,0,0,0,0,0,0,0,0,0,0,0,0,0,0,0,0,0,0,0,0,0,-0.349066,3.14146,-1.5,nan,0,0,2,0,0,0,0,0,0,0,0,1.9603e-19,0,0,0,0,0,0,0,0,0,2.5,0
14940,-3.11491e-12,0,-1.52338e-06,-3.18057e-12,0,0,-1.06641e-13,0,0,0,0,0,0,0,0,0,0,0,0,0,0,0,0,0,0,0,0,0,-0.349066,3.14147,-1.5,nan,0,0,2,0,0,0,0,0,0,0,0,1.9603e-19,0,0,0,0,0,0,0,0,0,2.5,0
14954,-3.11491e-12,0,-1.52338e-06,-3.18057e-12,0,0,-1.06642e-13,0,0,0,0,0,0,0,0,0,0,0,0,0,0,0,0,0,0,0,0,0,-0.349066,3.14147,-1.5,nan,0,0,2,0,0,0,0,0,0,0,0,1.9603e-19,0,0,0,0,0,0,0,0,0,2.5,0
14969,-3.11491e-12,0,-1.52338e-06,-3.18057e-12,0,0,-1.06642e-13,0,0,0,0,0,0,0,0,0,0,0,0,0,0,0,0,0,0,0,0,0,-0.349066,3.14147,-1.5,nan,0,0,2,0,0,0,0,0,0,0,0,1.9603e-19,0,0,0,0,0,0,0,0,0,2.5,0
14984,-3.11491e-12,0,-1.52338e-06,-3.18057e-12,0,0,-1.06642e-13,0,0,0,0,0,0,0,0,0,0,0,0,0,0,0,0,0,0,0,0,0,-0.349066,3.14148,-1.5,nan,0,0,2,0,0,0,0,0,0,0,0,1.9603e-19,0,0,0,0,0,0,0,0,0,2.5,0
15000,-3.11491e-12,0,-1.52338e-06,-3.18057e-12,0,0,-1.06642e-13,0,0,0,0,0,0,0,0,0,0,0,0,0,0,0,0,0,0,0,0,0,-0.349066,3.14148,-1.5,nan,0,0,2,0,0,0,0,0,0,0,0,1.9603e-19,0,0,0,0,0,0,0,0,0,2.5,0
15015,-3.11491e-12,0,-1.52338e-06,-3.18057e-12,0,0,-1.06643e-13,0,0,0,0,0,0,0,0,0,0,0,0,0,0,0,0,0,0,0,0,0,-0.349066,3.14148,-1.5,nan,0,0,2,0,0,0,0,0,0,0,0,1.9603e-19,0,0,0,0,0,0,0,0,0,2.5,0
15042,-3.11491e-12,0,-1.52338e-06,-3.18057e-12,0,0,-1.06643e-13,0,0,0,0,0,0,0,0,0,0,0,0,0,0,0,0,0,0,0,0,0,-0.349066,3.14149,-1.5,nan,0,0,2,0,0,0,0,0,0,0,0,1.9603e-19,0,0,0,0,0,0,0,0,0,2.5,0
15067,-3.11491e-12,0,-1.52338e-06,-3.18057e-12,0,0,-1.06643e-13,0,0,0,0,0,0,0,0,0,0,0,0,-1368079552,-1368079552,-1368079552,-1368079552,-1368079512,138220651,-1068901261,-1368079512,0,-0.349066,3.1415,-1.5,nan,0,0,2,0,0,0,0,0,0,0,0,0,0,0,0,0,0,0,0,0,0,2.5,0
15082,-3.11491e-12,0,-1.52338e-06,-3.18057e-12,0,0,-1.06644e-13,0,0,-3.57259,0.900232,0.491549,0,0,0,0,0,0,0,148,-64,148,-64,270,-79,168,69,0,-0.349066,3.1415,-1.5,nan,0,0,2,0,0,0,0,0,0,0,0,19980,0,0,0,0,0,0,0,0,0,2.5,0
15098,-3.11491e-12,0,-1.52338e-06,-3.18057e-12,0,0,-1.06644e-13,0,0,-3.57259,0.900232,0.491549,0,0,0,0,0,0,0,148,-64,148,-64,270,-79,168,69,0,-0.349066,3.1415,-1.5,nan,0,0,2,0,0,0,0,0,0,0,0,19980,0,0,0,0,0,0,0,0,0,2.5,0
15114,-3.11491e-12,0,-1.52338e-06,-3.18057e-12,0,0,-1.06644e-13,0,0,-3.61291,0.973594,0.422119,0,0,0,0,0,0,0,142,-51,142,-51,264,-67,158,75,0,-0.349066,3.1415,-1.5,nan,0,0,2,0,0,0,0,0,0,0,0,19028,0,0,0,0,0,0,0,0,0,2.5,0
15130,-3.11491e-12,0,-1.52338e-06,-3.18057e-12,0,0,-1.06644e-13,0,0,-3.59292,0.987345,0.307786,0,0,0,0,0,0,0,137,-36,137,-36,262,-57,156,81,0,-0.349066,3.14151,-1.5,nan,0,0,2,0,0,0,0,0,0,0,0,19182,0,0,0,0,0,0,0,0,0,2.5,0
15146,-3.11491e-12,0,-1.52338e-06,-3.18057e-12,0,0,-1.06645e-13,0,0,-3.59292,0.987345,0.307786,0,0,0,0,0,0,0,137,-36,137,-36,262,-57,156,81,0,-0.349066,3.14151,-1.5,nan,0,0,2,0,0,0,0,0,0,0,0,19182,0,0,0,0,0,0,0,0,0,2.5,0
15162,-3.11491e-12,0,-1.52338e-06,-3.18057e-12,0,0,-1.06645e-13,0,0,-3.59292,0.987345,0.307786,0,0,0,0,0,0,0,137,-36,137,-36,262,-57,156,81,0,-0.349066,3.14151,-1.5,nan,0,0,2,0,0,0,0,0,0,0,0,19182,0,0,0,0,0,0,0,0,0,2.5,0
15177,-3.11491e-12,0,-1.52338e-06,-3.18057e-12,0,0,-1.06645e-13,0,0,-3.66122,0.927803,0.191518,0,0,0,0,0,0,0,152,-31,152,-31,268,-29,162,103,0,-0.349066,3.14151,-1.5,nan,0,0,2,0,0,0,0,0,0,0,0,17554,0,0,0,0,0,0,0,0,0,2.5,0
15193,-3.11491e-12,0,-1.52338e-06,-3.18057e-12,0,0,-1.06645e-13,0,0,-3.66122,0.927803,0.191518,0,0,0,0,0,0,0,152,-31,152,-31,268,-29,162,103,0,-0.349066,3.14152,-1.5,nan,0,0,2,0,0,0,0,0,0,0,0,17554,0,0,0,0,0,0,0,0,0,2.5,0
15208,-3.11491e-12,0,-1.52338e-06,-3.18057e-12,0,0,-1.06646e-13,0,0,-3.76352,0.874298,0.100218,0,0,0,0,0,0,0,156,-13,156,-13,278,-12,177,111,0,-0.349066,3.14152,-1.5,nan,0,0,2,0,0,0,0,0,0,0,0,16368,0,0,0,0,0,0,0,0,0,2.5,0
15224,-3.11491e-12,0,-1.52338e-06,-3.18057e-12,0,0,-1.06646e-13,0,0,-3.76352,0.874298,0.100218,0,0,0,0,0,0,0,156,-13,156,-13,278,-12,177,111,0,-0.349066,3.14152,-1.5,nan,0,0,2,0,0,0,0,0,0,0,0,16368,0,0,0,0,0,0,0,0,0,2.5,0
15240,-3.11491e-12,0,-1.52338e-06,-3.18057e-12,0,0,-1.06646e-13,0,0,-3.76352,0.874298,0.100218,0,0,0,0,0,0,0,156,-13,156,-13,278,-12,177,111,0,-0.349066,3.14152,-1.5,nan,0,0,2,0,0,0,0,0,0,0,0,16368,0,0,0,0,0,0,0,0,0,2.5,0
15256,-3.11491e-12,0,-1.52338e-06,-3.18057e-12,0,0,-1.06647e-13,0,0,-3.76352,0.874298,0.100218,0,0,0,0,0,0,0,156,-13,156,-13,278,-12,177,111,0,-0.349066,3.14152,-1.5,nan,0,0,2,0,0,0,0,0,0,0,0,16368,0,0,0,0,0,0,0,0,0,2.5,0
15270,-3.11491e-12,0,-1.52338e-06,-3.18057e-12,0,0,-1.06647e-13,0,0,-3.76352,0.874298,0.100218,0,0,0,0,0,0,0,156,-13,156,-13,278,-12,177,111,0,-0.349066,3.14153,-1.5,nan,0,0,2,0,0,0,0,0,0,0,0,16368,0,0,0,0,0,0,0,0,0,2.5,0
15283,-3.11491e-12,0,-1.52338e-06,-3.18057e-12,0,0,-1.06647e-13,0,0,-3.76352,0.874298,0.100218,0,0,0,0,0,0,0,156,-13,156,-13,278,-12,177,111,0,-0.349066,3.14153,-1.5,nan,0,0,2,0,0,0,0,0,0,0,0,16368,0,0,0,0,0,0,0,0,0,2.5,0
15299,-3.11491e-12,0,-1.52338e-06,-3.18057e-12,0,0,-1.06647e-13,0,0,-3.7752,0.545477,0.1059,0,0,0,0,0,0,0,200,-6,200,-6,314,-15,204,113,0,-0.349066,3.14153,-1.5,nan,0,0,2,0,0,0,0,0,0,0,0,16128,0,0,0,0,0,0,0,0,0,2.5,0
15314,-3.11491e-12,0,-1.52338e-06,-3.18057e-12,0,0,-1.06648e-13,0,0,-3.7752,0.545477,0.1059,0,0,0,0,0,0,0,200,-6,200,-6,314,-15,204,113,0,-0.349066,3.14153,-1.5,nan,0,0,2,0,0,0,0,0,0,0,0,16128,0,0,0,0,0,0,0,0,0,2.5,0
15330,-3.11491e-12,0,-1.52338e-06,-3.18057e-12,0,0,-1.06648e-13,0,0,-3.7752,0.545477,0.1059,0,0,0,0,0,0,0,200,-6,200,-6,314,-15,204,113,0,-0.349066,3.14153,-1.5,nan,0,0,2,0,0,0,0,0,0,0,0,16128,0,0,0,0,0,0,0,0,0,2.5,0
15346,-3.11491e-12,0,-1.52338e-06,-3.18057e-12,0,0,-1.06648e-13,0,0,-3.75262,0.435543,0.173611,0,0,0,0,0,0,0,211,-12,211,-12,326,-25,215,105,0,-0.349066,3.14153,-1.5,nan,0,0,2,0,0,0,0,0,0,0,0,16640,0,0,0,0,0,0,0,0,0,2.5,0
15362,-3.11491e-12,0,-1.52338e-06,-3.18057e-12,0,0,-1.06648e-13,0,0,-3.75262,0.435543,0.173611,0,0,0,0,0,0,0,211,-12,211,-12,326,-25,215,105,0,-0.349066,3.14154,-1.5,nan,0,0,2,0,0,0,0,0,0,0,0,16640,0,0,0,0,0,0,0,0,0,2.5,0
15377,-3.11491e-12,0,-1.52338e-06,-3.18057e-12,0,0,-1.06649e-13,0,0,-3.75867,0.326722,0.252158,0,0,0,0,0,0,0,222,-19,222,-19,339,-34,228,97,0,-0.349066,3.14154,-1.5,nan,0,0,2,0,0,0,0,0,0,0,0,16768,0,0,0,0,0,0,0,0,0,2.5,0
15393,-3.11491e-12,0,-1.52338e-06,-3.18057e-12,0,0,-1.06649e-13,0,0,-3.75867,0.326722,0.252158,0,0,0,0,0,0,0,222,-19,222,-19,339,-34,228,97,0,-0.349066,3.14154,-1.5,nan,0,0,2,0,0,0,0,0,0,0,0,16768,0,0,0,0,0,0,0,0,0,2.5,0
15408,-3.11491e-12,0,-1.52338e-06,-3.18057e-12,0,0,-1.06649e-13,0,0,-3.71957,0.200226,0.337411,0,0,0,0,0,0,0,237,-31,237,-31,352,-51,244,92,0,-0.349066,3.14154,-1.5,nan,0,0,2,0,0,0,0,0,0,0,0,17732,0,0,0,0,0,0,0,0,0,2.5,0
15424,-3.11491e-12,0,-1.52338e-06,-3.18057e-12,0,0,-1.06649e-13,0,0,-3.71957,0.200226,0.337411,0,0,0,0,0,0,0,237,-31,237,-31,352,-51,244,92,0,-0.349066,3.14154,-1.5,nan,0,0,2,0,0,0,0,0,0,0,0,17732,0,0,0,0,0,0,0,0,0,2.5,0
15439,-3.11491e-12,0,-1.52338e-06,-3.18057e-12,0,0,-1.0665e-13,0,0,-3.62544,0.140894,0.491482,0,0,0,0,0,0,0,243,-54,243,-54,365,-75,243,62,0,-0.349066,3.14154,-1.5,nan,0,0,2,0,0,0,0,0,0,0,0,16988,0,0,0,0,0,0,0,0,0,2.5,0
15455,-3.11491e-12,0,-1.52338e-06,-3.18057e-12,0,0,-1.0665e-13,0,0,-3.62544,0.140894,0.491482,0,0,0,0,0,0,0,243,-54,243,-54,365,-75,243,62,0,-0.349066,3.14155,-1.5,nan,0,0,2,0,0,0,0,0,0,0,0,16988,0,0,0,0,0,0,0,0,0,2.5,0
15471,-3.11491e-12,0,-1.52338e-06,-3.18057e-12,0,0,-1.0665e-13,0,0,-3.61815,0.118332,0.548298,0,0,0,0,0,0,0,246,-70,246,-70,368,-77,246,56,0,-0.349066,3.14155,-1.5,nan,0,0,2,0,0,0,0,0,0,0,0,16226,0,0,0,0,0,0,0,0,0,2.5,0
15486,-3.11491e-12,0,-1.52338e-06,-3.18057e-12,0,0,-1.06651e-13,0,0,-3.61815,0.118332,0.548298,0,0,0,0,0,0,0,246,-70,246,-70,368,-77,246,56,0,-0.349066,3.14155,-1.5,nan,0,0,2,0,0,0,0,0,0,0,0,16226,0,0,0,0,0,0,0,0,0,2.5,0
15503,-3.11491e-12,0,-1.52338e-06,-3.18057e-12,0,0,-1.06651e-13,0,0,-3.59834,0.157036,0.405109,0,0,0,0,0,0,0,240,-56,240,-56,365,-60,241,72,0,-0.349066,3.14155,-1.5,nan,0,0,2,0,0,0,0,0,0,0,0,16500,0,0,0,0,0,0,0,0,0,2.5,0
15519,-3.11491e-12,0,-1.52338e-06,-3.18057e-12,0,0,-1.06651e-13,0,0,-3.59834,0.157036,0.405109,0,0,0,0,0,0,0,240,-56,240,-56,365,-60,241,72,0,-0.349066,3.14155,-1.5,nan,0,0,2,0,0,0,0,0,0,0,0,16500,0,0,0,0,0,0,0,0,0,2.5,0
15535,-3.11491e-12,0,-1.52338e-06,-3.18057e-12,0,0,-1.06651e-13,0,0,-3.61545,0.207808,0.408104,0,0,0,0,0,0,0,235,-57,235,-57,356,-58,236,72,0,-0.349066,3.14155,-1.5,nan,0,0,2,0,0,0,0,0,0,0,0,16120,0,0,0,0,0,0,0,0,0,2.5,0
15548,-3.11491e-12,0,-1.52338e-06,-3.18057e-12,0,0,-1.06652e-13,0,0,-3.61545,0.207808,0.408104,0,0,0,0,0,0,0,235,-57,235,-57,356,-58,236,72,0,-0.349066,3.14156,-1.5,nan,0,0,2,0,0,0,0,0,0,0,0,16120,0,0,0,0,0,0,0,0,0,2.5,0
15561,-3.11491e-12,0,-1.52338e-06,-3.18057e-12,0,0,-1.06652e-13,0,0,-3.61545,0.207808,0.408104,0,0,0,0,0,0,0,235,-57,235,-57,356,-58,236,72,0,-0.349066,3.14156,-1.5,nan,0,0,2,0,0,0,0,0,0,0,0,16120,0,0,0,0,0,0,0,0,0,2.5,0
15577,-3.11491e-12,0,-1.52338e-06,-3.18057e-12,0,0,-1.06652e-13,0,0,-3.55696,0.218426,0.396885,0,0,0,0,0,0,0,229,-57,229,-57,352,-63,236,70,0,-0.349066,3.14156,-1.5,nan,0,0,2,0,0,0,0,0,0,0,0,17822,0,0,0,0,0,0,0,0,0,2.5,0
15593,-3.11491e-12,0,-1.52338e-06,-3.18057e-12,0,0,-1.06652e-13,0,0,-3.55696,0.218426,0.396885,0,0,0,0,0,0,0,229,-57,229,-57,352,-63,236,70,0,-0.349066,3.14156,-1.5,nan,0,0,2,0,0,0,0,0,0,0,0,17822,0,0,0,0,0,0,0,0,0,2.5,0
15610,-3.11491e-12,0,-1.52338e-06,-3.18057e-12,0,0,-1.06653e-13,0,0,-3.59584,0.211477,0.447011,0,0,0,0,0,0,0,234,-63,234,-63,356,-65,236,68,0,-0.349066,3.14156,-1.5,nan,0,0,2,0,0,0,0,0,0,0,0,16492,0,0,0,0,0,0,0,0,0,2.5,0
15625,-3.11491e-12,0,-1.52338e-06,-3.18057e-12,0,0,-1.06653e-13,0,0,-3.59584,0.211477,0.447011,0,0,0,0,0,0,0,234,-63,234,-63,356,-65,236,68,0,-0.349066,3.14156,-1.5,nan,0,0,2,0,0,0,0,0,0,0,0,16492,0,0,0,0,0,0,0,0,0,2.5,0
15641,-3.11491e-12,0,-1.52338e-06,-3.18057e-12,0,0,-1.06653e-13,0,0,-3.52296,0.209461,0.416547,0,0,0,0,0,0,0,231,-64,231,-64,356,-65,233,67,0,-0.349066,3.14156,-1.5,nan,0,0,2,0,0,0,0,0,0,0,0,17424,0,0,0,0,0,0,0,0,0,2.5,0
15656,-3.11491e-12,0,-1.52338e-06,-3.18057e-12,0,0,-1.06654e-13,0,0,-3.52296,0.209461,0.416547,0,0,0,0,0,0,0,231,-64,231,-64,356,-65,233,67,0,-0.349066,3.14156,-1.5,nan,0,0,2,0,0,0,0,0,0,0,0,17424,0,0,0,0,0,0,0,0,0,2.5,0
15672,-3.11491e-12,0,-1.52338e-06,-3.18057e-12,0,0,-1.06654e-13,0,0,-3.53143,0.26059,0.439798,0,0,0,0,0,0,0,226,-64,226,-64,351,-72,229,66,0,-0.349066,3.14156,-1.5,nan,0,0,2,0,0,0,0,0,0,0,0,17664,0,0,0,0,0,0,0,0,0,2.5,0
15687,-3.11491e-12,0,-1.52338e-06,-3.18057e-12,0,0,-1.06654e-13,0,0,-3.53143,0.26059,0.439798,0,0,0,0,0,0,0,226,-64,226,-64,351,-72,229,66,0,-0.349066,3.14156,-1.5,nan,0,0,2,0,0,0,0,0,0,0,0,17664,0,0,0,0,0,0,0,0,0,2.5,0
15703,-3.11491e-12,0,-1.52338e-06,-3.18057e-12,0,0,-1.06654e-13,0,0,-3.57585,0.295532,0.433781,0,0,0,0,0,0,0,223,-61,223,-61,348,-65,225,67,0,-0.349066,3.14156,-1.5,nan,0,0,2,0,0,0,0,0,0,0,0,16632,0,0,0,0,0,0,0,0,0,2.5,0
15720,-3.11491e-12,0,-1.52338e-06,-3.18057e-12,0,0,-1.06655e-13,0,0,-3.57585,0.295532,0.433781,0,0,0,0,0,0,0,223,-61,223,-61,348,-65,225,67,0,-0.349066,3.14156,-1.5,nan,0,0,2,0,0,0,0,0,0,0,0,16632,0,0,0,0,0,0,0,0,0,2.5,0
15736,-3.11491e-12,0,-1.52338e-06,-3.18057e-12,0,0,-1.06655e-13,0,0,-3.59391,0.334051,0.460324,0,0,0,0,0,0,0,217,-65,217,-65,342,-68,226,66,0,-0.349066,3.14157,-1.5,nan,0,0,2,0,0,0,0,0,0,0,0,16884,0,0,0,0,0,0,0,0,0,2.5,0
15751,-3.11491e-12,0,-1.52338e-06,-3.18057e-12,0,0,-1.06655e-13,0,0,-3.59391,0.334051,0.460324,0,0,0,0,0,0,0,217,-65,217,-65,342,-68,226,66,0,-0.349066,3.14157,-1.5,nan,0,0,2,0,0,0,0,0,0,0,0,16884,0,0,0,0,0,0,0,0,0,2.5,0
15767,-3.11491e-12,0,-1.52338e-06,-3.18057e-12,0,0,-1.06655e-13,0,0,-3.59391,0.334051,0.460324,0,0,0,0,0,0,0,217,-65,217,-65,342,-68,226,66,0,-0.349066,3.14157,-1.5,nan,0,0,2,0,0,0,0,0,0,0,0,16884,0,0,0,0,0,0,0,0,0,2.5,0
15781,-3.11491e-12,0,-1.52338e-06,-3.18057e-12,0,0,-1.06656e-13,0,0,-3.59391,0.334051,0.460324,0,0,0,0,0,0,0,217,-65,217,-65,342,-68,226,66,0,-0.349066,3.14157,-1.5,nan,0,0,2,0,0,0,0,0,0,0,0,16884,0,0,0,0,0,0,0,0,0,2.5,0
15798,-3.11491e-12,0,-1.52338e-06,-3.18057e-12,0,0,-1.06656e-13,0,0,-3.56045,0.415222,0.417888,0,0,0,0,0,0,0,208,-62,208,-62,334,-64,212,67,0,-0.349066,3.14157,-1.5,nan,0,0,2,0,0,0,0,0,0,0,0,16637,0,0,0,0,0,0,0,0,0,2.5,0
15813,-3.11491e-12,0,-1.52338e-06,-3.18057e-12,0,0,-1.06656e-13,0,0,-3.56045,0.415222,0.417888,0,0,0,0,0,0,0,208,-62,208,-62,334,-64,212,67,0,-0.349066,3.14157,-1.5,nan,0,0,2,0,0,0,0,0,0,0,0,16637,0,0,0,0,0,0,0,0,0,2.5,0
15832,-3.11491e-12,0,-1.52338e-06,-3.18057e-12,0,0,-1.06657e-13,0,0,-3.55177,0.431857,0.404492,0,0,0,0,0,0,0,205,-62,205,-62,331,-61,210,71,0,-0.349066,3.14157,-1.5,nan,0,0,2,0,0,0,0,0,0,0,0,17290,0,0,0,0,0,0,0,0,0,2.5,0
15846,-3.11491e-12,0,-1.52338e-06,-3.18057e-12,0,0,-1.06657e-13,0,0,-3.55177,0.431857,0.404492,0,0,0,0,0,0,0,205,-62,205,-62,331,-61,210,71,0,-0.349066,3.14157,-1.5,nan,0,0,2,0,0,0,0,0,0,0,0,17290,0,0,0,0,0,0,0,0,0,2.5,0
15859,-3.11491e-12,0,-1.52338e-06,-3.18057e-12,0,0,-1.06657e-13,0,0,-3.55177,0.431857,0.404492,0,0,0,0,0,0,0,205,-62,205,-62,331,-61,210,71,0,-0.349066,3.14157,-1.5,nan,0,0,2,0,0,0,0,0,0,0,0,17290,0,0,0,0,0,0,0,0,0,2.5,0
15874,-3.11491e-12,0,-1.52338e-06,-3.18057e-12,0,0,-1.06657e-13,0,0,-3.55144,0.448228,0.397159,0,0,0,0,0,0,0,206,-58,206,-58,327,-66,208,72,0,-0.349066,3.14157,-1.5,nan,0,0,2,0,0,0,0,0,0,0,0,17526,0,0,0,0,0,0,0,0,0,2.5,0
15890,-3.11491e-12,0,-1.52338e-06,-3.18057e-12,0,0,-1.06658e-13,0,0,-3.55144,0.448228,0.397159,0,0,0,0,0,0,0,206,-58,206,-58,327,-66,208,72,0,-0.349066,3.14157,-1.5,nan,0,0,2,0,0,0,0,0,0,0,0,17526,0,0,0,0,0,0,0,0,0,2.5,0
15905,-3.11491e-12,0,-1.52338e-06,-3.18057e-12,0,0,-1.06658e-13,0,0,-3.53393,0.438457,0.381318,0,0,0,0,0,0,0,205,-60,205,-60,327,-61,208,72,0,-0.349066,3.14157,-1.5,nan,0,0,2,0,0,0,0,0,0,0,0,17556,0,0,0,0,0,0,0,0,0,2.5,0
15920,-3.11491e-12,0,-1.52338e-06,-3.18057e-12,0,0,-1.06658e-13,0,0,-3.53393,0.438457,0.381318,0,0,0,0,0,0,0,205,-60,205,-60,327,-61,208,72,0,-0.349066,3.14157,-1.5,nan,0,0,2,0,0,0,0,0,0,0,0,17556,0,0,0,0,0,0,0,0,0,2.5,0
15937,-3.11491e-12,0,-1.52338e-06,-3.18057e-12,0,0,-1.06658e-13,0,0,-3.55685,0.466674,0.407115,0,0,0,0,0,0,0,199,-62,199,-62,327,-61,208,69,0,-0.349066,3.14157,-1.5,nan,0,0,2,0,0,0,0,0,0,0,0,17292,0,0,0,0,0,0,0,0,0,2.5,0
15952,-3.11491e-12,0,-1.52338e-06,-3.18057e-12,0,0,-1.06659e-13,0,0,-3.55685,0.466674,0.407115,0,0,0,0,0,0,0,199,-62,199,-62,327,-61,208,69,0,-0.349066,3.14157,-1.5,nan,0,0,2,0,0,0,0,0,0,0,0,17292,0,0,0,0,0,0,0,0,0,2.5,0
15967,-3.11491e-12,0,-1.52338e-06,-3.18057e-12,0,0,-1.06659e-13,0,0,-3.49161,0.447379,0.367899,0,0,0,0,0,0,0,199,-62,199,-62,327,-61,207,69,0,-0.349066,3.14157,-1.5,nan,0,0,2,0,0,0,0,0,0,0,0,18078,0,0,0,0,0,0,0,0,0,2.5,0
15982,-3.11491e-12,0,-1.52338e-06,-3.18057e-12,0,0,-1.06659e-13,0,0,-3.49161,0.447379,0.367899,0,0,0,0,0,0,0,199,-62,199,-62,327,-61,207,69,0,-0.349066,3.14157,-1.5,nan,0,0,2,0,0,0,0,0,0,0,0,18078,0,0,0,0,0,0,0,0,0,2.5,0
15998,-3.11491e-12,0,-1.52338e-06,-3.18057e-12,0,0,-1.0666e-13,0,0,-3.47859,0.441429,0.360499,0,0,0,0,0,0,0,199,-62,199,-62,329,-61,207,69,0,-0.349066,3.14157,-1.5,nan,0,0,2,0,0,0,0,0,0,0,0,18078,0,0,0,0,0,0,0,0,0,2.5,0
16013,-3.11491e-12,0,-1.52338e-06,-3.18057e-12,0,0,-1.0666e-13,0,0,-3.47859,0.441429,0.360499,0,0,0,0,0,0,0,199,-62,199,-62,329,-61,207,69,0,-0.349066,3.14157,-1.5,nan,0,0,2,0,0,0,0,0,0,0,0,18078,0,0,0,0,0,0,0,0,0,2.5,0
16030,-3.11491e-12,0,-1.52338e-06,-3.18057e-12,0,0,-1.0666e-13,0,0,-3.47859,0.441429,0.360499,0,0,0,0,0,0,0,199,-62,199,-62,329,-61,207,69,0,-0.349066,3.14157,-1.5,nan,0,0,2,0,0,0,0,0,0,0,0,18078,0,0,0,0,0,0,0,0,0,2.5,0
16046,-3.11491e-12,0,-1.52338e-06,-3.18057e-12,0,0,-1.0666e-13,0,0,-3.53496,0.461638,0.378919,0,0,0,0,0,0,0,200,-61,200,-61,328,-61,208,71,0,-0.349066,3.14157,-1.5,nan,0,0,2,0,0,0,0,0,0,0,0,17160,0,0,0,0,0,0,0,0,0,2.5,0
16061,-3.11491e-12,0,-1.52338e-06,-3.18057e-12,0,0,-1.06661e-13,0,0,-3.53496,0.461638,0.378919,0,0,0,0,0,0,0,200,-61,200,-61,328,-61,208,71,0,-0.349066,3.14157,-1.5,nan,0,0,2,0,0,0,0,0,0,0,0,17160,0,0,0,0,0,0,0,0,0,2.5,0
16077,-3.11491e-12,0,-1.52338e-06,-3.18057e-12,0,0,-1.06661e-13,0,0,-3.58017,0.461542,0.405193,0,0,0,0,0,0,0,203,-59,203,-59,328,-61,208,71,0,-0.349066,3.14157,-1.5,nan,0,0,2,0,0,0,0,0,0,0,0,16764,0,0,0,0,0,0,0,0,0,2.5,0
16092,-3.11491e-12,0,-1.52338e-06,-3.18057e-12,0,0,-1.06661e-13,0,0,-3.58017,0.461542,0.405193,0,0,0,0,0,0,0,203,-59,203,-59,328,-61,208,71,0,-0.349066,3.14157,-1.5,nan,0,0,2,0,0,0,0,0,0,0,0,16764,0,0,0,0,0,0,0,0,0,2.5,0
16108,-3.11491e-12,0,-1.52338e-06,-3.18057e-12,0,0,-1.06661e-13,0,0,-3.58919,0.46265,0.419697,0,0,0,0,0,0,0,203,-59,203,-59,328,-61,207,69,0,-0.349066,3.14157,-1.5,nan,0,0,2,0,0,0,0,0,0,0,0,16640,0,0,0,0,0,0,0,0,0,2.5,0
16121,-3.11491e-12,0,-1.52338e-06,-3.18057e-12,0,0,-1.06662e-13,0,0,-3.58919,0.46265,0.419697,0,0,0,0,0,0,0,203,-59,203,-59,328,-61,207,69,0,-0.349066,3.14157,-1.5,nan,0,0,2,0,0,0,0,0,0,0,0,16640,0,0,0,0,0,0,0,0,0,2.5,0
16135,-3.11491e-12,0,-1.52338e-06,-3.18057e-12,0,0,-1.06662e-13,0,0,-3.4578,0.443681,0.337415,0,0,0,0,0,0,0,199,-62,199,-62,327,-61,207,74,0,-0.349066,3.14157,-1.5,nan,0,0,2,0,0,0,0,0,0,0,0,18768,0,0,0,0,0,0,0,0,0,2.5,0
16149,-3.11491e-12,0,-1.52338e-06,-3.18057e-12,0,0,-1.06662e-13,0,0,-3.4578,0.443681,0.337415,0,0,0,0,0,0,0,199,-62,199,-62,327,-61,207,74,0,-0.349066,3.14157,-1.5,nan,0,0,2,0,0,0,0,0,0,0,0,18768,0,0,0,0,0,0,0,0,0,2.5,0
16165,-3.11491e-12,0,-1.52338e-06,-3.18057e-12,0,0,-1.06663e-13,0,0,-3.58333,0.457396,0.428664,0,0,0,0,0,0,0,205,-62,205,-62,328,-64,208,68,0,-0.349066,3.14157,-1.5,nan,0,0,2,0,0,0,0,0,0,0,0,16500,0,0,0,0,0,0,0,0,0,2.5,0
16180,-3.11491e-12,0,-1.52338e-06,-3.18057e-12,0,0,-1.06663e-13,0,0,-3.58333,0.457396,0.428664,0,0,0,0,0,0,0,205,-62,205,-62,328,-64,208,68,0,-0.349066,3.14157,-1.5,nan,0,0,2,0,0,0,0,0,0,0,0,16500,0,0,0,0,0,0,0,0,0,2.5,0
16196,-3.11491e-12,0,-1.52338e-06,-3.18057e-12,0,0,-1.06663e-13,0,0,-3.58333,0.457396,0.428664,0,0,0,0,0,0,0,205,-62,205,-62,328,-64,208,68,0,-0.349066,3.14157,-1.5,nan,0,0,2,0,0,0,0,0,0,0,0,16500,0,0,0,0,0,0,0,0,0,2.5,0
16211,-3.11491e-12,0,-1.52338e-06,-3.18057e-12,0,0,-1.06663e-13,0,0,-3.47896,0.446088,0.364668,0,0,0,0,0,0,0,199,-62,199,-62,327,-63,207,69,0,-0.349066,3.14157,-1.5,nan,0,0,2,0,0,0,0,0,0,0,0,18216,0,0,0,0,0,0,0,0,0,2.5,0
16226,-3.11491e-12,0,-1.52338e-06,-3.18057e-12,0,0,-1.06664e-13,0,0,-3.47896,0.446088,0.364668,0,0,0,0,0,0,0,199,-62,199,-62,327,-63,207,69,0,-0.349066,3.14157,-1.5,nan,0,0,2,0,0,0,0,0,0,0,0,18216,0,0,0,0,0,0,0,0,0,2.5,0
16242,-3.11491e-12,0,-1.52338e-06,-3.18057e-12,0,0,-1.06664e-13,0,0,-3.53743,0.436139,0.407173,0,0,0,0,0,0,0,205,-62,205,-62,328,-64,208,66,0,-0.349066,3.14157,-1.5,nan,0,0,2,0,0,0,0,0,0,0,0,17160,0,0,0,0,0,0,0,0,0,2.5,0
16257,-3.11491e-12,0,-1.52338e-06,-3.18057e-12,0,0,-1.06664e-13,0,0,-3.53743,0.436139,0.407173,0,0,0,0,0,0,0,205,-62,205,-62,328,-64,208,66,0,-0.349066,3.14158,-1.5,nan,0,0,2,0,0,0,0,0,0,0,0,17160,0,0,0,0,0,0,0,0,0,2.5,0
16273,-3.11491e-12,0,-1.52338e-06,-3.18057e-12,0,0,-1.06664e-13,0,0,-3.53158,0.461475,0.398759,0,0,0,0,0,0,0,199,-62,199,-62,329,-64,208,68,0,-0.349066,3.14158,-1.5,nan,0,0,2,0,0,0,0,0,0,0,0,17292,0,0,0,0,0,0,0,0,0,2.5,0
16289,-3.11491e-12,0,-1.52338e-06,-3.18057e-12,0,0,-1.06665e-13,0,0,-3.53158,0.461475,0.398759,0,0,0,0,0,0,0,199,-62,199,-62,329,-64,208,68,0,-0.349066,3.14158,-1.5,nan,0,0,2,0,0,0,0,0,0,0,0,17292,0,0,0,0,0,0,0,0,0,2.5,0
16305,-3.11491e-12,0,-1.52338e-06,-3.18057e-12,0,0,-1.06665e-13,0,0,-3.55763,0.468486,0.401256,0,0,0,0,0,0,0,199,-62,199,-62,328,-59,207,69,0,-0.349066,3.14158,-1.5,nan,0,0,2,0,0,0,0,0,0,0,0,17161,0,0,0,0,0,0,0,0,0,2.5,0
16320,-3.11491e-12,0,-1.52338e-06,-3.18057e-12,0,0,-1.06665e-13,0,0,-3.55763,0.468486,0.401256,0,0,0,0,0,0,0,199,-62,199,-62,328,-59,207,69,0,-0.349066,3.14158,-1.5,nan,0,0,2,0,0,0,0,0,0,0,0,17161,0,0,0,0,0,0,0,0,0,2.5,0
16336,-3.11491e-12,0,-1.52338e-06,-3.18057e-12,0,0,-1.06665e-13,0,0,-3.57298,0.449923,0.405346,0,0,0,0,0,0,0,206,-58,206,-58,329,-64,208,69,0,-0.349066,3.14158,-1.5,nan,0,0,2,0,0,0,0,0,0,0,0,16625,0,0,0,0,0,0,0,0,0,2.5,0
16351,-3.11491e-12,0,-1.52338e-06,-3.18057e-12,0,0,-1.06666e-13,0,0,-3.57298,0.449923,0.405346,0,0,0,0,0,0,0,206,-58,206,-58,329,-64,208,69,0,-0.349066,3.14158,-1.5,nan,0,0,2,0,0,0,0,0,0,0,0,16625,0,0,0,0,0,0,0,0,0,2.5,0
16367,-3.11491e-12,0,-1.52338e-06,-3.18057e-12,0,0,-1.06666e-13,0,0,-3.53746,0.433736,0.396562,0,0,0,0,0,0,0,205,-62,205,-62,329,-61,208,68,0,-0.349066,3.14158,-1.5,nan,0,0,2,0,0,0,0,0,0,0,0,17160,0,0,0,0,0,0,0,0,0,2.5,0
16383,-3.11491e-12,0,-1.52338e-06,-3.18057e-12,0,0,-1.06666e-13,0,0,-3.53746,0.433736,0.396562,0,0,0,0,0,0,0,205,-62,205,-62,329,-61,208,68,0,-0.349066,3.14158,-1.5,nan,0,0,2,0,0,0,0,0,0,0,0,17160,0,0,0,0,0,0,0,0,0,2.5,0
16400,-3.11491e-12,0,-1.52338e-06,-3.18057e-12,0,0,-1.06667e-13,0,0,-3.49154,0.445091,0.370125,0,0,0,0,0,0,0,199,-62,199,-62,328,-61,207,68,0,-0.349066,3.14158,-1.5,nan,0,0,2,0,0,0,0,0,0,0,0,17940,0,0,0,0,0,0,0,0,0,2.5,0
16413,-3.11491e-12,0,-1.52338e-06,-3.18057e-12,0,0,-1.06667e-13,0,0,-3.49154,0.445091,0.370125,0,0,0,0,0,0,0,199,-62,199,-62,328,-61,207,68,0,-0.349066,3.14158,-1.5,nan,0,0,2,0,0,0,0,0,0,0,0,17940,0,0,0,0,0,0,0,0,0,2.5,0
16427,-3.11491e-12,0,-1.52338e-06,-3.18057e-12,0,0,-1.06667e-13,0,0,-3.49154,0.445091,0.370125,0,0,0,0,0,0,0,199,-62,199,-62,328,-61,207,68,0,-0.349066,3.14158,-1.5,nan,0,0,2,0,0,0,0,0,0,0,0,17940,0,0,0,0,0,0,0,0,0,2.5,0
16442,-3.11491e-12,0,-1.52338e-06,-3.18057e-12,0,0,-1.06667e-13,0,0,-3.56749,0.455162,0.406644,0,0,0,0,0,0,0,205,-60,205,-60,328,-63,207,68,0,-0.349066,3.14158,-1.5,nan,0,0,2,0,0,0,0,0,0,0,0,16632,0,0,0,0,0,0,0,0,0,2.5,0
16457,-3.11491e-12,0,-1.52338e-06,-3.18057e-12,0,0,-1.06668e-13,0,0,-3.56749,0.455162,0.406644,0,0,0,0,0,0,0,205,-60,205,-60,328,-63,207,68,0,-0.349066,3.14158,-1.5,nan,0,0,2,0,0,0,0,0,0,0,0,16632,0,0,0,0,0,0,0,0,0,2.5,0
16473,-3.11491e-12,0,-1.52338e-06,-3.18057e-12,0,0,-1.06668e-13,0,0,-3.55045,0.467852,0.412206,0,0,0,0,0,0,0,199,-62,199,-62,327,-63,207,66,0,-0.349066,3.14158,-1.5,nan,0,0,2,0,0,0,0,0,0,0,0,17028,0,0,0,0,0,0,0,0,0,2.5,0
16489,-3.11491e-12,0,-1.52338e-06,-3.18057e-12,0,0,-1.06668e-13,0,0,-3.55045,0.467852,0.412206,0,0,0,0,0,0,0,199,-62,199,-62,327,-63,207,66,0,-0.349066,3.14158,-1.5,nan,0,0,2,0,0,0,0,0,0,0,0,17028,0,0,0,0,0,0,0,0,0,2.5,0
16506,-3.11491e-12,0,-1.52338e-06,-3.18057e-12,0,0,-1.06668e-13,0,0,-3.58213,0.451249,0.419895,0,0,0,0,0,0,0,206,-58,206,-58,331,-64,207,68,0,-0.349066,3.14158,-1.5,nan,0,0,2,0,0,0,0,0,0,0,0,16500,0,0,0,0,0,0,0,0,0,2.5,0
16521,-3.11491e-12,0,-1.52338e-06,-3.18057e-12,0,0,-1.06669e-13,0,0,-3.58213,0.451249,0.419895,0,0,0,0,0,0,0,206,-58,206,-58,331,-64,207,68,0,-0.349066,3.14158,-1.5,nan,0,0,2,0,0,0,0,0,0,0,0,16500,0,0,0,0,0,0,0,0,0,2.5,0
16537,-3.11491e-12,0,-1.52338e-06,-3.18057e-12,0,0,-1.06669e-13,0,0,-3.53743,0.436139,0.407173,0,0,0,0,0,0,0,205,-62,205,-62,328,-64,208,66,0,-0.349066,3.14158,-1.5,nan,0,0,2,0,0,0,0,0,0,0,0,17160,0,0,0,0,0,0,0,0,0,2.5,0
16552,-3.11491e-12,0,-1.52338e-06,-3.18057e-12,0,0,-1.06669e-13,0,0,-3.53743,0.436139,0.407173,0,0,0,0,0,0,0,205,-62,205,-62,328,-64,208,66,0,-0.349066,3.14158,-1.5,nan,0,0,2,0,0,0,0,0,0,0,0,17160,0,0,0,0,0,0,0,0,0,2.5,0
