timestamp,A_x,A_y,A_z,P,Q,R,Phi,Theta,Psi,poseX,poseY,poseZ,state_X,state_Y,state_Z,state_VzB,state_Bx,state_By,state_Bz,p1_x,p1_y,p2_x,p2_y,p3_x,p3_y,p4_x,p4_y,roll,pitch,yaw,alt,targetHeading,highLevelState,lowLevelState,gateNumber,filtered_x,filtered_y,x_OT,y_OT,vx_OT,vy_OT,filtered_vx,filtered_vygateArearansac_corr_x,ransac_corr_y,ransac_corr_vx,ransac_corr_vy,detectionTimeStamppTermX,dTermX,pTermY,dTermY,vxcmd,vycmd
9665,0,-3.32016e+25,0,-1.86161e-18,-3.4761e-12,-1.86163e-18,0,0,0,0,0,0,0,0,0,0,0,0,0,0,0,0,0,0,0,0,0,0.367889,-0.0348889,0,-1.5,0,0,0,0,0,0,0,0,0,0,0,0,1.9603e-19,0,0,0,0,0,0,0,0,0,0,0
9680,-3.09926e-12,0,-1.50848e-06,-3.18057e-12,0,0,0,0,0,0,0,0,0,0,0,0,0,0,0,0,0,0,0,0,0,0,0,0.361439,-0.0348889,0,-1.5,0,0,0,0,0,0,0,0,0,0,0,0,1.9603e-19,0,0,0,0,0,0,0,0,0,0,0
9695,-3.09926e-12,0,-1.50848e-06,-3.18057e-12,0,0,0,0,0,0,0,0,0,0,0,0,0,0,0,0,0,0,0,0,0,0,0,0.354778,-0.0348889,0,-1.5,0,0,0,0,0,0,0,0,0,0,0,0,1.9603e-19,0,0,0,0,0,0,0,0,0,0,0
9711,-3.09926e-12,0,-1.50848e-06,-3.18057e-12,0,0,0,0,0,0,0,0,0,0,0,0,0,0,0,0,0,0,0,0,0,0,0,0.347031,-0.0348889,0,-1.5,0,0,0,0,0,0,0,0,0,0,0,0,1.9603e-19,0,0,0,0,0,0,0,0,0,0,0
9727,-3.09926e-12,0,-1.50848e-06,-3.18057e-12,0,0,0,0,0,0,0,0,0,0,0,0,0,0,0,0,0,0,0,0,0,0,0,0.338636,-0.0348889,0,-1.5,0,0,0,0,0,0,0,0,0,0,0,0,1.9603e-19,0,0,0,0,0,0,0,0,0,0,0
9743,-3.09926e-12,0,-1.50848e-06,-3.18057e-12,0,0,0,0,0,0,0,0,0,0,0,0,0,0,0,0,0,0,0,0,0,0,0,0.329607,-0.0348889,0,-1.5,0,0,0,0,0,0,0,0,0,0,0,0,1.9603e-19,0,0,0,0,0,0,0,0,0,0,0
9759,-3.09926e-12,0,-1.50848e-06,-3.18057e-12,0,0,0,0,0,0,0,0,0,0,0,0,0,0,0,0,0,0,0,0,0,0,0,0.319958,-0.0348889,0,-1.5,0,0,0,0,0,0,0,0,0,0,0,0,1.9603e-19,0,0,0,0,0,0,0,0,0,0,0
9780,-3.09926e-12,0,-1.50848e-06,-3.18057e-12,0,0,0,0,0,0,0,0,0,0,0,0,0,0,0,0,0,0,0,0,0,0,0,0.306381,-0.0348889,0,-1.5,0,0,0,0,0,0,0,0,0,0,0,0,1.9603e-19,0,0,0,0,0,0,0,0,0,0,0
9796,-3.09926e-12,0,-1.50848e-06,-3.18057e-12,0,0,0,0,0,0,0,0,0,0,0,0,0,0,0,0,0,0,0,0,0,0,0,0.29536,-0.0348889,0,-1.5,0,0,0,0,0,0,0,0,0,0,0,0,1.9603e-19,0,0,0,0,0,0,0,0,0,0,0
9812,-3.09926e-12,0,-1.50848e-06,-3.18057e-12,0,0,0,0,0,0,0,0,0,0,0,0,0,0,0,0,0,0,0,0,0,0,0,0.283775,-0.0348889,0,-1.5,0,0,0,0,0,0,0,0,0,0,0,0,1.9603e-19,0,0,0,0,0,0,0,0,0,0,0
9829,-3.09926e-12,0,-1.50848e-06,-3.18057e-12,0,0,0,0,0,0,0,0,0,0,0,0,0,0,0,0,0,0,0,0,0,0,0,0.270868,-0.0348889,0,-1.5,0,0,0,0,0,0,0,0,0,0,0,0,1.9603e-19,0,0,0,0,0,0,0,0,0,0,0
9856,-3.09926e-12,0,-1.50848e-06,-3.18057e-12,0,0,0,0,0,0,0,0,0,0,0,0,0,0,0,0,0,0,0,0,0,0,0,0.249161,-0.0348889,0,-1.5,0,0,0,0,0,0,0,0,0,0,0,0,1.9603e-19,0,0,0,0,0,0,0,0,0,0,0
9925,-3.09926e-12,0,-1.50848e-06,-3.18057e-12,0,0,0,0,0,0,0,0,0,0,0,0,0,0,0,0,0,0,0,0,0,0,0,0.187668,-0.0348889,0,-1.5,0,0,0,0,0,0,0,0,0,0,0,0,1.9603e-19,0,0,0,0,0,0,0,0,0,0,0
9942,-3.09926e-12,0,-1.50848e-06,-3.18057e-12,0,0,0,0,0,0,0,0,0,0,0,0,0,0,0,0,0,0,0,0,0,0,0,0.171369,-0.0348889,0,-1.5,0,0,0,0,0,0,0,0,0,0,0,0,1.9603e-19,0,0,0,0,0,0,0,0,0,0,0
9957,-3.09926e-12,0,-1.50848e-06,-3.18057e-12,0,0,0,0,0,0,0,0,0,0,0,0,0,0,0,0,0,0,0,0,0,0,0,0.156669,-0.0348889,0,-1.5,0,0,0,0,0,0,0,0,0,0,0,0,1.9603e-19,0,0,0,0,0,0,0,0,0,0,0
9973,-3.09926e-12,0,-1.50848e-06,-3.18057e-12,0,0,0,0,0,0,0,0,0,0,0,0,0,4.4,0,-1111239376,-1368373088,-1111239376,-1368373088,-1368341776,-1368341776,-1368341736,-1111239365,0.140695,-0.0348889,0,-1.5,0,0,0,0,0,0,0,0,0,0,0,0,0,0,0,0,0,9965,0,0,0,0,0,0
9989,-3.09926e-12,0,-1.50848e-06,-3.18057e-12,0,0,0,0,0,0,0,0,0,0,0,0,0,4.4,0,-1111239376,-1368373088,-1111239376,-1368373088,-1368341776,-1368341776,-1368341736,-1111239365,0.124449,-0.0348889,0,-1.5,0,0,0,0,0,0,0,0,0,0,0,0,0,0,0,0,0,9965,0,0,0,0,0,0
10004,-3.09926e-12,0,-1.50848e-06,-3.18057e-12,0,0,0,0,0,-4.57757,-0.137943,0.44282,0,0,0,0,0,-1.87127,-0.137943,277,5,277,5,376,0,293,108,0.109005,-0.0348889,0,-1.5,0,0,0,0,0,0,0,0,0,0,0,0,11556,0,0,0,0,9996,0,0,0,0,0,0
10021,-3.09926e-12,0,-1.50848e-06,-3.18057e-12,0,0,0,0,0,-4.57757,-0.137943,0.44282,0,0,0,0,0,-1.87127,-0.137943,277,5,277,5,376,0,293,108,0.091292,-0.0348889,0,-1.5,0,0,0,0,0,0,0,0,0,0,0,0,11556,0,0,0,0,9996,0,0,0,0,0,0
10036,-3.09926e-12,0,-1.50848e-06,-3.18057e-12,0,0,0,0,0,-4.49886,-0.13554,0.395752,0,0,0,0,0,-1.76344,-0.13554,277,5,277,5,378,0,291,110,0.0755145,-0.0348889,0,-1.5,0,0,0,0,0,0,0,0,0,0,0,0,11770,0,0,0,0,10030,0,0,0,0,0,0
10052,-3.09926e-12,0,-1.50848e-06,-3.18057e-12,0,0,0,0,0,-4.49886,-0.13554,0.395752,0,0,0,0,0,-1.76344,-0.13554,277,5,277,5,378,0,291,110,0.058571,-0.0348889,0,-1.5,0,0,0,0,0,0,0,0,0,0,0,0,11770,0,0,0,0,10030,0,0,0,0,0,0
10072,-3.09926e-12,0,-1.50848e-06,-3.18057e-12,0,0,0,0,0,-4.56087,-0.129482,0.415778,0,0,0,0,0,-1.84839,-0.129482,277,5,277,5,375,3,291,110,0.0372874,-0.0348889,0,-1.5,0,0,0,0,-1.8449,-0.128189,0,0,0,0,0.317777,0.117516,11449,-1.84839,-0.129482,0.317777,0.117516,10063,0,0,0,0,0,0
10085,-3.09926e-12,0,-1.50848e-06,-3.18057e-12,0,0,0,0,0,-4.56087,-0.129482,0.415778,0,0,0,0,0,-1.84839,-0.129482,277,5,277,5,375,3,291,110,0.0234275,-0.0348889,0,-1.5,0,0,0,0,-1.84077,-0.126661,0,0,0,0,0.317777,0.117516,11449,-1.84839,-0.129482,0.317777,0.117516,10063,0,0,0,0,0,0
10104,-3.09926e-12,0,-1.50848e-06,-3.18057e-12,0,0,0,0,0,-4.54281,-0.137368,0.418875,0,0,0,0,0,-1.82364,-0.137368,279,4,279,4,377,2,289,108,0.00318932,-0.0348889,0,-1.5,0,0,0,0,-1.8196,-0.130857,0,0,0,0,0.449336,0.0616119,11236,-1.82364,-0.131412,0.449336,0.0616119,10097,0,0,0,0,0,0
10120,-3.09926e-12,0,-1.50848e-06,-3.18057e-12,0,0,0,0,0,-4.54281,-0.137368,0.418875,0,0,0,0,0,-1.82364,-0.137368,279,4,279,4,377,2,289,108,-0.0137892,-0.0348889,0,-1.5,0,0,0,0,-1.81241,-0.129872,0,0,0,0,0.449336,0.0616119,11236,-1.82364,-0.131412,0.449336,0.0616119,10097,0,0,0,0,0,0
10139,-3.09926e-12,0,-1.50848e-06,-3.18057e-12,0,0,0,0,0,-4.72222,-0.154865,0.494653,0,0,0,0,0,-2.06944,-0.154865,283,5,283,5,377,5,291,106,-0.0338115,-0.0348889,0,-1.5,0,0,0,0,-1.82361,-0.138568,0,0,0,0,0.317774,-0.027281,10100,-1.82647,-0.138322,0.317774,-0.027281,10132,0,0,0,0,0,0
10155,-3.09926e-12,0,-1.50848e-06,-3.18057e-12,0,0,0,0,0,-4.72222,-0.154865,0.494653,0,0,0,0,0,-2.06944,-0.154865,283,5,283,5,377,5,291,106,-0.0494667,-0.0348889,0,-1.5,0,0,0,0,-1.81884,-0.138977,0,0,0,0,0.317774,-0.027281,10100,-1.82647,-0.138322,0.317774,-0.027281,10132,0,0,0,0,0,0
10173,-3.09926e-12,0,-1.50848e-06,-3.18057e-12,0,0,0,0,0,-4.67897,-0.143662,0.472914,0,0,0,0,0,-2.01019,-0.143662,280,10,280,10,373,2,291,105,-0.0690451,-0.0348889,0,-1.5,0,0,0,0,-2.02781,-0.144329,0,0,0,0,-1.60194,-0.060613,11021,-2.01019,-0.143662,-1.60194,-0.060613,10164,0,0,0,0,0,0
10189,-3.09926e-12,0,-1.50848e-06,-3.18057e-12,0,0,0,0,0,-4.67897,-0.143662,0.472914,0,0,0,0,0,-2.01019,-0.143662,280,10,280,10,373,2,291,105,-0.0852662,-0.0348889,0,-1.5,0,0,0,0,-2.05344,-0.145298,0,0,0,0,-1.60194,-0.060613,11021,-2.01019,-0.143662,-1.60194,-0.060613,10164,0,0,0,0,0,0
10208,-3.09926e-12,0,-1.50848e-06,-3.18057e-12,0,0,0,0,0,-4.70484,-0.139041,0.473234,0,0,0,0,0,-2.04563,-0.139041,279,11,279,11,378,5,289,105,-0.104153,-0.0348889,0,-1.5,0,0,0,0,-2.06159,-0.139221,0,0,0,0,-1.4503,-0.0164012,10400,-2.04563,-0.139041,-1.4503,-0.0164012,10199,0,0,0,0,0,0
10224,-3.09926e-12,0,-1.50848e-06,-3.18057e-12,0,0,0,0,0,-4.70484,-0.139041,0.473234,0,0,0,0,0,-2.04563,-0.139041,279,11,279,11,378,5,289,105,-0.118734,-0.0348889,0,-1.5,0,0,0,0,-2.08334,-0.139467,0,0,0,0,-1.4503,-0.0164012,10400,-2.04563,-0.139041,-1.4503,-0.0164012,10199,0,0,0,0,0,0
10243,-3.09926e-12,0,-1.50848e-06,-3.18057e-12,0,0,0,0,0,-4.45177,-0.120464,0.401035,0,0,0,0,0,-1.69893,-0.120464,277,2,277,2,376,-5,289,108,-0.137663,-0.0348889,0,-1.5,0,0,0,0,-2.12093,-0.139208,0,0,0,0,-1.48408,-0.00990197,11978,-2.09125,-0.139009,-1.48408,-0.00990197,10231,0,0,0,0,0,0
10259,-3.09926e-12,0,-1.50848e-06,-3.18057e-12,0,0,0,0,0,-4.45177,-0.120464,0.401035,0,0,0,0,0,-1.69893,-0.120464,277,2,277,2,376,-5,289,108,-0.15234,-0.0348889,0,-1.5,0,0,0,0,-2.14467,-0.139366,0,0,0,0,-1.48408,-0.00990197,11978,-2.09125,-0.139009,-1.48408,-0.00990197,10231,0,0,0,0,0,0
10275,-3.09926e-12,0,-1.50848e-06,-3.18057e-12,0,0,0,0,0,-4.45177,-0.120464,0.401035,0,0,0,0,0,-1.69893,-0.120464,277,2,277,2,376,-5,289,108,-0.166563,-0.0348889,0,-1.5,0,0,0,0,-2.16842,-0.139524,0,0,0,0,-1.48408,-0.00990197,11978,-2.09125,-0.139009,-1.48408,-0.00990197,10231,0,0,0,0,0,0
10290,-3.09926e-12,0,-1.50848e-06,-3.18057e-12,0,0,0,0,0,-4.45177,-0.120464,0.401035,0,0,0,0,0,-1.69893,-0.120464,277,2,277,2,376,-5,289,108,-0.179454,-0.0348889,0,-1.5,0,0,0,0,-2.19068,-0.139673,0,0,0,0,-1.48408,-0.00990197,11978,-2.09125,-0.139009,-1.48408,-0.00990197,10231,0,0,0,0,0,0
10310,-3.09926e-12,0,-1.50848e-06,-3.18057e-12,0,0,0,0,0,-4.45451,-0.125799,0.407714,0,0,0,0,0,-1.70267,-0.125799,279,1,279,1,377,-5,288,109,-0.195926,-0.0348889,0,-1.5,0,0,0,0,-1.73555,-0.124919,0,0,0,0,0.428854,0.0420909,11856,-1.74413,-0.125761,0.428854,0.0420909,10298,0,0,0,0,0,0
10324,-3.09926e-12,0,-1.50848e-06,-3.18057e-12,0,0,0,0,0,-4.45451,-0.125799,0.407714,0,0,0,0,0,-1.70267,-0.125799,279,1,279,1,377,-5,288,109,-0.20694,-0.0348889,0,-1.5,0,0,0,0,-1.72955,-0.12433,0,0,0,0,0.428854,0.0420909,11856,-1.74413,-0.125761,0.428854,0.0420909,10298,0,0,0,0,0,0
10343,-3.09926e-12,0,-1.50848e-06,-3.18057e-12,0,0,0,0,0,-4.54874,-0.143014,0.445644,0,0,0,0,0,-1.83177,-0.143014,284,1,284,1,377,-3,288,107,-0.221163,-0.0348889,0,-1.5,0,0,0,0,-1.82883,-0.140033,0,0,0,0,0.0779895,-0.00963467,10890,-1.83031,-0.13985,0.0779895,-0.00963467,10331,0,0,0,0,0,0
10359,-3.09926e-12,0,-1.50848e-06,-3.18057e-12,0,0,0,0,0,-4.54874,-0.143014,0.445644,0,0,0,0,0,-1.83177,-0.143014,284,1,284,1,377,-3,288,107,-0.232462,-0.0348889,0,-1.5,0,0,0,0,-1.82758,-0.140187,0,0,0,0,0.0779895,-0.00963467,10890,-1.83031,-0.13985,0.0779895,-0.00963467,10331,0,0,0,0,0,0
10379,-3.09926e-12,0,-1.50848e-06,-3.18057e-12,0,0,0,0,0,-4.69035,-0.14892,0.50027,0,0,0,0,0,-2.02578,-0.14892,283,1,283,1,377,5,289,103,-0.245665,-0.0348889,0,-1.5,0,0,0,0,-1.82602,-0.145656,0,0,0,0,0.0779887,-0.0293547,10200,-1.82758,-0.145068,0.0779887,-0.0293547,10367,0,0,0,0,0,0
10395,-3.09926e-12,0,-1.50848e-06,-3.18057e-12,0,0,0,0,0,-4.69035,-0.14892,0.50027,0,0,0,0,0,-2.02578,-0.14892,283,1,283,1,377,5,289,103,-0.254867,-0.0348889,0,-1.5,0,0,0,0,-1.82485,-0.146096,0,0,0,0,0.0779887,-0.0293547,10200,-1.82758,-0.145068,0.0779887,-0.0293547,10367,0,0,0,0,0,0
10414,-3.09926e-12,0,-1.50848e-06,-3.18057e-12,0,0,0,0,0,-4.63718,-0.147052,0.43912,0,0,0,0,0,-1.95294,-0.147052,282,15,282,15,378,-2,289,106,-0.266158,-0.0348889,0,-1.5,0,0,0,0,-1.95434,-0.146766,0,0,0,0,-0.322073,-0.0295599,11016,-1.9479,-0.146175,-0.322073,-0.0295599,10402,0,0,0,0,0,0
10430,-3.09926e-12,0,-1.50848e-06,-3.18057e-12,0,0,0,0,0,-4.63718,-0.147052,0.43912,0,0,0,0,0,-1.95294,-0.147052,282,15,282,15,378,-2,289,106,-0.274354,-0.0348889,0,-1.5,0,0,0,0,-1.9595,-0.147239,0,0,0,0,-0.322073,-0.0295599,11016,-1.9479,-0.146175,-0.322073,-0.0295599,10402,0,0,0,0,0,0
10446,-3.09926e-12,0,-1.50848e-06,-3.18057e-12,0,0,0,0,0,-4.63718,-0.147052,0.43912,0,0,0,0,0,-1.95294,-0.147052,282,15,282,15,378,-2,289,106,-0.281337,-0.0348889,0,-1.5,0,0,0,0,-1.96433,-0.147683,0,0,0,0,-0.322073,-0.0295599,11016,-1.9479,-0.146175,-0.322073,-0.0295599,10402,0,0,0,0,0,0
10461,-3.09926e-12,0,-1.50848e-06,-3.18057e-12,0,0,0,0,0,-4.63718,-0.147052,0.43912,0,0,0,0,0,-1.95294,-0.147052,282,15,282,15,378,-2,289,106,-0.288011,-0.0348889,0,-1.5,0,0,0,0,-1.96948,-0.148156,0,0,0,0,-0.322073,-0.0295599,11016,-1.9479,-0.146175,-0.322073,-0.0295599,10402,0,0,0,0,0,0
10481,-3.09926e-12,0,-1.50848e-06,-3.18057e-12,0,0,0,0,0,-4.72185,-0.163314,0.50305,0,0,0,0,0,-2.06893,-0.163314,284,5,284,5,377,3,292,105,-0.294864,-0.0348889,0,-1.5,0,0,0,0,-1.9906,-0.148626,0,0,0,0,-0.335453,-0.0293443,10200,-1.98423,-0.148069,-0.335453,-0.0293443,10468,0,0,0,0,0,0
10497,-3.09926e-12,0,-1.50848e-06,-3.18057e-12,0,0,0,0,0,-4.72185,-0.163314,0.50305,0,0,0,0,0,-2.06893,-0.163314,284,5,284,5,377,3,292,105,-0.299698,-0.0348889,0,-1.5,0,0,0,0,-1.99597,-0.149096,0,0,0,0,-0.335453,-0.0293443,10200,-1.98423,-0.148069,-0.335453,-0.0293443,10468,0,0,0,0,0,0
10512,-3.09926e-12,0,-1.50848e-06,-3.18057e-12,0,0,0,0,0,-4.72185,-0.163314,0.50305,0,0,0,0,0,-2.06893,-0.163314,284,5,284,5,377,3,292,105,-0.303646,-0.0348889,0,-1.5,0,0,0,0,-2.00134,-0.149565,0,0,0,0,-0.335453,-0.0293443,10200,-1.98423,-0.148069,-0.335453,-0.0293443,10468,0,0,0,0,0,0
10528,-3.09926e-12,0,-1.50848e-06,-3.18057e-12,0,0,0,0,0,-4.72185,-0.163314,0.50305,0,0,0,0,0,-2.06893,-0.163314,284,5,284,5,377,3,292,105,-0.306677,-0.0348889,0,-1.5,0,0,0,0,-2.0067,-0.150035,0,0,0,0,-0.335453,-0.0293443,10200,-1.98423,-0.148069,-0.335453,-0.0293443,10468,0,0,0,0,0,0
10547,-3.09926e-12,0,-1.50848e-06,-3.18057e-12,0,0,0,0,0,-4.44614,-0.123071,0.398282,0,0,0,0,0,-1.69121,-0.123071,279,1,279,1,376,-5,288,109,-0.309043,-0.0348889,0,-1.5,0,0,0,0,-1.99291,-0.150486,0,0,0,0,-0.265887,-0.0297089,11856,-1.98786,-0.149922,-0.265887,-0.0297089,10535,0,0,0,0,0,0
10561,-3.09926e-12,0,-1.50848e-06,-3.18057e-12,0,0,0,0,0,-4.44614,-0.123071,0.398282,0,0,0,0,0,-1.69121,-0.123071,279,1,279,1,376,-5,288,109,-0.309899,-0.0348889,0,-1.5,0,0,0,0,-1.99663,-0.150902,0,0,0,0,-0.265887,-0.0297089,11856,-1.98786,-0.149922,-0.265887,-0.0297089,10535,0,0,0,0,0,0
10579,-3.09926e-12,0,-1.50848e-06,-3.18057e-12,0,0,0,0,0,-4.41647,-0.138309,0.385007,0,0,0,0,0,-1.65056,-0.138309,281,1,281,1,376,-5,288,109,-0.309852,-0.0348889,0,-1.5,0,0,0,0,-1.81113,-0.143307,0,0,0,0,0.107959,-0.0115436,12084,-1.81307,-0.1431,0.107959,-0.0115436,10566,0,0,0,0,0,0
10594,-3.09926e-12,0,-1.50848e-06,-3.18057e-12,0,0,0,0,0,-4.41647,-0.138309,0.385007,0,0,0,0,0,-1.65056,-0.138309,281,1,281,1,376,-5,288,109,-0.308791,-0.0348889,0,-1.5,0,0,0,0,-1.80951,-0.143481,0,0,0,0,0.107959,-0.0115436,12084,-1.81307,-0.1431,0.107959,-0.0115436,10566,0,0,0,0,0,0
10610,-3.09926e-12,0,-1.50848e-06,-3.18057e-12,0,0,0,0,0,-4.41647,-0.138309,0.385007,0,0,0,0,0,-1.65056,-0.138309,281,1,281,1,376,-5,288,109,-0.306597,-0.0348889,0,-1.5,0,0,0,0,-1.80778,-0.143665,0,0,0,0,0.107959,-0.0115436,12084,-1.81307,-0.1431,0.107959,-0.0115436,10566,0,0,0,0,0,0
10625,-3.09926e-12,0,-1.50848e-06,-3.18057e-12,0,0,0,0,0,-4.41647,-0.138309,0.385007,0,0,0,0,0,-1.65056,-0.138309,281,1,281,1,376,-5,288,109,-0.303506,-0.0348889,0,-1.5,0,0,0,0,-1.80616,-0.143838,0,0,0,0,0.107959,-0.0115436,12084,-1.81307,-0.1431,0.107959,-0.0115436,10566,0,0,0,0,0,0
10641,-3.09926e-12,0,-1.50848e-06,-3.18057e-12,0,0,0,0,0,-4.41647,-0.138309,0.385007,0,0,0,0,0,-1.65056,-0.138309,281,1,281,1,376,-5,288,109,-0.299066,-0.0348889,0,-1.5,0,0,0,0,-1.80443,-0.144023,0,0,0,0,0.107959,-0.0115436,12084,-1.81307,-0.1431,0.107959,-0.0115436,10566,0,0,0,0,0,0
10656,-3.09926e-12,0,-1.50848e-06,-3.18057e-12,0,0,0,0,0,-4.41647,-0.138309,0.385007,0,0,0,0,0,-1.65056,-0.138309,281,1,281,1,376,-5,288,109,-0.293787,-0.0348889,0,-1.5,0,0,0,0,-1.80281,-0.144196,0,0,0,0,0.107959,-0.0115436,12084,-1.81307,-0.1431,0.107959,-0.0115436,10566,0,0,0,0,0,0
10672,-3.09926e-12,0,-1.50848e-06,-3.18057e-12,0,0,0,0,0,-4.41647,-0.138309,0.385007,0,0,0,0,0,-1.65056,-0.138309,281,1,281,1,376,-5,288,109,-0.28692,-0.0348889,0,-1.5,0,0,0,0,-1.80109,-0.144381,0,0,0,0,0.107959,-0.0115436,12084,-1.81307,-0.1431,0.107959,-0.0115436,10566,0,0,0,0,0,0
10687,-3.09926e-12,0,-1.50848e-06,-3.18057e-12,0,0,0,0,0,-4.41647,-0.138309,0.385007,0,0,0,0,0,-1.65056,-0.138309,281,1,281,1,376,-5,288,109,-0.279274,-0.0348889,0,-1.5,0,0,0,0,-1.79947,-0.144554,0,0,0,0,0.107959,-0.0115436,12084,-1.81307,-0.1431,0.107959,-0.0115436,10566,0,0,0,0,0,0
10703,-3.09926e-12,0,-1.50848e-06,-3.18057e-12,0,0,0,0,0,-4.41647,-0.138309,0.385007,0,0,0,0,0,-1.65056,-0.138309,281,1,281,1,376,-5,288,109,-0.269778,-0.0348889,0,-1.5,0,0,0,0,-1.79774,-0.144739,0,0,0,0,0.107959,-0.0115436,12084,-1.81307,-0.1431,0.107959,-0.0115436,10566,0,0,0,0,0,0
10719,-3.09926e-12,0,-1.50848e-06,-3.18057e-12,0,0,0,0,0,-4.41647,-0.138309,0.385007,0,0,0,0,0,-1.65056,-0.138309,281,1,281,1,376,-5,288,109,-0.259564,-0.0348889,0,-1.5,0,0,0,0,-1.79612,-0.144912,0,0,0,0,0.107959,-0.0115436,12084,-1.81307,-0.1431,0.107959,-0.0115436,10566,0,0,0,0,0,0
10768,-3.09926e-12,0,-1.50848e-06,-3.18057e-12,0,0,0,0,0,-4.41647,-0.138309,0.385007,0,0,0,0,0,-1.65056,-0.138309,281,1,281,1,376,-5,288,109,-0.215671,-0.0348889,0,-1.5,0,0,0,0,-1.63596,-0.138669,0,0,0,0,0.293269,-0.00104921,12084,-1.65062,-0.138617,0.293269,-0.00104921,10755,0,0,0,0,0,0
10784,-3.09926e-12,0,-1.50848e-06,-3.18057e-12,0,0,0,0,0,-4.41647,-0.138309,0.385007,0,0,0,0,0,-1.65056,-0.138309,281,1,281,1,376,-5,288,109,-0.198191,-0.0348889,0,-1.5,0,0,0,0,-1.63127,-0.138686,0,0,0,0,0.293269,-0.00104921,12084,-1.65062,-0.138617,0.293269,-0.00104921,10755,0,0,0,0,0,0
10802,-3.09926e-12,0,-1.50848e-06,-3.18057e-12,0,0,0,0,0,-4.41647,-0.138309,0.385007,0,0,0,0,0,-1.65056,-0.138309,281,1,281,1,376,-5,288,109,-0.176394,-0.0348889,0,-1.5,0,0,0,0,-1.62599,-0.138705,0,0,0,0,0.293269,-0.00104921,12084,-1.65062,-0.138617,0.293269,-0.00104921,10755,0,0,0,0,0,0
10816,-3.09926e-12,0,-1.50848e-06,-3.18057e-12,0,0,0,0,0,-4.41647,-0.138309,0.385007,0,0,0,0,0,-1.65056,-0.138309,281,1,281,1,376,-5,288,109,-0.15782,-0.0348889,0,-1.5,0,0,0,0,-1.62188,-0.13872,0,0,0,0,0.293269,-0.00104921,12084,-1.65062,-0.138617,0.293269,-0.00104921,10755,0,0,0,0,0,0
10830,-3.09926e-12,0,-1.50848e-06,-3.18057e-12,0,0,0,0,0,-4.41647,-0.138309,0.385007,0,0,0,0,0,-1.65056,-0.138309,281,1,281,1,376,-5,288,109,-0.137783,-0.0348889,0,-1.5,0,0,0,0,-1.61778,-0.138734,0,0,0,0,0.293269,-0.00104921,12084,-1.65062,-0.138617,0.293269,-0.00104921,10755,0,0,0,0,0,0
10849,-3.09926e-12,0,-1.50848e-06,-3.18057e-12,0,0,0,0,0,-4.53329,-0.150932,0.46658,0,0,0,0,0,-1.81061,-0.150932,280,0,280,0,380,-5,291,102,-0.10818,-0.0348889,0,-1.5,0,0,0,0,-1.79375,-0.149462,0,0,0,0,0.0703743,-0.0160733,11128,-1.79509,-0.149157,0.0703743,-0.0160733,10837,0,0,0,0,0,0
10870,-3.09926e-12,0,-1.50848e-06,-3.18057e-12,0,0,0,0,0,-4.5718,-0.151317,0.477049,0,0,0,0,0,-1.86337,-0.151317,281,5,281,5,378,-5,289,101,-0.0721456,-0.0348889,0,-1.5,0,0,0,0,-1.8037,-0.151413,0,0,0,0,0.0727767,-0.0187141,11236,-1.80421,-0.151282,0.0727767,-0.0187141,10865,0,0,0,0,0,0
10885,-3.09926e-12,0,-1.50848e-06,-3.18057e-12,0,0,0,0,0,-4.5718,-0.151317,0.477049,0,0,0,0,0,-1.86337,-0.151317,281,5,281,5,378,-5,289,101,-0.0442352,-0.0348889,0,-1.5,0,0,0,0,-1.8026,-0.151694,0,0,0,0,0.0727767,-0.0187141,11236,-1.80421,-0.151282,0.0727767,-0.0187141,10865,0,0,0,0,0,0
10905,-3.09926e-12,0,-1.50848e-06,-3.18057e-12,0,0,0,0,0,-4.6896,-0.157882,0.583106,0,0,0,0,0,-2.02475,-0.157882,284,-7,284,-7,380,0,288,95,-0.00418386,-0.0348889,0,-1.5,0,0,0,0,-1.81484,-0.152185,0,0,0,0,0.0354753,-0.0185321,10098,-1.81555,-0.151814,0.0354753,-0.0185321,10892,0,0,0,0,0,0
10921,-3.09926e-12,0,-1.50848e-06,-3.18057e-12,0,0,0,0,0,-4.6896,-0.157882,0.583106,0,0,0,0,0,-2.02475,-0.157882,284,-7,284,-7,380,0,288,95,0,-0.0348889,0,-1.5,0,0,0,0,-1.81428,-0.152481,0,0,0,0,0.0354753,-0.0185321,10098,-1.81555,-0.151814,0.0354753,-0.0185321,10892,0,0,0,0,0,0
10941,-3.09926e-12,0,-1.50848e-06,-3.18057e-12,0,0,0,0,0,-4.58661,-0.157273,0.590543,0,0,0,0,0,-1.88366,-0.157273,281,-6,281,-6,380,-11,289,94,0,-0.0348889,0,-1.5,0,0,0,0,-1.84845,-0.154796,0,0,0,0,-0.000578142,-0.0204699,11130,-1.84845,-0.15453,-0.000578142,-0.0204699,10930,0,0,0,0,0,0
10956,-3.09926e-12,0,-1.50848e-06,-3.18057e-12,0,0,0,0,0,-4.58661,-0.157273,0.590543,0,0,0,0,0,-1.88366,-0.157273,281,-6,281,-6,380,-11,289,94,0,-0.0348889,0,-1.5,0,0,0,0,-1.84846,-0.155103,0,0,0,0,-0.000578142,-0.0204699,11130,-1.84845,-0.15453,-0.000578142,-0.0204699,10930,0,0,0,0,0,0
10977,-3.09926e-12,0,-1.50848e-06,-3.18057e-12,0,0,0,0,0,-4.66141,-0.156764,0.754027,0,0,0,0,0,-1.98613,-0.156764,284,-15,284,-15,380,-26,289,81,0,-0.0348889,0,-1.5,0,0,0,0,-1.8661,-0.156553,0,0,0,0,-0.0199097,-0.0217438,10593,-1.86586,-0.156293,-0.0199097,-0.0217438,10966,0,0,0,0,0,0
10992,-3.09926e-12,0,-1.50848e-06,-3.18057e-12,0,0,0,0,0,-4.66141,-0.156764,0.754027,0,0,0,0,0,-1.98613,-0.156764,284,-15,284,-15,380,-26,289,81,0,-0.0348889,0,-1.5,0,0,0,0,-1.86641,-0.156901,0,0,0,0,-0.0199097,-0.0217438,10593,-1.86586,-0.156293,-0.0199097,-0.0217438,10966,0,0,0,0,0,0
11008,-3.09926e-12,0,-1.50848e-06,-3.18057e-12,0,0,0,0,0,-4.66141,-0.156764,0.754027,0,0,0,0,0,-1.98613,-0.156764,284,-15,284,-15,380,-26,289,81,0,-0.0348889,0,-1.5,0,0,0,0,-1.86673,-0.157249,0,0,0,0,-0.0199097,-0.0217438,10593,-1.86586,-0.156293,-0.0199097,-0.0217438,10966,0,0,0,0,0,0
11023,-3.09926e-12,0,-1.50848e-06,-3.18057e-12,0,0,0,0,0,-4.66141,-0.156764,0.754027,0,0,0,0,0,-1.98613,-0.156764,284,-15,284,-15,380,-26,289,81,0,-0.0348889,0,-1.5,0,0,0,0,-1.86703,-0.157575,0,0,0,0,-0.0199097,-0.0217438,10593,-1.86586,-0.156293,-0.0199097,-0.0217438,10966,0,0,0,0,0,0
11066,-3.09926e-12,0,-1.50848e-06,-3.18057e-12,0,0,0,0,0,-4.66141,-0.156764,0.754027,0,0,0,0,0,-1.98613,-0.156764,284,-15,284,-15,380,-26,289,81,0,-0.0348889,0,-1.5,0,0,0,0,-1.86789,-0.15851,0,0,0,0,-0.0199097,-0.0217438,10593,-1.86586,-0.156293,-0.0199097,-0.0217438,10966,0,0,0,0,0,0
11079,-3.09926e-12,0,-1.50848e-06,-3.18057e-12,0,0,0,0,0,-4.66141,-0.156764,0.754027,0,0,0,0,0,-1.98613,-0.156764,284,-15,284,-15,380,-26,289,81,0,-0.0348889,0,-1.5,0,0,0,0,-1.86815,-0.158793,0,0,0,0,-0.0199097,-0.0217438,10593,-1.86586,-0.156293,-0.0199097,-0.0217438,10966,0,0,0,0,0,0
11093,-3.09926e-12,0,-1.50848e-06,-3.18057e-12,0,0,0,0,0,-4.66141,-0.156764,0.754027,0,0,0,0,0,-1.98613,-0.156764,284,-15,284,-15,380,-26,289,81,0,-0.0348889,0,-1.5,0,0,0,0,-1.86843,-0.159097,0,0,0,0,-0.0199097,-0.0217438,10593,-1.86586,-0.156293,-0.0199097,-0.0217438,10966,0,0,0,0,0,0
11108,-3.09926e-12,0,-1.50848e-06,-3.18057e-12,0,0,0,0,0,-4.66141,-0.156764,0.754027,0,0,0,0,0,-1.98613,-0.156764,284,-15,284,-15,380,-26,289,81,0,-0.0348889,0,-1.5,0,0,0,0,-1.86872,-0.159424,0,0,0,0,-0.0199097,-0.0217438,10593,-1.86586,-0.156293,-0.0199097,-0.0217438,10966,0,0,0,0,0,0
11124,-3.09926e-12,0,-1.50848e-06,-3.18057e-12,0,0,0,0,0,-4.66141,-0.156764,0.754027,0,0,0,0,0,-1.98613,-0.156764,284,-15,284,-15,380,-26,289,81,0,-0.0348889,0,-1.5,0,0,0,0,-1.86904,-0.159772,0,0,0,0,-0.0199097,-0.0217438,10593,-1.86586,-0.156293,-0.0199097,-0.0217438,10966,0,0,0,0,0,0
11140,-3.09926e-12,0,-1.50848e-06,-3.18057e-12,0,0,0,0,0,-4.66141,-0.156764,0.754027,0,0,0,0,0,-1.98613,-0.156764,284,-15,284,-15,380,-26,289,81,0,-0.0348889,0,-1.5,0,0,0,0,-1.86934,-0.160098,0,0,0,0,-0.0199097,-0.0217438,10593,-1.86586,-0.156293,-0.0199097,-0.0217438,10966,0,0,0,0,0,0
11155,-3.09926e-12,0,-1.50848e-06,-3.18057e-12,0,0,0,0,0,-4.66141,-0.156764,0.754027,0,0,0,0,0,-1.98613,-0.156764,284,-15,284,-15,380,-26,289,81,0,-0.0348889,0,-1.5,0,0,0,0,-1.86966,-0.160446,0,0,0,0,-0.0199097,-0.0217438,10593,-1.86586,-0.156293,-0.0199097,-0.0217438,10966,0,0,0,0,0,0
11171,-3.09926e-12,0,-1.50848e-06,-3.18057e-12,0,0,0,0,0,-4.66141,-0.156764,0.754027,0,0,0,0,0,-1.98613,-0.156764,284,-15,284,-15,380,-26,289,81,0,-0.0348889,0,-1.5,0,0,0,0,-1.86998,-0.160794,0,0,0,0,-0.0199097,-0.0217438,10593,-1.86586,-0.156293,-0.0199097,-0.0217438,10966,0,0,0,0,0,0
11186,-3.09926e-12,0,-1.50848e-06,-3.18057e-12,0,0,0,0,0,-4.66141,-0.156764,0.754027,0,0,0,0,0,-1.98613,-0.156764,284,-15,284,-15,380,-26,289,81,0,-0.0348889,0,-1.5,0,0,0,0,-1.87028,-0.16112,0,0,0,0,-0.0199097,-0.0217438,10593,-1.86586,-0.156293,-0.0199097,-0.0217438,10966,0,0,0,0,0,0
11202,-3.09926e-12,0,-1.50848e-06,-3.18057e-12,0,0,0,0,0,-4.66141,-0.156764,0.754027,0,0,0,0,0,-1.98613,-0.156764,284,-15,284,-15,380,-26,289,81,0,-0.0348889,0,-1.5,0,0,0,0,-1.8706,-0.161468,0,0,0,0,-0.0199097,-0.0217438,10593,-1.86586,-0.156293,-0.0199097,-0.0217438,10966,0,0,0,0,0,0
11218,-3.09926e-12,0,-1.50848e-06,-3.18057e-12,0,0,0,0,0,-4.66141,-0.156764,0.754027,0,0,0,0,0,-1.98613,-0.156764,284,-15,284,-15,380,-26,289,81,0,-0.0348889,0,-1.5,0,0,0,0,-1.87089,-0.161794,0,0,0,0,-0.0199097,-0.0217438,10593,-1.86586,-0.156293,-0.0199097,-0.0217438,10966,0,0,0,0,0,0
11234,-3.09926e-12,0,-1.50848e-06,-3.18057e-12,0,0,0,0,0,-4.66141,-0.156764,0.754027,0,0,0,0,0,-1.98613,-0.156764,284,-15,284,-15,380,-26,289,81,0,-0.0348889,0,-1.5,0,0,0,0,-1.87121,-0.162142,0,0,0,0,-0.0199097,-0.0217438,10593,-1.86586,-0.156293,-0.0199097,-0.0217438,10966,0,0,0,0,0,0
11249,-3.09926e-12,0,-1.50848e-06,-3.18057e-12,0,0,0,0,0,-4.66141,-0.156764,0.754027,0,0,0,0,0,-1.98613,-0.156764,284,-15,284,-15,380,-26,289,81,0,-0.0348889,0,-1.5,0,0,0,0,-1.87153,-0.16249,0,0,0,0,-0.0199097,-0.0217438,10593,-1.86586,-0.156293,-0.0199097,-0.0217438,10966,0,0,0,0,0,0
11265,-3.09926e-12,0,-1.50848e-06,-3.18057e-12,0,0,0,0,0,-4.66141,-0.156764,0.754027,0,0,0,0,0,-1.98613,-0.156764,284,-15,284,-15,380,-26,289,81,0,-0.0348889,0,-1.5,0,0,0,0,-1.87185,-0.162837,0,0,0,0,-0.0199097,-0.0217438,10593,-1.86586,-0.156293,-0.0199097,-0.0217438,10966,0,0,0,0,0,0
11280,-3.09926e-12,0,-1.50848e-06,-3.18057e-12,0,0,0,0,0,-4.66141,-0.156764,0.754027,0,0,0,0,0,-1.98613,-0.156764,284,-15,284,-15,380,-26,289,81,0,-0.0348889,0,-1.5,0,0,0,0,-1.87215,-0.163164,0,0,0,0,-0.0199097,-0.0217438,10593,-1.86586,-0.156293,-0.0199097,-0.0217438,10966,0,0,0,0,0,0
11296,-3.09926e-12,0,-1.50848e-06,-3.18057e-12,0,0,0,0,0,-4.66141,-0.156764,0.754027,0,0,0,0,0,-1.98613,-0.156764,284,-15,284,-15,380,-26,289,81,0,-0.0348889,0,-1.5,0,0,0,0,-1.87247,-0.163512,0,0,0,0,-0.0199097,-0.0217438,10593,-1.86586,-0.156293,-0.0199097,-0.0217438,10966,0,0,0,0,0,0
11310,-3.09926e-12,0,-1.50848e-06,-3.18057e-12,0,0,0,0,0,-4.66141,-0.156764,0.754027,0,0,0,0,0,-1.98613,-0.156764,284,-15,284,-15,380,-26,289,81,0,-0.0348889,0,-1.5,0,0,0,0,-1.87273,-0.163794,0,0,0,0,-0.0199097,-0.0217438,10593,-1.86586,-0.156293,-0.0199097,-0.0217438,10966,0,0,0,0,0,0
11325,-3.09926e-12,0,-1.50848e-06,-3.18057e-12,0,0,0,0,0,-4.66141,-0.156764,0.754027,0,0,0,0,0,-1.98613,-0.156764,284,-15,284,-15,380,-26,289,81,0,-0.0348889,0,-1.5,0,0,0,0,-1.87304,-0.164142,0,0,0,0,-0.0199097,-0.0217438,10593,-1.86586,-0.156293,-0.0199097,-0.0217438,10966,0,0,0,0,0,0
11341,-3.09926e-12,0,-1.50848e-06,-3.18057e-12,0,0,0,0,0,-4.66141,-0.156764,0.754027,0,0,0,0,0,-1.98613,-0.156764,284,-15,284,-15,380,-26,289,81,0,-0.0348889,0,-1.5,0,0,0,0,-1.87336,-0.16449,0,0,0,0,-0.0199097,-0.0217438,10593,-1.86586,-0.156293,-0.0199097,-0.0217438,10966,0,0,0,0,0,0
11356,-3.09926e-12,0,-1.50848e-06,-3.18057e-12,0,0,0,0,0,-4.66141,-0.156764,0.754027,0,0,0,0,0,-1.98613,-0.156764,284,-15,284,-15,380,-26,289,81,0,-0.0348889,0,-1.5,0,0,0,0,-1.87366,-0.164816,0,0,0,0,-0.0199097,-0.0217438,10593,-1.86586,-0.156293,-0.0199097,-0.0217438,10966,0,0,0,0,0,0
11372,-3.09926e-12,0,-1.50848e-06,-3.18057e-12,0,0,0,0,0,-4.66141,-0.156764,0.754027,0,0,0,0,0,-1.98613,-0.156764,284,-15,284,-15,380,-26,289,81,0,-0.0348889,0,-1.5,0,0,0,0,-1.87398,-0.165164,0,0,0,0,-0.0199097,-0.0217438,10593,-1.86586,-0.156293,-0.0199097,-0.0217438,10966,0,0,0,0,0,0
11388,-3.09926e-12,0,-1.50848e-06,-3.18057e-12,0,0,0,0,0,-4.66141,-0.156764,0.754027,0,0,0,0,0,-1.98613,-0.156764,284,-15,284,-15,380,-26,289,81,0,-0.0348889,0,-1.5,0,0,0,0,-1.8743,-0.165512,0,0,0,0,-0.0199097,-0.0217438,10593,-1.86586,-0.156293,-0.0199097,-0.0217438,10966,0,0,0,0,0,0
11404,-3.09926e-12,0,-1.50848e-06,-3.18057e-12,0,0,0,0,0,-4.66141,-0.156764,0.754027,0,0,0,0,0,-1.98613,-0.156764,284,-15,284,-15,380,-26,289,81,0,-0.0348889,0,-1.5,0,0,0,0,-1.87462,-0.16586,0,0,0,0,-0.0199097,-0.0217438,10593,-1.86586,-0.156293,-0.0199097,-0.0217438,10966,0,0,0,0,0,0
11419,-3.09926e-12,0,-1.50848e-06,-3.18057e-12,0,0,0,0,0,-4.66141,-0.156764,0.754027,0,0,0,0,0,-1.98613,-0.156764,284,-15,284,-15,380,-26,289,81,0,-0.0348889,0,-1.5,0,0,0,0,-1.87492,-0.166186,0,0,0,0,-0.0199097,-0.0217438,10593,-1.86586,-0.156293,-0.0199097,-0.0217438,10966,0,0,0,0,0,0
11435,-3.09926e-12,0,-1.50848e-06,-3.18057e-12,0,0,0,0,0,-4.66141,-0.156764,0.754027,0,0,0,0,0,-1.98613,-0.156764,284,-15,284,-15,380,-26,289,81,0,-0.0348889,0,-1.5,0,0,0,0,-1.87523,-0.166534,0,0,0,0,-0.0199097,-0.0217438,10593,-1.86586,-0.156293,-0.0199097,-0.0217438,10966,0,0,0,0,0,0
11451,-3.09926e-12,0,-1.50848e-06,-3.18057e-12,0,0,0,0,0,-4.66141,-0.156764,0.754027,0,0,0,0,0,-1.98613,-0.156764,284,-15,284,-15,380,-26,289,81,0,-0.0348889,0,-1.5,0,0,0,0,-1.87553,-0.16686,0,0,0,0,-0.0199097,-0.0217438,10593,-1.86586,-0.156293,-0.0199097,-0.0217438,10966,0,0,0,0,0,0
11466,-3.09926e-12,0,-1.50848e-06,-3.18057e-12,0,0,0,0,0,-4.66141,-0.156764,0.754027,-1.87585,-0.167208,-0.0198898,-0.0217221,0,-1.98613,-0.156764,284,-15,284,-15,380,-26,289,81,0,-0.0348889,0,-1.5,0,0,0,0,-1.87585,-0.167208,0,0,0,0,-0.0198898,-0.0217221,10593,0,0,0,0,10966,0,0,0,0,0,0
11482,-3.09926e-12,0,-1.50848e-06,-3.18057e-12,0,0,0,0,0,-4.66141,-0.156764,0.754027,-1.87617,-0.167554,-0.0197311,-0.0215488,0,-1.98613,-0.156764,284,-15,284,-15,380,-26,289,81,0,-0.0348889,0,-1.5,0,0,0,0,-1.87617,-0.167554,0,0,0,0,-0.0197311,-0.0215488,10593,0,0,0,0,10966,0,0,0,0,0,0
11498,-3.09926e-12,0,-1.50848e-06,-3.18057e-12,0,0,0,0,0,-4.66141,-0.156764,0.754027,-1.87648,-0.167897,-0.0195737,-0.0213769,0,-1.98613,-0.156764,284,-15,284,-15,380,-26,289,81,0,-0.0348889,0,-1.5,0,0,0,0,-1.87648,-0.167897,0,0,0,0,-0.0195737,-0.0213769,10593,0,0,0,0,10966,0,0,0,0,0,0
11513,-3.09926e-12,0,-1.50848e-06,-3.18057e-12,0,0,0,0,0,-4.66141,-0.156764,0.754027,-1.87677,-0.168216,-0.0194273,-0.021217,0,-1.98613,-0.156764,284,-15,284,-15,380,-26,289,81,0,-0.0348889,0,-1.5,0,0,0,0,-1.87677,-0.168216,0,0,0,0,-0.0194273,-0.021217,10593,0,0,0,0,10966,0,0,0,0,0,0
11527,-3.09926e-12,0,-1.50848e-06,-3.18057e-12,0,0,0,0,0,-4.66141,-0.156764,0.754027,-1.87705,-0.168512,-0.0192917,-0.0210689,0,-1.98613,-0.156764,284,-15,284,-15,380,-26,289,81,0,-0.0348889,0,-1.5,0,0,0,0,-1.87705,-0.168512,0,0,0,0,-0.0192917,-0.0210689,10593,0,0,0,0,10966,0,0,0,0,0,0
11540,-3.09926e-12,0,-1.50848e-06,-3.18057e-12,0,0,0,0,0,-4.66141,-0.156764,0.754027,-1.8773,-0.168784,-0.0191666,-0.0209322,0,-1.98613,-0.156764,284,-15,284,-15,380,-26,289,81,0,-0.0348889,0,-1.5,0,0,0,0,-1.8773,-0.168784,0,0,0,0,-0.0191666,-0.0209322,10593,0,0,0,0,10966,0,0,0,0,0,0
11556,-3.09926e-12,0,-1.50848e-06,-3.18057e-12,0,0,0,0,0,-4.66141,-0.156764,0.754027,-1.8776,-0.169118,-0.0190137,-0.0207653,0,-1.98613,-0.156764,284,-15,284,-15,380,-26,289,81,0,-0.0348889,0,-1.5,0,0,0,0,-1.8776,-0.169118,0,0,0,0,-0.0190137,-0.0207653,10593,0,0,0,0,10966,0,0,0,0,0,0
11572,-3.09926e-12,0,-1.50848e-06,-3.18057e-12,0,0,0,0,0,-4.66141,-0.156764,0.754027,-1.8779,-0.169448,-0.018862,-0.0205996,0,-1.98613,-0.156764,284,-15,284,-15,380,-26,289,81,0,-0.0348889,0,-1.5,0,0,0,0,-1.8779,-0.169448,0,0,0,0,-0.018862,-0.0205996,10593,0,0,0,0,10966,0,0,0,0,0,0
11587,-3.09926e-12,0,-1.50848e-06,-3.18057e-12,0,0,0,0,0,-4.66141,-0.156764,0.754027,-1.87818,-0.169756,-0.0187209,-0.0204455,0,-1.98613,-0.156764,284,-15,284,-15,380,-26,289,81,0,-0.0348889,0,-1.5,0,0,0,0,-1.87818,-0.169756,0,0,0,0,-0.0187209,-0.0204455,10593,0,0,0,0,10966,0,0,0,0,0,0
11603,-3.09926e-12,0,-1.50848e-06,-3.18057e-12,0,0,0,0,0,-4.66141,-0.156764,0.754027,-1.87848,-0.170081,-0.0185716,-0.0202824,0,-1.98613,-0.156764,284,-15,284,-15,380,-26,289,81,0,-0.0348889,0,-1.5,0,0,0,0,-1.87848,-0.170081,0,0,0,0,-0.0185716,-0.0202824,10593,0,0,0,0,10966,0,0,0,0,0,0
11619,-3.09926e-12,0,-1.50848e-06,-3.18057e-12,0,0,0,0,0,-4.66141,-0.156764,0.754027,-1.87878,-0.170404,-0.0184234,-0.0201206,0,-1.98613,-0.156764,284,-15,284,-15,380,-26,289,81,0,-0.0348889,0,-1.5,0,0,0,0,-1.87878,-0.170404,0,0,0,0,-0.0184234,-0.0201206,10593,0,0,0,0,10966,0,0,0,0,0,0
11635,-3.09926e-12,0,-1.50848e-06,-3.18057e-12,0,0,0,0,0,-4.66141,-0.156764,0.754027,-1.87907,-0.170724,-0.0182765,-0.0199601,0,-1.98613,-0.156764,284,-15,284,-15,380,-26,289,81,0,-0.0348889,0,-1.5,0,0,0,0,-1.87907,-0.170724,0,0,0,0,-0.0182765,-0.0199601,10593,0,0,0,0,10966,0,0,0,0,0,0
11650,-3.09926e-12,0,-1.50848e-06,-3.18057e-12,0,0,0,0,0,-4.66141,-0.156764,0.754027,-1.87934,-0.171022,-0.0181398,-0.0198108,0,-1.98613,-0.156764,284,-15,284,-15,380,-26,289,81,0,-0.0348889,0,-1.5,0,0,0,0,-1.87934,-0.171022,0,0,0,0,-0.0181398,-0.0198108,10593,0,0,0,0,10966,0,0,0,0,0,0
11666,-3.09926e-12,0,-1.50848e-06,-3.18057e-12,0,0,0,0,0,-4.66141,-0.156764,0.754027,-1.87963,-0.171338,-0.0179951,-0.0196528,0,-1.98613,-0.156764,284,-15,284,-15,380,-26,289,81,0,-0.0348889,0,-1.5,0,0,0,0,-1.87963,-0.171338,0,0,0,0,-0.0179951,-0.0196528,10593,0,0,0,0,10966,0,0,0,0,0,0
11682,-3.09926e-12,0,-1.50848e-06,-3.18057e-12,0,0,0,0,0,-4.66141,-0.156764,0.754027,-1.8799,-0.171631,-0.0178604,-0.0195058,0,-1.98613,-0.156764,284,-15,284,-15,380,-26,289,81,0,-0.0348889,0,-1.5,0,0,0,0,-1.8799,-0.171631,0,0,0,0,-0.0178604,-0.0195058,10593,0,0,0,0,10966,0,0,0,0,0,0
11697,-3.09926e-12,0,-1.50848e-06,-3.18057e-12,0,0,0,0,0,-4.66141,-0.156764,0.754027,-1.88019,-0.171941,-0.017718,-0.0193502,0,-1.98613,-0.156764,284,-15,284,-15,380,-26,289,81,0,-0.0348889,0,-1.5,0,0,0,0,-1.88019,-0.171941,0,0,0,0,-0.017718,-0.0193502,10593,0,0,0,0,10966,0,0,0,0,0,0
11713,-3.09926e-12,0,-1.50848e-06,-3.18057e-12,0,0,0,0,0,-4.66141,-0.156764,0.754027,-1.88047,-0.172249,-0.0175766,-0.0191958,0,-1.98613,-0.156764,284,-15,284,-15,380,-26,289,81,0,-0.0348889,0,-1.5,0,0,0,0,-1.88047,-0.172249,0,0,0,0,-0.0175766,-0.0191958,10593,0,0,0,0,10966,0,0,0,0,0,0
11731,-3.09926e-12,0,-1.50848e-06,-3.18057e-12,0,0,0,0,0,-4.66141,-0.156764,0.754027,-1.88078,-0.172593,-0.0174189,-0.0190236,0,-1.98613,-0.156764,284,-15,284,-15,380,-26,289,81,0,-0.0348889,0,-1.5,0,0,0,0,-1.88078,-0.172593,0,0,0,0,-0.0174189,-0.0190236,10593,0,0,0,0,10966,0,0,0,0,0,0
11745,-3.09926e-12,0,-1.50848e-06,-3.18057e-12,0,0,0,0,0,-4.66141,-0.156764,0.754027,-1.88103,-0.172858,-0.0172973,-0.0188907,0,-1.98613,-0.156764,284,-15,284,-15,380,-26,289,81,0,-0.0348889,0,-1.5,0,0,0,0,-1.88103,-0.172858,0,0,0,0,-0.0172973,-0.0188907,10593,0,0,0,0,10966,0,0,0,0,0,0
11758,-3.09926e-12,0,-1.50848e-06,-3.18057e-12,0,0,0,0,0,-4.66141,-0.156764,0.754027,-1.88125,-0.173103,-0.0171851,-0.0187683,0,-1.98613,-0.156764,284,-15,284,-15,380,-26,289,81,0,-0.0348889,0,-1.5,0,0,0,0,-1.88125,-0.173103,0,0,0,0,-0.0171851,-0.0187683,10593,0,0,0,0,10966,0,0,0,0,0,0
11774,-3.09926e-12,0,-1.50848e-06,-3.18057e-12,0,0,0,0,0,-4.66141,-0.156764,0.754027,-1.88152,-0.173401,-0.0170481,-0.0186186,0,-1.98613,-0.156764,284,-15,284,-15,380,-26,289,81,0,-0.0348889,0,-1.5,0,0,0,0,-1.88152,-0.173401,0,0,0,0,-0.0170481,-0.0186186,10593,0,0,0,0,10966,0,0,0,0,0,0
11789,-3.09926e-12,0,-1.50848e-06,-3.18057e-12,0,0,0,0,0,-4.66141,-0.156764,0.754027,-1.88178,-0.173679,-0.0169205,-0.0184793,0,-1.98613,-0.156764,284,-15,284,-15,380,-26,289,81,0,-0.0348889,0,-1.5,0,0,0,0,-1.88178,-0.173679,0,0,0,0,-0.0169205,-0.0184793,10593,0,0,0,0,10966,0,0,0,0,0,0
11804,-3.09926e-12,0,-1.50848e-06,-3.18057e-12,0,0,0,0,0,-4.66141,-0.156764,0.754027,-1.88203,-0.173955,-0.016794,-0.0183411,0,-1.98613,-0.156764,284,-15,284,-15,380,-26,289,81,0,-0.0348889,0,-1.5,0,0,0,0,-1.88203,-0.173955,0,0,0,0,-0.016794,-0.0183411,10593,0,0,0,0,10966,0,0,0,0,0,0
11820,-3.09926e-12,0,-1.50848e-06,-3.18057e-12,0,0,0,0,0,-4.66141,-0.156764,0.754027,-1.8823,-0.174247,-0.01666,-0.0181948,0,-1.98613,-0.156764,284,-15,284,-15,380,-26,289,81,0,-0.0348889,0,-1.5,0,0,0,0,-1.8823,-0.174247,0,0,0,0,-0.01666,-0.0181948,10593,0,0,0,0,10966,0,0,0,0,0,0
11835,-3.09926e-12,0,-1.50848e-06,-3.18057e-12,0,0,0,0,0,-4.66141,-0.156764,0.754027,-1.88255,-0.174519,-0.0165354,-0.0180587,0,-1.98613,-0.156764,284,-15,284,-15,380,-26,289,81,0,-0.0348889,0,-1.5,0,0,0,0,-1.88255,-0.174519,0,0,0,0,-0.0165354,-0.0180587,10593,0,0,0,0,10966,0,0,0,0,0,0
11851,-3.09926e-12,0,-1.50848e-06,-3.18057e-12,0,0,0,0,0,-4.66141,-0.156764,0.754027,-1.88279,-0.174788,-0.0164117,-0.0179236,0,-1.98613,-0.156764,284,-15,284,-15,380,-26,289,81,0,-0.0348889,0,-1.5,0,0,0,0,-1.88279,-0.174788,0,0,0,0,-0.0164117,-0.0179236,10593,0,0,0,0,10966,0,0,0,0,0,0
11866,-3.09926e-12,0,-1.50848e-06,-3.18057e-12,0,0,0,0,0,-4.66141,-0.156764,0.754027,-1.88305,-0.175074,-0.0162808,-0.0177806,0,-1.98613,-0.156764,284,-15,284,-15,380,-26,289,81,0,-0.0348889,0,-1.5,0,0,0,0,-1.88305,-0.175074,0,0,0,0,-0.0162808,-0.0177806,10593,0,0,0,0,10966,0,0,0,0,0,0
11881,-3.09926e-12,0,-1.50848e-06,-3.18057e-12,0,0,0,0,0,-4.66141,-0.156764,0.754027,-1.8833,-0.175339,-0.016159,-0.0176476,0,-1.98613,-0.156764,284,-15,284,-15,380,-26,289,81,0,-0.0348889,0,-1.5,0,0,0,0,-1.8833,-0.175339,0,0,0,0,-0.016159,-0.0176476,10593,0,0,0,0,10966,0,0,0,0,0,0
11897,-3.09926e-12,0,-1.50848e-06,-3.18057e-12,0,0,0,0,0,-4.66141,-0.156764,0.754027,-1.88355,-0.17562,-0.0160301,-0.0175068,0,-1.98613,-0.156764,284,-15,284,-15,380,-26,289,81,0,-0.0348889,0,-1.5,0,0,0,0,-1.88355,-0.17562,0,0,0,0,-0.0160301,-0.0175068,10593,0,0,0,0,10966,0,0,0,0,0,0
11912,-3.09926e-12,0,-1.50848e-06,-3.18057e-12,0,0,0,0,0,-4.66141,-0.156764,0.754027,-1.88379,-0.175881,-0.0159102,-0.0173759,0,-1.98613,-0.156764,284,-15,284,-15,380,-26,289,81,0,-0.0348889,0,-1.5,0,0,0,0,-1.88379,-0.175881,0,0,0,0,-0.0159102,-0.0173759,10593,0,0,0,0,10966,0,0,0,0,0,0
11927,-3.09926e-12,0,-1.50848e-06,-3.18057e-12,0,0,0,0,0,-4.66141,-0.156764,0.754027,-1.88403,-0.176141,-0.0157912,-0.0172459,0,-1.98613,-0.156764,284,-15,284,-15,380,-26,289,81,0,-0.0348889,0,-1.5,0,0,0,0,-1.88403,-0.176141,0,0,0,0,-0.0157912,-0.0172459,10593,0,0,0,0,10966,0,0,0,0,0,0
11943,-3.09926e-12,0,-1.50848e-06,-3.18057e-12,0,0,0,0,0,-4.66141,-0.156764,0.754027,-1.88427,-0.176398,-0.0156731,-0.0171169,0,-1.98613,-0.156764,284,-15,284,-15,380,-26,289,81,0,-0.0348889,0,-1.5,0,0,0,0,-1.88427,-0.176398,0,0,0,0,-0.0156731,-0.0171169,10593,0,0,0,0,10966,0,0,0,0,0,0
11958,-3.09926e-12,0,-1.50848e-06,-3.18057e-12,0,0,0,0,0,-4.66141,-0.156764,0.754027,-1.88452,-0.176671,-0.0155481,-0.0169804,0,-1.98613,-0.156764,284,-15,284,-15,380,-26,289,81,0,-0.0348889,0,-1.5,0,0,0,0,-1.88452,-0.176671,0,0,0,0,-0.0155481,-0.0169804,10593,0,0,0,0,10966,0,0,0,0,0,0
11972,-3.09926e-12,0,-1.50848e-06,-3.18057e-12,0,0,0,0,0,-4.66141,-0.156764,0.754027,-1.88473,-0.176907,-0.0154395,-0.0168618,0,-1.98613,-0.156764,284,-15,284,-15,380,-26,289,81,0,-0.0348889,0,-1.5,0,0,0,0,-1.88473,-0.176907,0,0,0,0,-0.0154395,-0.0168618,10593,0,0,0,0,10966,0,0,0,0,0,0
11987,-3.09926e-12,0,-1.50848e-06,-3.18057e-12,0,0,0,0,0,-4.66141,-0.156764,0.754027,-1.88496,-0.177159,-0.015324,-0.0167357,0,-1.98613,-0.156764,284,-15,284,-15,380,-26,289,81,0,-0.0348889,0,-1.5,0,0,0,0,-1.88496,-0.177159,0,0,0,0,-0.015324,-0.0167357,10593,0,0,0,0,10966,0,0,0,0,0,0
12003,-3.09926e-12,0,-1.50848e-06,-3.18057e-12,0,0,0,0,0,-4.66141,-0.156764,0.754027,-1.88521,-0.177425,-0.0152018,-0.0166022,0,-1.98613,-0.156764,284,-15,284,-15,380,-26,289,81,0,-0.0348889,0,-1.5,0,0,0,0,-1.88521,-0.177425,0,0,0,0,-0.0152018,-0.0166022,10593,0,0,0,0,10966,0,0,0,0,0,0
12019,-3.09926e-12,0,-1.50848e-06,-3.18057e-12,0,0,0,0,0,-4.66141,-0.156764,0.754027,-1.88543,-0.177673,-0.0150881,-0.016478,0,-1.98613,-0.156764,284,-15,284,-15,380,-26,289,81,0,-0.0348889,0,-1.5,0,0,0,0,-1.88543,-0.177673,0,0,0,0,-0.0150881,-0.016478,10593,0,0,0,0,10966,0,0,0,0,0,0
12035,-3.09926e-12,0,-1.50848e-06,-3.18057e-12,0,0,0,0,0,-4.66141,-0.156764,0.754027,-1.88567,-0.177935,-0.0149677,-0.0163465,0,-1.98613,-0.156764,284,-15,284,-15,380,-26,289,81,0,-0.0348889,0,-1.5,0,0,0,0,-1.88567,-0.177935,0,0,0,0,-0.0149677,-0.0163465,10593,0,0,0,0,10966,0,0,0,0,0,0
12050,-3.09926e-12,0,-1.50848e-06,-3.18057e-12,0,0,0,0,0,-4.66141,-0.156764,0.754027,-1.88591,-0.178196,-0.0148483,-0.0162161,0,-1.98613,-0.156764,284,-15,284,-15,380,-26,289,81,0,-0.0348889,0,-1.5,0,0,0,0,-1.88591,-0.178196,0,0,0,0,-0.0148483,-0.0162161,10593,0,0,0,0,10966,0,0,0,0,0,0
12066,-3.09926e-12,0,-1.50848e-06,-3.18057e-12,0,0,0,0,0,-4.66141,-0.156764,0.754027,-1.88615,-0.178454,-0.0147299,-0.0160868,0,-1.98613,-0.156764,284,-15,284,-15,380,-26,289,81,0,-0.0348889,0,-1.5,0,0,0,0,-1.88615,-0.178454,0,0,0,0,-0.0147299,-0.0160868,10593,0,0,0,0,10966,0,0,0,0,0,0
12081,-3.09926e-12,0,-1.50848e-06,-3.18057e-12,0,0,0,0,0,-4.66141,-0.156764,0.754027,-1.88637,-0.178694,-0.0146197,-0.0159665,0,-1.98613,-0.156764,284,-15,284,-15,380,-26,289,81,0,-0.0348889,0,-1.5,0,0,0,0,-1.88637,-0.178694,0,0,0,0,-0.0146197,-0.0159665,10593,0,0,0,0,10966,0,0,0,0,0,0
12097,-3.09926e-12,0,-1.50848e-06,-3.18057e-12,0,0,0,0,0,-4.66141,-0.156764,0.754027,-1.8866,-0.178948,-0.014503,-0.0158391,0,-1.98613,-0.156764,284,-15,284,-15,380,-26,289,81,0,-0.0348889,0,-1.5,0,0,0,0,-1.8866,-0.178948,0,0,0,0,-0.014503,-0.0158391,10593,0,0,0,0,10966,0,0,0,0,0,0
12113,-3.09926e-12,0,-1.50848e-06,-3.18057e-12,0,0,0,0,0,-4.66141,-0.156764,0.754027,-1.88683,-0.1792,-0.0143874,-0.0157127,0,-1.98613,-0.156764,284,-15,284,-15,380,-26,289,81,0,-0.0348889,0,-1.5,0,0,0,0,-1.88683,-0.1792,0,0,0,0,-0.0143874,-0.0157127,10593,0,0,0,0,10966,0,0,0,0,0,0
12129,-3.09926e-12,0,-1.50848e-06,-3.18057e-12,0,0,0,0,0,-4.66141,-0.156764,0.754027,-1.88706,-0.17945,-0.0142726,-0.0155874,0,-1.98613,-0.156764,284,-15,284,-15,380,-26,289,81,0,-0.0348889,0,-1.5,0,0,0,0,-1.88706,-0.17945,0,0,0,0,-0.0142726,-0.0155874,10593,0,0,0,0,10966,0,0,0,0,0,0
12144,-3.09926e-12,0,-1.50848e-06,-3.18057e-12,0,0,0,0,0,-4.66141,-0.156764,0.754027,-1.88727,-0.179683,-0.0141658,-0.0154708,0,-1.98613,-0.156764,284,-15,284,-15,380,-26,289,81,0,-0.0348889,0,-1.5,0,0,0,0,-1.88727,-0.179683,0,0,0,0,-0.0141658,-0.0154708,10593,0,0,0,0,10966,0,0,0,0,0,0
12159,-3.09926e-12,0,-1.50848e-06,-3.18057e-12,0,0,0,0,0,-4.66141,-0.156764,0.754027,-1.88749,-0.179914,-0.0140599,-0.0153551,0,-1.98613,-0.156764,284,-15,284,-15,380,-26,289,81,0,-0.0348889,0,-1.5,0,0,0,0,-1.88749,-0.179914,0,0,0,0,-0.0140599,-0.0153551,10593,0,0,0,0,10966,0,0,0,0,0,0
12175,-3.09926e-12,0,-1.50848e-06,-3.18057e-12,0,0,0,0,0,-4.66141,-0.156764,0.754027,-1.88771,-0.180158,-0.0139477,-0.0152326,0,-1.98613,-0.156764,284,-15,284,-15,380,-26,289,81,0,-0.0348889,0,-1.5,0,0,0,0,-1.88771,-0.180158,0,0,0,0,-0.0139477,-0.0152326,10593,0,0,0,0,10966,0,0,0,0,0,0
12188,-3.09926e-12,0,-1.50848e-06,-3.18057e-12,0,0,0,0,0,-4.66141,-0.156764,0.754027,-1.88789,-0.180356,-0.0138573,-0.0151338,0,-1.98613,-0.156764,284,-15,284,-15,380,-26,289,81,0,-0.0348889,0,-1.5,0,0,0,0,-1.88789,-0.180356,0,0,0,0,-0.0138573,-0.0151338,10593,0,0,0,0,10966,0,0,0,0,0,0
12202,-3.09926e-12,0,-1.50848e-06,-3.18057e-12,0,0,0,0,0,-4.66141,-0.156764,0.754027,-1.88808,-0.180567,-0.0137606,-0.0150282,0,-1.98613,-0.156764,284,-15,284,-15,380,-26,289,81,0,-0.0348889,0,-1.5,0,0,0,0,-1.88808,-0.180567,0,0,0,0,-0.0137606,-0.0150282,10593,0,0,0,0,10966,0,0,0,0,0,0
12217,-3.09926e-12,0,-1.50848e-06,-3.18057e-12,0,0,0,0,0,-4.66141,-0.156764,0.754027,-1.88829,-0.180791,-0.0136576,-0.0149158,0,-1.98613,-0.156764,284,-15,284,-15,380,-26,289,81,0,-0.0348889,0,-1.5,0,0,0,0,-1.88829,-0.180791,0,0,0,0,-0.0136576,-0.0149158,10593,0,0,0,0,10966,0,0,0,0,0,0
12233,-3.09926e-12,0,-1.50848e-06,-3.18057e-12,0,0,0,0,0,-4.66141,-0.156764,0.754027,-1.88851,-0.181028,-0.0135487,-0.0147968,0,-1.98613,-0.156764,284,-15,284,-15,380,-26,289,81,0,-0.0348889,0,-1.5,0,0,0,0,-1.88851,-0.181028,0,0,0,0,-0.0135487,-0.0147968,10593,0,0,0,0,10966,0,0,0,0,0,0
12249,-3.09926e-12,0,-1.50848e-06,-3.18057e-12,0,0,0,0,0,-4.66141,-0.156764,0.754027,-1.88872,-0.181264,-0.0134406,-0.0146788,0,-1.98613,-0.156764,284,-15,284,-15,380,-26,289,81,0,-0.0348889,0,-1.5,0,0,0,0,-1.88872,-0.181264,0,0,0,0,-0.0134406,-0.0146788,10593,0,0,0,0,10966,0,0,0,0,0,0
12265,-3.09926e-12,0,-1.50848e-06,-3.18057e-12,0,0,0,0,0,-4.66141,-0.156764,0.754027,-1.88894,-0.181497,-0.0133334,-0.0145617,0,-1.98613,-0.156764,284,-15,284,-15,380,-26,289,81,0,-0.0348889,0,-1.5,0,0,0,0,-1.88894,-0.181497,0,0,0,0,-0.0133334,-0.0145617,10593,0,0,0,0,10966,0,0,0,0,0,0
12280,-3.09926e-12,0,-1.50848e-06,-3.18057e-12,0,0,0,0,0,-4.66141,-0.156764,0.754027,-1.88914,-0.181715,-0.0132336,-0.0144527,0,-1.98613,-0.156764,284,-15,284,-15,380,-26,289,81,0,-0.0348889,0,-1.5,0,0,0,0,-1.88914,-0.181715,0,0,0,0,-0.0132336,-0.0144527,10593,0,0,0,0,10966,0,0,0,0,0,0
12296,-3.09926e-12,0,-1.50848e-06,-3.18057e-12,0,0,0,0,0,-4.66141,-0.156764,0.754027,-1.88935,-0.181945,-0.0131281,-0.0143374,0,-1.98613,-0.156764,284,-15,284,-15,380,-26,289,81,0,-0.0348889,0,-1.5,0,0,0,0,-1.88935,-0.181945,0,0,0,0,-0.0131281,-0.0143374,10593,0,0,0,0,10966,0,0,0,0,0,0
12312,-3.09926e-12,0,-1.50848e-06,-3.18057e-12,0,0,0,0,0,-4.66141,-0.156764,0.754027,-1.88955,-0.182173,-0.0130233,-0.0142231,0,-1.98613,-0.156764,284,-15,284,-15,380,-26,289,81,0,-0.0348889,0,-1.5,0,0,0,0,-1.88955,-0.182173,0,0,0,0,-0.0130233,-0.0142231,10593,0,0,0,0,10966,0,0,0,0,0,0
12327,-3.09926e-12,0,-1.50848e-06,-3.18057e-12,0,0,0,0,0,-4.66141,-0.156764,0.754027,-1.88975,-0.182385,-0.0129259,-0.0141167,0,-1.98613,-0.156764,284,-15,284,-15,380,-26,289,81,0,-0.0348889,0,-1.5,0,0,0,0,-1.88975,-0.182385,0,0,0,0,-0.0129259,-0.0141167,10593,0,0,0,0,10966,0,0,0,0,0,0
12343,-3.09926e-12,0,-1.50848e-06,-3.18057e-12,0,0,0,0,0,-4.66141,-0.156764,0.754027,-1.88994,-0.182596,-0.0128292,-0.0140111,0,-1.98613,-0.156764,284,-15,284,-15,380,-26,289,81,0,-0.0348889,0,-1.5,0,0,0,0,-1.88994,-0.182596,0,0,0,0,-0.0128292,-0.0140111,10593,0,0,0,0,10966,0,0,0,0,0,0
12358,-3.09926e-12,0,-1.50848e-06,-3.18057e-12,0,0,0,0,0,-4.66141,-0.156764,0.754027,-1.89015,-0.182819,-0.0127269,-0.0138993,0,-1.98613,-0.156764,284,-15,284,-15,380,-26,289,81,0,-0.0348889,0,-1.5,0,0,0,0,-1.89015,-0.182819,0,0,0,0,-0.0127269,-0.0138993,10593,0,0,0,0,10966,0,0,0,0,0,0
12374,-3.09926e-12,0,-1.50848e-06,-3.18057e-12,0,0,0,0,0,-4.66141,-0.156764,0.754027,-1.89035,-0.18304,-0.0126254,-0.0137885,0,-1.98613,-0.156764,284,-15,284,-15,380,-26,289,81,0,-0.0348889,0,-1.5,0,0,0,0,-1.89035,-0.18304,0,0,0,0,-0.0126254,-0.0137885,10593,0,0,0,0,10966,0,0,0,0,0,0
12389,-3.09926e-12,0,-1.50848e-06,-3.18057e-12,0,0,0,0,0,-4.66141,-0.156764,0.754027,-1.89054,-0.183246,-0.012531,-0.0136853,0,-1.98613,-0.156764,284,-15,284,-15,380,-26,289,81,0,-0.0348889,0,-1.5,0,0,0,0,-1.89054,-0.183246,0,0,0,0,-0.012531,-0.0136853,10593,0,0,0,0,10966,0,0,0,0,0,0
12403,-3.09926e-12,0,-1.50848e-06,-3.18057e-12,0,0,0,0,0,-4.66141,-0.156764,0.754027,-1.89071,-0.183437,-0.0124435,-0.0135898,0,-1.98613,-0.156764,284,-15,284,-15,380,-26,289,81,0,-0.0348889,0,-1.5,0,0,0,0,-1.89071,-0.183437,0,0,0,0,-0.0124435,-0.0135898,10593,0,0,0,0,10966,0,0,0,0,0,0
12416,-3.09926e-12,0,-1.50848e-06,-3.18057e-12,0,0,0,0,0,-4.66141,-0.156764,0.754027,-1.89087,-0.183613,-0.0123628,-0.0135016,0,-1.98613,-0.156764,284,-15,284,-15,380,-26,289,81,0,-0.0348889,0,-1.5,0,0,0,0,-1.89087,-0.183613,0,0,0,0,-0.0123628,-0.0135016,10593,0,0,0,0,10966,0,0,0,0,0,0
12432,-3.09926e-12,0,-1.50848e-06,-3.18057e-12,0,0,0,0,0,-4.66141,-0.156764,0.754027,-1.89107,-0.183828,-0.0122641,-0.0133939,0,-1.98613,-0.156764,284,-15,284,-15,380,-26,289,81,0,-0.0348889,0,-1.5,0,0,0,0,-1.89107,-0.183828,0,0,0,0,-0.0122641,-0.0133939,10593,0,0,0,0,10966,0,0,0,0,0,0
12448,-3.09926e-12,0,-1.50848e-06,-3.18057e-12,0,0,0,0,0,-4.66141,-0.156764,0.754027,-1.89127,-0.184041,-0.0121663,-0.0132871,0,-1.98613,-0.156764,284,-15,284,-15,380,-26,289,81,0,-0.0348889,0,-1.5,0,0,0,0,-1.89127,-0.184041,0,0,0,0,-0.0121663,-0.0132871,10593,0,0,0,0,10966,0,0,0,0,0,0
12464,-3.09926e-12,0,-1.50848e-06,-3.18057e-12,0,0,0,0,0,-4.66141,-0.156764,0.754027,-1.89146,-0.184253,-0.0120693,-0.0131811,0,-1.98613,-0.156764,284,-15,284,-15,380,-26,289,81,0,-0.0348889,0,-1.5,0,0,0,0,-1.89146,-0.184253,0,0,0,0,-0.0120693,-0.0131811,10593,0,0,0,0,10966,0,0,0,0,0,0
12479,-3.09926e-12,0,-1.50848e-06,-3.18057e-12,0,0,0,0,0,-4.66141,-0.156764,0.754027,-1.89164,-0.184449,-0.011979,-0.0130825,0,-1.98613,-0.156764,284,-15,284,-15,380,-26,289,81,0,-0.0348889,0,-1.5,0,0,0,0,-1.89164,-0.184449,0,0,0,0,-0.011979,-0.0130825,10593,0,0,0,0,10966,0,0,0,0,0,0
12495,-3.09926e-12,0,-1.50848e-06,-3.18057e-12,0,0,0,0,0,-4.66141,-0.156764,0.754027,-1.89183,-0.184658,-0.0118834,-0.0129781,0,-1.98613,-0.156764,284,-15,284,-15,380,-26,289,81,0,-0.0348889,0,-1.5,0,0,0,0,-1.89183,-0.184658,0,0,0,0,-0.0118834,-0.0129781,10593,0,0,0,0,10966,0,0,0,0,0,0
12511,-3.09926e-12,0,-1.50848e-06,-3.18057e-12,0,0,0,0,0,-4.66141,-0.156764,0.754027,-1.89202,-0.184864,-0.0117886,-0.0128746,0,-1.98613,-0.156764,284,-15,284,-15,380,-26,289,81,0,-0.0348889,0,-1.5,0,0,0,0,-1.89202,-0.184864,0,0,0,0,-0.0117886,-0.0128746,10593,0,0,0,0,10966,0,0,0,0,0,0
12526,-3.09926e-12,0,-1.50848e-06,-3.18057e-12,0,0,0,0,0,-4.66141,-0.156764,0.754027,-1.89219,-0.185056,-0.0117005,-0.0127783,0,-1.98613,-0.156764,284,-15,284,-15,380,-26,289,81,0,-0.0348889,0,-1.5,0,0,0,0,-1.89219,-0.185056,0,0,0,0,-0.0117005,-0.0127783,10593,0,0,0,0,10966,0,0,0,0,0,0
12542,-3.09926e-12,0,-1.50848e-06,-3.18057e-12,0,0,0,0,0,-4.66141,-0.156764,0.754027,-1.89237,-0.185247,-0.0116129,-0.0126827,0,-1.98613,-0.156764,284,-15,284,-15,380,-26,289,81,0,-0.0348889,0,-1.5,0,0,0,0,-1.89237,-0.185247,0,0,0,0,-0.0116129,-0.0126827,10593,0,0,0,0,10966,0,0,0,0,0,0
12557,-3.09926e-12,0,-1.50848e-06,-3.18057e-12,0,0,0,0,0,-4.66141,-0.156764,0.754027,-1.89255,-0.185449,-0.0115203,-0.0125816,0,-1.98613,-0.156764,284,-15,284,-15,380,-26,289,81,0,-0.0348889,0,-1.5,0,0,0,0,-1.89255,-0.185449,0,0,0,0,-0.0115203,-0.0125816,10593,0,0,0,0,10966,0,0,0,0,0,0
12573,-3.09926e-12,0,-1.50848e-06,-3.18057e-12,0,0,0,0,0,-4.66141,-0.156764,0.754027,-1.89274,-0.185649,-0.0114284,-0.0124812,0,-1.98613,-0.156764,284,-15,284,-15,380,-26,289,81,0,-0.0348889,0,-1.5,0,0,0,0,-1.89274,-0.185649,0,0,0,0,-0.0114284,-0.0124812,10593,0,0,0,0,10966,0,0,0,0,0,0
12588,-3.09926e-12,0,-1.50848e-06,-3.18057e-12,0,0,0,0,0,-4.66141,-0.156764,0.754027,-1.89291,-0.185836,-0.0113429,-0.0123879,0,-1.98613,-0.156764,284,-15,284,-15,380,-26,289,81,0,-0.0348889,0,-1.5,0,0,0,0,-1.89291,-0.185836,0,0,0,0,-0.0113429,-0.0123879,10593,0,0,0,0,10966,0,0,0,0,0,0
12606,-3.09926e-12,0,-1.50848e-06,-3.18057e-12,0,0,0,0,0,-4.66141,-0.156764,0.754027,-1.89311,-0.186057,-0.0112411,-0.0122767,0,-1.98613,-0.156764,284,-15,284,-15,380,-26,289,81,0,-0.0348889,0,-1.5,0,0,0,0,-1.89311,-0.186057,0,0,0,0,-0.0112411,-0.0122767,10593,0,0,0,0,10966,0,0,0,0,0,0
12620,-3.09926e-12,0,-1.50848e-06,-3.18057e-12,0,0,0,0,0,-4.66141,-0.156764,0.754027,-1.89327,-0.186228,-0.0111627,-0.012191,0,-1.98613,-0.156764,284,-15,284,-15,380,-26,289,81,0,-0.0348889,0,-1.5,0,0,0,0,-1.89327,-0.186228,0,0,0,0,-0.0111627,-0.012191,10593,0,0,0,0,10966,0,0,0,0,0,0
12634,-3.09926e-12,0,-1.50848e-06,-3.18057e-12,0,0,0,0,0,-4.66141,-0.156764,0.754027,-1.89342,-0.186398,-0.0110847,-0.0121059,0,-1.98613,-0.156764,284,-15,284,-15,380,-26,289,81,0,-0.0348889,0,-1.5,0,0,0,0,-1.89342,-0.186398,0,0,0,0,-0.0110847,-0.0121059,10593,0,0,0,0,10966,0,0,0,0,0,0
12649,-3.09926e-12,0,-1.50848e-06,-3.18057e-12,0,0,0,0,0,-4.66141,-0.156764,0.754027,-1.89359,-0.186579,-0.0110018,-0.0120153,0,-1.98613,-0.156764,284,-15,284,-15,380,-26,289,81,0,-0.0348889,0,-1.5,0,0,0,0,-1.89359,-0.186579,0,0,0,0,-0.0110018,-0.0120153,10593,0,0,0,0,10966,0,0,0,0,0,0
12665,-3.09926e-12,0,-1.50848e-06,-3.18057e-12,0,0,0,0,0,-4.66141,-0.156764,0.754027,-1.89376,-0.18677,-0.010914,-0.0119195,0,-1.98613,-0.156764,284,-15,284,-15,380,-26,289,81,0,-0.0348889,0,-1.5,0,0,0,0,-1.89376,-0.18677,0,0,0,0,-0.010914,-0.0119195,10593,0,0,0,0,10966,0,0,0,0,0,0
12681,-3.09926e-12,0,-1.50848e-06,-3.18057e-12,0,0,0,0,0,-4.66141,-0.156764,0.754027,-1.89393,-0.186948,-0.0108324,-0.0118303,0,-1.98613,-0.156764,284,-15,284,-15,380,-26,289,81,0,-0.0348889,0,-1.5,0,0,0,0,-1.89393,-0.186948,0,0,0,0,-0.0108324,-0.0118303,10593,0,0,0,0,10966,0,0,0,0,0,0
12697,-3.09926e-12,0,-1.50848e-06,-3.18057e-12,0,0,0,0,0,-4.66141,-0.156764,0.754027,-1.89411,-0.187148,-0.0107406,-0.01173,0,-1.98613,-0.156764,284,-15,284,-15,380,-26,289,81,0,-0.0348889,0,-1.5,0,0,0,0,-1.89411,-0.187148,0,0,0,0,-0.0107406,-0.01173,10593,0,0,0,0,10966,0,0,0,0,0,0
12712,-3.09926e-12,0,-1.50848e-06,-3.18057e-12,0,0,0,0,0,-4.66141,-0.156764,0.754027,-1.89427,-0.187323,-0.0106603,-0.0116423,0,-1.98613,-0.156764,284,-15,284,-15,380,-26,289,81,0,-0.0348889,0,-1.5,0,0,0,0,-1.89427,-0.187323,0,0,0,0,-0.0106603,-0.0116423,10593,0,0,0,0,10966,0,0,0,0,0,0
12727,-3.09926e-12,0,-1.50848e-06,-3.18057e-12,0,0,0,0,0,-4.66141,-0.156764,0.754027,-1.89443,-0.187497,-0.0105805,-0.0115552,0,-1.98613,-0.156764,284,-15,284,-15,380,-26,289,81,0,-0.0348889,0,-1.5,0,0,0,0,-1.89443,-0.187497,0,0,0,0,-0.0105805,-0.0115552,10593,0,0,0,0,10966,0,0,0,0,0,0
12743,-3.09926e-12,0,-1.50848e-06,-3.18057e-12,0,0,0,0,0,-4.66141,-0.156764,0.754027,-1.8946,-0.187681,-0.0104961,-0.011463,0,-1.98613,-0.156764,284,-15,284,-15,380,-26,289,81,0,-0.0348889,0,-1.5,0,0,0,0,-1.8946,-0.187681,0,0,0,0,-0.0104961,-0.011463,10593,0,0,0,0,10966,0,0,0,0,0,0
12758,-3.09926e-12,0,-1.50848e-06,-3.18057e-12,0,0,0,0,0,-4.66141,-0.156764,0.754027,-1.89475,-0.187852,-0.0104176,-0.0113773,0,-1.98613,-0.156764,284,-15,284,-15,380,-26,289,81,0,-0.0348889,0,-1.5,0,0,0,0,-1.89475,-0.187852,0,0,0,0,-0.0104176,-0.0113773,10593,0,0,0,0,10966,0,0,0,0,0,0
12774,-3.09926e-12,0,-1.50848e-06,-3.18057e-12,0,0,0,0,0,-4.66141,-0.156764,0.754027,-1.89492,-0.188033,-0.0103345,-0.0112865,0,-1.98613,-0.156764,284,-15,284,-15,380,-26,289,81,0,-0.0348889,0,-1.5,0,0,0,0,-1.89492,-0.188033,0,0,0,0,-0.0103345,-0.0112865,10593,0,0,0,0,10966,0,0,0,0,0,0
12789,-3.09926e-12,0,-1.50848e-06,-3.18057e-12,0,0,0,0,0,-4.66141,-0.156764,0.754027,-1.89507,-0.188202,-0.0102572,-0.0112021,0,-1.98613,-0.156764,284,-15,284,-15,380,-26,289,81,0,-0.0348889,0,-1.5,0,0,0,0,-1.89507,-0.188202,0,0,0,0,-0.0102572,-0.0112021,10593,0,0,0,0,10966,0,0,0,0,0,0
12805,-3.09926e-12,0,-1.50848e-06,-3.18057e-12,0,0,0,0,0,-4.66141,-0.156764,0.754027,-1.89524,-0.18838,-0.0101754,-0.0111127,0,-1.98613,-0.156764,284,-15,284,-15,380,-26,289,81,0,-0.0348889,0,-1.5,0,0,0,0,-1.89524,-0.18838,0,0,0,0,-0.0101754,-0.0111127,10593,0,0,0,0,10966,0,0,0,0,0,0
12821,-3.09926e-12,0,-1.50848e-06,-3.18057e-12,0,0,0,0,0,-4.66141,-0.156764,0.754027,-1.89539,-0.188546,-0.0100993,-0.0110296,0,-1.98613,-0.156764,284,-15,284,-15,380,-26,289,81,0,-0.0348889,0,-1.5,0,0,0,0,-1.89539,-0.188546,0,0,0,0,-0.0100993,-0.0110296,10593,0,0,0,0,10966,0,0,0,0,0,0
12837,-3.09926e-12,0,-1.50848e-06,-3.18057e-12,0,0,0,0,0,-4.66141,-0.156764,0.754027,-1.89555,-0.188722,-0.0100187,-0.0109416,0,-1.98613,-0.156764,284,-15,284,-15,380,-26,289,81,0,-0.0348889,0,-1.5,0,0,0,0,-1.89555,-0.188722,0,0,0,0,-0.0100187,-0.0109416,10593,0,0,0,0,10966,0,0,0,0,0,0
12850,-3.09926e-12,0,-1.50848e-06,-3.18057e-12,0,0,0,0,0,-4.66141,-0.156764,0.754027,-1.89569,-0.188874,-0.00994874,-0.0108652,0,-1.98613,-0.156764,284,-15,284,-15,380,-26,289,81,0,-0.0348889,0,-1.5,0,0,0,0,-1.89569,-0.188874,0,0,0,0,-0.00994874,-0.0108652,10593,0,0,0,0,10966,0,0,0,0,0,0
12864,-3.09926e-12,0,-1.50848e-06,-3.18057e-12,0,0,0,0,0,-4.66141,-0.156764,0.754027,-1.89582,-0.189015,-0.00988424,-0.0107948,0,-1.98613,-0.156764,284,-15,284,-15,380,-26,289,81,0,-0.0348889,0,-1.5,0,0,0,0,-1.89582,-0.189015,0,0,0,0,-0.00988424,-0.0107948,10593,0,0,0,0,10966,0,0,0,0,0,0
12879,-3.09926e-12,0,-1.50848e-06,-3.18057e-12,0,0,0,0,0,-4.66141,-0.156764,0.754027,-1.89598,-0.189187,-0.00980539,-0.0107087,0,-1.98613,-0.156764,284,-15,284,-15,380,-26,289,81,0,-0.0348889,0,-1.5,0,0,0,0,-1.89598,-0.189187,0,0,0,0,-0.00980539,-0.0107087,10593,0,0,0,0,10966,0,0,0,0,0,0
12894,-3.09926e-12,0,-1.50848e-06,-3.18057e-12,0,0,0,0,0,-4.66141,-0.156764,0.754027,-1.89612,-0.189346,-0.00973205,-0.0106286,0,-1.98613,-0.156764,284,-15,284,-15,380,-26,289,81,0,-0.0348889,0,-1.5,0,0,0,0,-1.89612,-0.189346,0,0,0,0,-0.00973205,-0.0106286,10593,0,0,0,0,10966,0,0,0,0,0,0
12910,-3.09926e-12,0,-1.50848e-06,-3.18057e-12,0,0,0,0,0,-4.66141,-0.156764,0.754027,-1.89628,-0.189516,-0.00965442,-0.0105438,0,-1.98613,-0.156764,284,-15,284,-15,380,-26,289,81,0,-0.0348889,0,-1.5,0,0,0,0,-1.89628,-0.189516,0,0,0,0,-0.00965442,-0.0105438,10593,0,0,0,0,10966,0,0,0,0,0,0
12925,-3.09926e-12,0,-1.50848e-06,-3.18057e-12,0,0,0,0,0,-4.66141,-0.156764,0.754027,-1.89642,-0.189673,-0.0095822,-0.0104649,0,-1.98613,-0.156764,284,-15,284,-15,380,-26,289,81,0,-0.0348889,0,-1.5,0,0,0,0,-1.89642,-0.189673,0,0,0,0,-0.0095822,-0.0104649,10593,0,0,0,0,10966,0,0,0,0,0,0
12941,-3.09926e-12,0,-1.50848e-06,-3.18057e-12,0,0,0,0,0,-4.66141,-0.156764,0.754027,-1.89657,-0.18984,-0.00950577,-0.0103815,0,-1.98613,-0.156764,284,-15,284,-15,380,-26,289,81,0,-0.0348889,0,-1.5,0,0,0,0,-1.89657,-0.18984,0,0,0,0,-0.00950577,-0.0103815,10593,0,0,0,0,10966,0,0,0,0,0,0
12956,-3.09926e-12,0,-1.50848e-06,-3.18057e-12,0,0,0,0,0,-4.66141,-0.156764,0.754027,-1.89672,-0.189995,-0.00943466,-0.0103038,0,-1.98613,-0.156764,284,-15,284,-15,380,-26,289,81,0,-0.0348889,0,-1.5,0,0,0,0,-1.89672,-0.189995,0,0,0,0,-0.00943466,-0.0103038,10593,0,0,0,0,10966,0,0,0,0,0,0
12972,-3.09926e-12,0,-1.50848e-06,-3.18057e-12,0,0,0,0,0,-4.66141,-0.156764,0.754027,-1.89686,-0.190148,-0.00936409,-0.0102267,0,-1.98613,-0.156764,284,-15,284,-15,380,-26,289,81,0,-0.0348889,0,-1.5,0,0,0,0,-1.89686,-0.190148,0,0,0,0,-0.00936409,-0.0102267,10593,0,0,0,0,10966,0,0,0,0,0,0
12987,-3.09926e-12,0,-1.50848e-06,-3.18057e-12,0,0,0,0,0,-4.66141,-0.156764,0.754027,-1.89701,-0.190311,-0.0092894,-0.0101452,0,-1.98613,-0.156764,284,-15,284,-15,380,-26,289,81,0,-0.0348889,0,-1.5,0,0,0,0,-1.89701,-0.190311,0,0,0,0,-0.0092894,-0.0101452,10593,0,0,0,0,10966,0,0,0,0,0,0
13003,-3.09926e-12,0,-1.50848e-06,-3.18057e-12,0,0,0,0,0,-4.66141,-0.156764,0.754027,-1.89715,-0.190473,-0.0092153,-0.0100642,0,-1.98613,-0.156764,284,-15,284,-15,380,-26,289,81,0,-0.0348889,0,-1.5,0,0,0,0,-1.89715,-0.190473,0,0,0,0,-0.0092153,-0.0100642,10593,0,0,0,0,10966,0,0,0,0,0,0
13018,-3.09926e-12,0,-1.50848e-06,-3.18057e-12,0,0,0,0,0,-4.66141,-0.156764,0.754027,-1.89729,-0.190623,-0.00914636,-0.00998894,0,-1.98613,-0.156764,284,-15,284,-15,380,-26,289,81,0,-0.0348889,0,-1.5,0,0,0,0,-1.89729,-0.190623,0,0,0,0,-0.00914636,-0.00998894,10593,0,0,0,0,10966,0,0,0,0,0,0
13034,-3.09926e-12,0,-1.50848e-06,-3.18057e-12,0,0,0,0,0,-4.66141,-0.156764,0.754027,-1.89744,-0.190782,-0.00907339,-0.00990925,0,-1.98613,-0.156764,284,-15,284,-15,380,-26,289,81,0,-0.0348889,0,-1.5,0,0,0,0,-1.89744,-0.190782,0,0,0,0,-0.00907339,-0.00990925,10593,0,0,0,0,10966,0,0,0,0,0,0
13050,-3.09926e-12,0,-1.50848e-06,-3.18057e-12,0,0,0,0,0,-4.66141,-0.156764,0.754027,-1.89758,-0.19094,-0.00900102,-0.00983021,0,-1.98613,-0.156764,284,-15,284,-15,380,-26,289,81,0,-0.0348889,0,-1.5,0,0,0,0,-1.89758,-0.19094,0,0,0,0,-0.00900102,-0.00983021,10593,0,0,0,0,10966,0,0,0,0,0,0
13064,-3.09926e-12,0,-1.50848e-06,-3.18057e-12,0,0,0,0,0,-4.66141,-0.156764,0.754027,-1.89771,-0.191077,-0.00893818,-0.00976158,0,-1.98613,-0.156764,284,-15,284,-15,380,-26,289,81,0,-0.0348889,0,-1.5,0,0,0,0,-1.89771,-0.191077,0,0,0,0,-0.00893818,-0.00976158,10593,0,0,0,0,10966,0,0,0,0,0,0
13077,-3.09926e-12,0,-1.50848e-06,-3.18057e-12,0,0,0,0,0,-4.66141,-0.156764,0.754027,-1.89782,-0.191203,-0.00888023,-0.00969829,0,-1.98613,-0.156764,284,-15,284,-15,380,-26,289,81,0,-0.0348889,0,-1.5,0,0,0,0,-1.89782,-0.191203,0,0,0,0,-0.00888023,-0.00969829,10593,0,0,0,0,10966,0,0,0,0,0,0
13092,-3.09926e-12,0,-1.50848e-06,-3.18057e-12,0,0,0,0,0,-4.66141,-0.156764,0.754027,-1.89796,-0.191348,-0.0088138,-0.00962575,0,-1.98613,-0.156764,284,-15,284,-15,380,-26,289,81,0,-0.0348889,0,-1.5,0,0,0,0,-1.89796,-0.191348,0,0,0,0,-0.0088138,-0.00962575,10593,0,0,0,0,10966,0,0,0,0,0,0
13108,-3.09926e-12,0,-1.50848e-06,-3.18057e-12,0,0,0,0,0,-4.66141,-0.156764,0.754027,-1.8981,-0.191501,-0.00874349,-0.00954895,0,-1.98613,-0.156764,284,-15,284,-15,380,-26,289,81,0,-0.0348889,0,-1.5,0,0,0,0,-1.8981,-0.191501,0,0,0,0,-0.00874349,-0.00954895,10593,0,0,0,0,10966,0,0,0,0,0,0
13124,-3.09926e-12,0,-1.50848e-06,-3.18057e-12,0,0,0,0,0,-4.66141,-0.156764,0.754027,-1.89823,-0.191644,-0.00867809,-0.00947753,0,-1.98613,-0.156764,284,-15,284,-15,380,-26,289,81,0,-0.0348889,0,-1.5,0,0,0,0,-1.89823,-0.191644,0,0,0,0,-0.00867809,-0.00947753,10593,0,0,0,0,10966,0,0,0,0,0,0
13139,-3.09926e-12,0,-1.50848e-06,-3.18057e-12,0,0,0,0,0,-4.66141,-0.156764,0.754027,-1.89836,-0.191794,-0.00860885,-0.00940191,0,-1.98613,-0.156764,284,-15,284,-15,380,-26,289,81,0,-0.0348889,0,-1.5,0,0,0,0,-1.89836,-0.191794,0,0,0,0,-0.00860885,-0.00940191,10593,0,0,0,0,10966,0,0,0,0,0,0
13155,-3.09926e-12,0,-1.50848e-06,-3.18057e-12,0,0,0,0,0,-4.66141,-0.156764,0.754027,-1.8985,-0.191944,-0.00854018,-0.00932692,0,-1.98613,-0.156764,284,-15,284,-15,380,-26,289,81,0,-0.0348889,0,-1.5,0,0,0,0,-1.8985,-0.191944,0,0,0,0,-0.00854018,-0.00932692,10593,0,0,0,0,10966,0,0,0,0,0,0
