timestamp,A_x,A_y,A_z,P,Q,R,Phi,Theta,Psi,poseX,poseY,poseZ,state_X,state_Y,state_Z,state_VzB,state_Bx,state_By,state_Bz,p1_x,p1_y,p2_x,p2_y,p3_x,p3_y,p4_x,p4_y,roll,pitch,yaw,alt,targetHeading,highLevelState,lowLevelState,gateNumber,filtered_x,filtered_y,x_OT,y_OT,vx_OT,vy_OT,filtered_vx,filtered_vygateArearansac_corr_x,ransac_corr_y,ransac_corr_vx,ransac_corr_vy,detectionTimeStamppTermX,dTermX,pTermY,dTermY,vxcmd,vycmd
9186,0,0,0,0,0,0,0,0,0,0,0,0,0,0,0,0,0,0,0,0,0,0,0,0,0,0,0,-0.277562,-0.0348889,0,-1.5,3.94113e+12,0,0,0,0,0,0,0,0,0,0,0,1.9603e-19,0,0,0,0,0,0,0,0,0,0,0
9724,-3.32662e-12,1.04114e-37,-1.61279e-06,-3.40794e-12,1.04104e-37,0,0,0,0,0,0,0,0,0,0,0,0,0,0,0,0,0,0,0,0,0,0,-0.277562,-0.0348889,0,-1.5,3.94113e+12,0,0,0,0,0,0,0,0,0,0,0,1.9603e-19,0,0,0,0,0,0,0,0,0,0,0
9743,-3.32662e-12,1.04114e-37,-1.61279e-06,-3.40794e-12,1.04104e-37,0,0,0,0,0,0,0,0,0,0,0,0,0,0,0,0,0,0,0,0,0,0,-0.277562,-0.0348889,0,-1.5,3.94113e+12,0,0,0,0,0,0,0,0,0,0,0,1.9603e-19,0,0,0,0,0,0,0,0,0,0,0
9760,-3.32662e-12,1.04114e-37,-1.61279e-06,-3.40794e-12,1.04104e-37,0,0,0,0,0,0,0,0,0,0,0,0,0,0,0,0,0,0,0,0,0,0,-0.277562,-0.0348889,0,-1.5,3.94113e+12,0,0,0,0,0,0,0,0,0,0,0,1.9603e-19,0,0,0,0,0,0,0,0,0,0,0
9778,-3.32662e-12,1.04114e-37,-1.61279e-06,-3.40794e-12,1.04104e-37,0,0,0,0,0,0,0,0,0,0,0,0,0,0,0,0,0,0,0,0,0,0,-0.277562,-0.0348889,0,-1.5,3.94113e+12,0,0,0,0,0,0,0,0,0,0,0,1.9603e-19,0,0,0,0,0,0,0,0,0,0,0
9796,-3.32662e-12,1.04114e-37,-1.61279e-06,-3.40794e-12,1.04104e-37,0,0,0,0,0,0,0,0,0,0,0,0,0,0,0,0,0,0,0,0,0,0,-0.277562,-0.0348889,0,-1.5,3.94113e+12,0,0,0,0,0,0,0,0,0,0,0,1.9603e-19,0,0,0,0,0,0,0,0,0,0,0
9813,-3.32662e-12,1.04114e-37,-1.61279e-06,-3.40794e-12,1.04104e-37,0,0,0,0,0,0,0,0,0,0,0,0,0,0,0,0,0,0,0,0,0,0,-0.277562,-0.0348889,0,-1.5,3.94113e+12,0,0,0,0,0,0,0,0,0,0,0,1.9603e-19,0,0,0,0,0,0,0,0,0,0,0
9831,-3.32662e-12,1.04114e-37,-1.61279e-06,-3.40794e-12,1.04104e-37,0,0,0,0,0,0,0,0,0,0,0,0,0,0,0,0,0,0,0,0,0,0,-0.277562,-0.0348889,0,-1.5,3.94113e+12,0,0,0,0,0,0,0,0,0,0,0,1.9603e-19,0,0,0,0,0,0,0,0,0,0,0
9874,-3.32662e-12,1.04114e-37,-1.61279e-06,-3.40794e-12,1.04104e-37,0,0,0,0,0,0,0,0,0,0,0,0,0,0,0,0,0,0,0,0,0,0,-0.277562,-0.0348889,0,-1.5,3.94113e+12,0,0,0,0,0,0,0,0,0,0,0,1.9603e-19,0,0,0,0,0,0,0,0,0,0,0
9898,-3.32662e-12,1.04114e-37,-1.61279e-06,-3.40794e-12,1.04104e-37,0,0,0,0,0,0,0,0,0,0,0,0,0,0,0,0,0,0,0,0,0,0,-0.277562,-0.0348889,0,-1.5,3.94113e+12,0,0,0,0,0,0,0,0,0,0,0,1.9603e-19,0,0,0,0,0,0,0,0,0,0,0
9990,-3.32662e-12,1.04114e-37,-1.61279e-06,-3.40794e-12,1.04104e-37,0,0,0,0,-3.55769,0.182819,0.526898,0,0,0,0,0,-0.474041,0.182819,235,-69,235,-69,361,-82,239,56,-0.277562,-0.0348889,0,-1.5,3.94113e+12,0,0,0,0,0,0,0,0,0,0,0,17526,0,0,0,0,9979,0,0,0,0,0,0
10008,-3.32662e-12,1.04114e-37,-1.61279e-06,-3.40794e-12,1.04104e-37,0,0,0,0,-3.60206,0.198266,0.550182,0,0,0,0,0,-0.534822,0.198266,233,-67,233,-67,355,-80,239,55,-0.277562,-0.0348889,0,-1.5,3.94113e+12,0,0,0,0,0,0,0,0,0,0,0,17685,0,0,0,0,10000,0,0,0,0,0,0
10026,-3.32662e-12,1.04114e-37,-1.61279e-06,-3.40794e-12,1.04104e-37,0,0,0,0,-3.44954,0.201064,0.481858,0,0,0,0,0,-0.325864,0.201064,231,-69,231,-69,355,-95,239,60,-0.277562,-0.0348889,0,-1.5,3.94113e+12,0,0,0,0,0,0,0,0,0,0,0,20305,0,0,0,0,10023,0,0,0,0,0,0
10044,-3.32662e-12,1.04114e-37,-1.61279e-06,-3.40794e-12,1.04104e-37,0,0,0,0,-3.44954,0.201064,0.481858,0,0,0,0,0,-0.325864,0.201064,231,-69,231,-69,355,-95,239,60,-0.277562,-0.0348889,0,-1.5,3.94113e+12,0,0,0,0,0,0,0,0,0,0,0,20305,0,0,0,0,10023,0,0,0,0,0,0
10070,-3.32662e-12,1.04114e-37,-1.61279e-06,-3.40794e-12,1.04104e-37,0,0,0,0,-3.48033,0.200181,0.554443,0,0,0,0,0,-0.368051,0.200181,231,-74,231,-74,356,-100,239,50,-0.40847,-0.0348889,0,-1.5,3.94113e+12,0,0,0,-0.271694,0.201288,0,0,0,0,3.70603,0.0425571,19650,-0.368051,0.200181,3.70603,0.0425571,10051,0,0,0,0,0,0
10091,-3.32662e-12,1.04114e-37,-1.61279e-06,-3.40794e-12,1.04104e-37,0,0,0,0,-3.57863,0.221074,0.66291,0,0,0,0,0,-0.502727,0.221074,225,-81,225,-81,353,-93,239,40,-0.580688,-0.0348889,0,-1.5,3.94113e+12,0,0,0,-0.546943,0.226077,0,0,0,0,-3.15826,0.357321,18354,-0.502727,0.221074,-3.15826,0.357321,10080,0,0,0,0,0,0
10108,-3.32662e-12,1.04114e-37,-1.61279e-06,-3.40794e-12,1.04104e-37,0,0,0,0,-3.57863,0.221074,0.66291,0,0,0,0,0,-0.502727,0.221074,225,-81,225,-81,353,-93,239,40,-0.341549,-0.0348889,0,-1.5,3.94113e+12,0,0,0,-0.597475,0.231794,0,0,0,0,-3.15826,0.357321,18354,-0.502727,0.221074,-3.15826,0.357321,10080,0,0,0,0,0,0
10123,-3.32662e-12,1.04114e-37,-1.61279e-06,-3.40794e-12,1.04104e-37,0,0,0,0,-3.57863,0.221074,0.66291,0,0,0,0,0,-0.502727,0.221074,225,-81,225,-81,353,-93,239,40,-0.345643,-0.0348889,0,-1.5,3.94113e+12,0,0,0,-0.648007,0.237511,0,0,0,0,-3.15826,0.357321,18354,-0.502727,0.221074,-3.15826,0.357321,10080,0,0,0,0,0,0
10139,-3.32662e-12,1.04114e-37,-1.61279e-06,-3.40794e-12,1.04104e-37,0,0,0,0,-3.57863,0.221074,0.66291,0,0,0,0,0,-0.502727,0.221074,225,-81,225,-81,353,-93,239,40,-0.349724,-0.0348889,0,-1.5,3.94113e+12,0,0,0,-0.698539,0.243228,0,0,0,0,-3.15826,0.357321,18354,-0.502727,0.221074,-3.15826,0.357321,10080,0,0,0,0,0,0
10156,-3.32662e-12,1.04114e-37,-1.61279e-06,-3.40794e-12,1.04104e-37,0,0,0,0,-3.57863,0.221074,0.66291,0,0,0,0,0,-0.502727,0.221074,225,-81,225,-81,353,-93,239,40,-0.354047,-0.0348889,0,-1.5,3.94113e+12,0,0,0,-0.75223,0.249303,0,0,0,0,-3.15826,0.357321,18354,-0.502727,0.221074,-3.15826,0.357321,10080,0,0,0,0,0,0
10174,-3.32662e-12,1.04114e-37,-1.61279e-06,-3.40794e-12,1.04104e-37,0,0,0,0,-3.57863,0.221074,0.66291,0,0,0,0,0,-0.502727,0.221074,225,-81,225,-81,353,-93,239,40,-0.358356,-0.0348889,0,-1.5,3.94113e+12,0,0,0,-0.80592,0.255377,0,0,0,0,-3.15826,0.357321,18354,-0.502727,0.221074,-3.15826,0.357321,10080,0,0,0,0,0,0
10191,-3.32662e-12,1.04114e-37,-1.61279e-06,-3.40794e-12,1.04104e-37,0,0,0,0,-3.57863,0.221074,0.66291,0,0,0,0,0,-0.502727,0.221074,225,-81,225,-81,353,-93,239,40,-0.362904,-0.0348889,0,-1.5,3.94113e+12,0,0,0,-0.862769,0.261809,0,0,0,0,-3.15826,0.357321,18354,-0.502727,0.221074,-3.15826,0.357321,10080,0,0,0,0,0,0
10209,-3.32662e-12,1.04114e-37,-1.61279e-06,-3.40794e-12,1.04104e-37,0,0,0,0,-3.57863,0.221074,0.66291,0,0,0,0,0,-0.502727,0.221074,225,-81,225,-81,353,-93,239,40,-0.367185,-0.0348889,0,-1.5,3.94113e+12,0,0,0,-0.916459,0.267883,0,0,0,0,-3.15826,0.357321,18354,-0.502727,0.221074,-3.15826,0.357321,10080,0,0,0,0,0,0
10226,-3.32662e-12,1.04114e-37,-1.61279e-06,-3.40794e-12,1.04104e-37,0,0,0,0,-3.57863,0.221074,0.66291,0,0,0,0,0,-0.502727,0.221074,225,-81,225,-81,353,-93,239,40,-0.371702,-0.0348889,0,-1.5,3.94113e+12,0,0,0,-0.973308,0.274315,0,0,0,0,-3.15826,0.357321,18354,-0.502727,0.221074,-3.15826,0.357321,10080,0,0,0,0,0,0
10244,-3.32662e-12,1.04114e-37,-1.61279e-06,-3.40794e-12,1.04104e-37,0,0,0,0,-3.57863,0.221074,0.66291,0,0,0,0,0,-0.502727,0.221074,225,-81,225,-81,353,-93,239,40,-0.376203,-0.0348889,0,-1.5,3.94113e+12,0,0,0,-1.03016,0.280747,0,0,0,0,-3.15826,0.357321,18354,-0.502727,0.221074,-3.15826,0.357321,10080,0,0,0,0,0,0
10262,-3.32662e-12,1.04114e-37,-1.61279e-06,-3.40794e-12,1.04104e-37,0,0,0,0,-3.57863,0.221074,0.66291,0,0,0,0,0,-0.502727,0.221074,225,-81,225,-81,353,-93,239,40,-0.38044,-0.0348889,0,-1.5,3.94113e+12,0,0,0,-1.08385,0.286821,0,0,0,0,-3.15826,0.357321,18354,-0.502727,0.221074,-3.15826,0.357321,10080,0,0,0,0,0,0
10279,-3.32662e-12,1.04114e-37,-1.61279e-06,-3.40794e-12,1.04104e-37,0,0,0,0,-3.57863,0.221074,0.66291,0,0,0,0,0,-0.502727,0.221074,225,-81,225,-81,353,-93,239,40,-0.38491,-0.0348889,0,-1.5,3.94113e+12,0,0,0,-1.1407,0.293253,0,0,0,0,-3.15826,0.357321,18354,-0.502727,0.221074,-3.15826,0.357321,10080,0,0,0,0,0,0
10296,-3.32662e-12,1.04114e-37,-1.61279e-06,-3.40794e-12,1.04104e-37,0,0,0,0,-3.57863,0.221074,0.66291,0,0,0,0,0,-0.502727,0.221074,225,-81,225,-81,353,-93,239,40,-0.389117,-0.0348889,0,-1.5,3.94113e+12,0,0,0,-1.19439,0.299328,0,0,0,0,-3.15826,0.357321,18354,-0.502727,0.221074,-3.15826,0.357321,10080,0,0,0,0,0,0
10314,-3.32662e-12,1.04114e-37,-1.61279e-06,-3.40794e-12,1.04104e-37,0,0,0,0,-3.57863,0.221074,0.66291,0,0,0,0,0,-0.502727,0.221074,225,-81,225,-81,353,-93,239,40,-0.393556,-0.0348889,0,-1.5,3.94113e+12,0,0,0,-1.25123,0.305759,0,0,0,0,-3.15826,0.357321,18354,-0.502727,0.221074,-3.15826,0.357321,10080,0,0,0,0,0,0
10331,-3.32662e-12,1.04114e-37,-1.61279e-06,-3.40794e-12,1.04104e-37,0,0,0,0,-3.57863,0.221074,0.66291,0,0,0,0,0,-0.502727,0.221074,225,-81,225,-81,353,-93,239,40,-0.397733,-0.0348889,0,-1.5,3.94113e+12,0,0,0,-1.30492,0.311834,0,0,0,0,-3.15826,0.357321,18354,-0.502727,0.221074,-3.15826,0.357321,10080,0,0,0,0,0,0
10351,-3.32662e-12,1.04114e-37,-1.61279e-06,-3.40794e-12,1.04104e-37,0,0,0,0,-3.57863,0.221074,0.66291,0,0,0,0,0,-0.502727,0.221074,225,-81,225,-81,353,-93,239,40,-0.402629,-0.0348889,0,-1.5,3.94113e+12,0,0,0,-1.36809,0.31898,0,0,0,0,-3.15826,0.357321,18354,-0.502727,0.221074,-3.15826,0.357321,10080,0,0,0,0,0,0
10366,-3.32662e-12,1.04114e-37,-1.61279e-06,-3.40794e-12,1.04104e-37,0,0,0,0,-3.57863,0.221074,0.66291,0,0,0,0,0,-0.502727,0.221074,225,-81,225,-81,353,-93,239,40,-0.406043,-0.0348889,0,-1.5,3.94113e+12,0,0,0,-1.41231,0.323983,0,0,0,0,-3.15826,0.357321,18354,-0.502727,0.221074,-3.15826,0.357321,10080,0,0,0,0,0,0
10384,-3.32662e-12,1.04114e-37,-1.61279e-06,-3.40794e-12,1.04104e-37,0,0,0,0,-3.57863,0.221074,0.66291,0,0,0,0,0,-0.502727,0.221074,225,-81,225,-81,353,-93,239,40,-0.410419,-0.0348889,0,-1.5,3.94113e+12,0,0,0,-1.46915,0.330414,0,0,0,0,-3.15826,0.357321,18354,-0.502727,0.221074,-3.15826,0.357321,10080,0,0,0,0,0,0
10401,-3.32662e-12,1.04114e-37,-1.61279e-06,-3.40794e-12,1.04104e-37,0,0,0,0,-3.57863,0.221074,0.66291,0,0,0,0,0,-0.502727,0.221074,225,-81,225,-81,353,-93,239,40,-0.414779,-0.0348889,0,-1.5,3.94113e+12,0,0,0,-1.526,0.336846,0,0,0,0,-3.15826,0.357321,18354,-0.502727,0.221074,-3.15826,0.357321,10080,0,0,0,0,0,0
10419,-3.32662e-12,1.04114e-37,-1.61279e-06,-3.40794e-12,1.04104e-37,0,0,0,0,-3.57863,0.221074,0.66291,0,0,0,0,0,-0.502727,0.221074,225,-81,225,-81,353,-93,239,40,-0.418881,-0.0348889,0,-1.5,3.94113e+12,0,0,0,-1.57969,0.342921,0,0,0,0,-3.15826,0.357321,18354,-0.502727,0.221074,-3.15826,0.357321,10080,0,0,0,0,0,0
10436,-3.32662e-12,1.04114e-37,-1.61279e-06,-3.40794e-12,1.04104e-37,0,0,0,0,-3.57863,0.221074,0.66291,0,0,0,0,0,-0.502727,0.221074,225,-81,225,-81,353,-93,239,40,-0.423207,-0.0348889,0,-1.5,3.94113e+12,0,0,0,-1.63654,0.349352,0,0,0,0,-3.15826,0.357321,18354,-0.502727,0.221074,-3.15826,0.357321,10080,0,0,0,0,0,0
10454,-3.32662e-12,1.04114e-37,-1.61279e-06,-3.40794e-12,1.04104e-37,0,0,0,0,-3.57863,0.221074,0.66291,0,0,0,0,0,-0.502727,0.221074,225,-81,225,-81,353,-93,239,40,-0.427278,-0.0348889,0,-1.5,3.94113e+12,0,0,0,-1.69023,0.355427,0,0,0,0,-3.15826,0.357321,18354,-0.502727,0.221074,-3.15826,0.357321,10080,0,0,0,0,0,0
10471,-3.32662e-12,1.04114e-37,-1.61279e-06,-3.40794e-12,1.04104e-37,0,0,0,0,-3.57863,0.221074,0.66291,0,0,0,0,0,-0.502727,0.221074,225,-81,225,-81,353,-93,239,40,-0.431572,-0.0348889,0,-1.5,3.94113e+12,0,0,0,-1.74708,0.361859,0,0,0,0,-3.15826,0.357321,18354,-0.502727,0.221074,-3.15826,0.357321,10080,0,0,0,0,0,0
10489,-3.32662e-12,1.04114e-37,-1.61279e-06,-3.40794e-12,1.04104e-37,0,0,0,0,-3.57863,0.221074,0.66291,0,0,0,0,0,-0.502727,0.221074,225,-81,225,-81,353,-93,239,40,-0.435612,-0.0348889,0,-1.5,3.94113e+12,0,0,0,-1.80077,0.367933,0,0,0,0,-3.15826,0.357321,18354,-0.502727,0.221074,-3.15826,0.357321,10080,0,0,0,0,0,0
10506,-3.32662e-12,1.04114e-37,-1.61279e-06,-3.40794e-12,1.04104e-37,0,0,0,0,-3.57863,0.221074,0.66291,0,0,0,0,0,-0.502727,0.221074,225,-81,225,-81,353,-93,239,40,-0.439873,-0.0348889,0,-1.5,3.94113e+12,0,0,0,-1.85762,0.374365,0,0,0,0,-3.15826,0.357321,18354,-0.502727,0.221074,-3.15826,0.357321,10080,0,0,0,0,0,0
10524,-3.32662e-12,1.04114e-37,-1.61279e-06,-3.40794e-12,1.04104e-37,0,0,0,0,-3.57863,0.221074,0.66291,0,0,0,0,0,-0.502727,0.221074,225,-81,225,-81,353,-93,239,40,-0.443882,-0.0348889,0,-1.5,3.94113e+12,0,0,0,-1.91131,0.380439,0,0,0,0,-3.15826,0.357321,18354,-0.502727,0.221074,-3.15826,0.357321,10080,0,0,0,0,0,0
10541,-3.32662e-12,1.04114e-37,-1.61279e-06,-3.40794e-12,1.04104e-37,0,0,0,0,-3.57863,0.221074,0.66291,0,0,0,0,0,-0.502727,0.221074,225,-81,225,-81,353,-93,239,40,-0.44811,-0.0348889,0,-1.5,3.94113e+12,0,0,0,-1.96816,0.386871,0,0,0,0,-3.15826,0.357321,18354,-0.502727,0.221074,-3.15826,0.357321,10080,0,0,0,0,0,0
10559,-3.32662e-12,1.04114e-37,-1.61279e-06,-3.40794e-12,1.04104e-37,0,0,0,0,-3.57863,0.221074,0.66291,0,0,0,0,0,-0.502727,0.221074,225,-81,225,-81,353,-93,239,40,-0.452087,-0.0348889,0,-1.5,3.94113e+12,0,0,0,-2.02185,0.392946,0,0,0,0,-3.15826,0.357321,18354,-0.502727,0.221074,-3.15826,0.357321,10080,0,0,0,0,0,0
10576,-3.32662e-12,1.04114e-37,-1.61279e-06,-3.40794e-12,1.04104e-37,0,0,0,0,-3.57863,0.221074,0.66291,0,0,0,0,0,-0.502727,0.221074,225,-81,225,-81,353,-93,239,40,-0.456049,-0.0348889,0,-1.5,3.94113e+12,0,0,0,-2.07554,0.39902,0,0,0,0,-3.15826,0.357321,18354,-0.502727,0.221074,-3.15826,0.357321,10080,0,0,0,0,0,0
10591,-3.32662e-12,1.04114e-37,-1.61279e-06,-3.40794e-12,1.04104e-37,0,0,0,0,-3.57863,0.221074,0.66291,-2.12597,0.404726,-3.1425,0.355538,0,-0.502727,0.221074,225,-81,225,-81,353,-93,239,40,-0.459244,-0.0348889,0,-1.5,3.94113e+12,0,0,0,-2.12597,0.404726,0,0,0,0,-3.1425,0.355538,18354,0,0,0,0,10080,0,0,0,0,0,0
10609,-3.32662e-12,1.04114e-37,-1.61279e-06,-3.40794e-12,1.04104e-37,0,0,0,0,-3.57863,0.221074,0.66291,-2.17911,0.410738,-3.11587,0.352525,0,-0.502727,0.221074,225,-81,225,-81,353,-93,239,40,-0.462275,-0.0348889,0,-1.5,3.94113e+12,0,0,0,-2.17911,0.410738,0,0,0,0,-3.11587,0.352525,18354,0,0,0,0,10080,0,0,0,0,0,0
10626,-3.32662e-12,1.04114e-37,-1.61279e-06,-3.40794e-12,1.04104e-37,0,0,0,0,-3.57863,0.221074,0.66291,-2.23487,0.417047,-3.08792,0.349363,0,-0.502727,0.221074,225,-81,225,-81,353,-93,239,40,-0.465444,-0.0348889,0,-1.5,3.94113e+12,0,0,0,-2.23487,0.417047,0,0,0,0,-3.08792,0.349363,18354,0,0,0,0,10080,0,0,0,0,0,0
10644,-3.32662e-12,1.04114e-37,-1.61279e-06,-3.40794e-12,1.04104e-37,0,0,0,0,-3.57863,0.221074,0.66291,-2.28709,0.422954,-3.06176,0.346402,0,-0.502727,0.221074,225,-81,225,-81,353,-93,239,40,-0.468404,-0.0348889,0,-1.5,3.94113e+12,0,0,0,-2.28709,0.422954,0,0,0,0,-3.06176,0.346402,18354,0,0,0,0,10080,0,0,0,0,0,0
10661,-3.32662e-12,1.04114e-37,-1.61279e-06,-3.40794e-12,1.04104e-37,0,0,0,0,-3.57863,0.221074,0.66291,-2.34188,0.429154,-3.03429,0.343295,0,-0.502727,0.221074,225,-81,225,-81,353,-93,239,40,-0.4715,-0.0348889,0,-1.5,3.94113e+12,0,0,0,-2.34188,0.429154,0,0,0,0,-3.03429,0.343295,18354,0,0,0,0,10080,0,0,0,0,0,0
10679,-3.32662e-12,1.04114e-37,-1.61279e-06,-3.40794e-12,1.04104e-37,0,0,0,0,-3.57863,0.221074,0.66291,-2.39319,0.434959,-3.00858,0.340386,0,-0.502727,0.221074,225,-81,225,-81,353,-93,239,40,-0.47439,-0.0348889,0,-1.5,3.94113e+12,0,0,0,-2.39319,0.434959,0,0,0,0,-3.00858,0.340386,18354,0,0,0,0,10080,0,0,0,0,0,0
10696,-3.32662e-12,1.04114e-37,-1.61279e-06,-3.40794e-12,1.04104e-37,0,0,0,0,-3.57863,0.221074,0.66291,-2.44405,0.440713,-2.98308,0.337501,0,-0.502727,0.221074,225,-81,225,-81,353,-93,239,40,-0.477247,-0.0348889,0,-1.5,3.94113e+12,0,0,0,-2.44405,0.440713,0,0,0,0,-2.98308,0.337501,18354,0,0,0,0,10080,0,0,0,0,0,0
10713,-3.32662e-12,1.04114e-37,-1.61279e-06,-3.40794e-12,1.04104e-37,0,0,0,0,-3.57863,0.221074,0.66291,-2.49744,0.446753,-2.95632,0.334474,0,-0.502727,0.221074,225,-81,225,-81,353,-93,239,40,-0.480236,-0.0348889,0,-1.5,3.94113e+12,0,0,0,-2.49744,0.446753,0,0,0,0,-2.95632,0.334474,18354,0,0,0,0,10080,0,0,0,0,0,0
10730,-3.32662e-12,1.04114e-37,-1.61279e-06,-3.40794e-12,1.04104e-37,0,0,0,0,-3.57863,0.221074,0.66291,-2.54743,0.452409,-2.93127,0.33164,0,-0.502727,0.221074,225,-81,225,-81,353,-93,239,40,-0.483027,-0.0348889,0,-1.5,3.94113e+12,0,0,0,-2.54743,0.452409,0,0,0,0,-2.93127,0.33164,18354,0,0,0,0,10080,0,0,0,0,0,0
10748,-3.32662e-12,1.04114e-37,-1.61279e-06,-3.40794e-12,1.04104e-37,0,0,0,0,-3.57863,0.221074,0.66291,-2.59989,0.458344,-2.90498,0.328665,0,-0.502727,0.221074,225,-81,225,-81,353,-93,239,40,-0.485947,-0.0348889,0,-1.5,3.94113e+12,0,0,0,-2.59989,0.458344,0,0,0,0,-2.90498,0.328665,18354,0,0,0,0,10080,0,0,0,0,0,0
10765,-3.32662e-12,1.04114e-37,-1.61279e-06,-3.40794e-12,1.04104e-37,0,0,0,0,-3.57863,0.221074,0.66291,-2.64901,0.463902,-2.88036,0.32588,0,-0.502727,0.221074,225,-81,225,-81,353,-93,239,40,-0.488673,-0.0348889,0,-1.5,3.94113e+12,0,0,0,-2.64901,0.463902,0,0,0,0,-2.88036,0.32588,18354,0,0,0,0,10080,0,0,0,0,0,0
10783,-3.32662e-12,1.04114e-37,-1.61279e-06,-3.40794e-12,1.04104e-37,0,0,0,0,-3.57863,0.221074,0.66291,-2.70056,0.469734,-2.85452,0.322956,0,-0.502727,0.221074,225,-81,225,-81,353,-93,239,40,-0.491525,-0.0348889,0,-1.5,3.94113e+12,0,0,0,-2.70056,0.469734,0,0,0,0,-2.85452,0.322956,18354,0,0,0,0,10080,0,0,0,0,0,0
10800,-3.32662e-12,1.04114e-37,-1.61279e-06,-3.40794e-12,1.04104e-37,0,0,0,0,-3.57863,0.221074,0.66291,-2.74883,0.475195,-2.83034,0.32022,0,-0.502727,0.221074,225,-81,225,-81,353,-93,239,40,-0.494188,-0.0348889,0,-1.5,3.94113e+12,0,0,0,-2.74883,0.475195,0,0,0,0,-2.83034,0.32022,18354,0,0,0,0,10080,0,0,0,0,0,0
10816,-3.32662e-12,1.04114e-37,-1.61279e-06,-3.40794e-12,1.04104e-37,0,0,0,0,-3.57863,0.221074,0.66291,-2.79389,0.480293,-2.80776,0.317666,0,-0.502727,0.221074,225,-81,225,-81,353,-93,239,40,-0.496667,-0.0348889,0,-1.5,3.94113e+12,0,0,0,-2.79389,0.480293,0,0,0,0,-2.80776,0.317666,18354,0,0,0,0,10080,0,0,0,0,0,0
10833,-3.32662e-12,1.04114e-37,-1.61279e-06,-3.40794e-12,1.04104e-37,0,0,0,0,-3.57863,0.221074,0.66291,-2.84137,0.485664,-2.78397,0.314974,0,-0.502727,0.221074,225,-81,225,-81,353,-93,239,40,-0.499272,-0.0348889,0,-1.5,3.94113e+12,0,0,0,-2.84137,0.485664,0,0,0,0,-2.78397,0.314974,18354,0,0,0,0,10080,0,0,0,0,0,0
10851,-3.32662e-12,1.04114e-37,-1.61279e-06,-3.40794e-12,1.04104e-37,0,0,0,0,-3.57863,0.221074,0.66291,-2.89119,0.491301,-2.759,0.312149,0,-0.502727,0.221074,225,-81,225,-81,353,-93,239,40,-0.501997,-0.0348889,0,-1.5,3.94113e+12,0,0,0,-2.89119,0.491301,0,0,0,0,-2.759,0.312149,18354,0,0,0,0,10080,0,0,0,0,0,0
10868,-3.32662e-12,1.04114e-37,-1.61279e-06,-3.40794e-12,1.04104e-37,0,0,0,0,-3.57863,0.221074,0.66291,-2.93784,0.49658,-2.73562,0.309504,0,-0.502727,0.221074,225,-81,225,-81,353,-93,239,40,-0.504542,-0.0348889,0,-1.5,3.94113e+12,0,0,0,-2.93784,0.49658,0,0,0,0,-2.73562,0.309504,18354,0,0,0,0,10080,0,0,0,0,0,0
10886,-3.32662e-12,1.04114e-37,-1.61279e-06,-3.40794e-12,1.04104e-37,0,0,0,0,-3.57863,0.221074,0.66291,-2.98409,0.501812,-2.71244,0.306881,0,-0.502727,0.221074,225,-81,225,-81,353,-93,239,40,-0.507058,-0.0348889,0,-1.5,3.94113e+12,0,0,0,-2.98409,0.501812,0,0,0,0,-2.71244,0.306881,18354,0,0,0,0,10080,0,0,0,0,0,0
10903,-3.32662e-12,1.04114e-37,-1.61279e-06,-3.40794e-12,1.04104e-37,0,0,0,0,-3.57863,0.221074,0.66291,-3.03264,0.507304,-2.6881,0.304128,0,-0.502727,0.221074,225,-81,225,-81,353,-93,239,40,-0.50969,-0.0348889,0,-1.5,3.94113e+12,0,0,0,-3.03264,0.507304,0,0,0,0,-2.6881,0.304128,18354,0,0,0,0,10080,0,0,0,0,0,0
10921,-3.32662e-12,1.04114e-37,-1.61279e-06,-3.40794e-12,1.04104e-37,0,0,0,0,-3.57863,0.221074,0.66291,-3.07808,0.512446,-2.66532,0.30155,0,-0.502727,0.221074,225,-81,225,-81,353,-93,239,40,-0.512148,-0.0348889,0,-1.5,3.94113e+12,0,0,0,-3.07808,0.512446,0,0,0,0,-2.66532,0.30155,18354,0,0,0,0,10080,0,0,0,0,0,0
10938,-3.32662e-12,1.04114e-37,-1.61279e-06,-3.40794e-12,1.04104e-37,0,0,0,0,-3.57863,0.221074,0.66291,-3.12578,0.517843,-2.64141,0.298845,0,-0.502727,0.221074,225,-81,225,-81,353,-93,239,40,-0.514721,-0.0348889,0,-1.5,3.94113e+12,0,0,0,-3.12578,0.517843,0,0,0,0,-2.64141,0.298845,18354,0,0,0,0,10080,0,0,0,0,0,0
10956,-3.32662e-12,1.04114e-37,-1.61279e-06,-3.40794e-12,1.04104e-37,0,0,0,0,-3.57863,0.221074,0.66291,-3.17306,0.523191,-2.61772,0.296164,0,-0.502727,0.221074,225,-81,225,-81,353,-93,239,40,-0.517262,-0.0348889,0,-1.5,3.94113e+12,0,0,0,-3.17306,0.523191,0,0,0,0,-2.61772,0.296164,18354,0,0,0,0,10080,0,0,0,0,0,0
10973,-3.32662e-12,1.04114e-37,-1.61279e-06,-3.40794e-12,1.04104e-37,0,0,0,0,-3.57863,0.221074,0.66291,-3.21732,0.528199,-2.59554,0.293655,0,-0.502727,0.221074,225,-81,225,-81,353,-93,239,40,-0.519636,-0.0348889,0,-1.5,3.94113e+12,0,0,0,-3.21732,0.528199,0,0,0,0,-2.59554,0.293655,18354,0,0,0,0,10080,0,0,0,0,0,0
11020,-3.32662e-12,1.04114e-37,-1.61279e-06,-3.40794e-12,1.04104e-37,0,0,0,0,-3.57863,0.221074,0.66291,-3.33697,0.541737,-2.5348,0.286784,0,-0.502727,0.221074,225,-81,225,-81,353,-93,239,40,-0.323032,-0.0348889,0,-1.5,3.94113e+12,0,0,0,-3.33697,0.541737,0,0,0,0,-2.5348,0.286784,18354,0,0,0,0,10080,0,0,0,0,0,0
11038,-3.32662e-12,1.04114e-37,-1.61279e-06,-3.40794e-12,1.04104e-37,0,0,0,0,-3.57863,0.221074,0.66291,-3.38234,0.546869,-2.51206,0.284211,0,-0.502727,0.221074,225,-81,225,-81,353,-93,239,40,-0.324586,-0.0348889,0,-1.5,3.94113e+12,0,0,0,-3.38234,0.546869,0,0,0,0,-2.51206,0.284211,18354,0,0,0,0,10080,0,0,0,0,0,0
11059,-3.32662e-12,1.04114e-37,-1.61279e-06,-3.40794e-12,1.04104e-37,0,0,0,0,-3.57863,0.221074,0.66291,-3.43224,0.552515,-2.48702,0.281378,0,-0.502727,0.221074,225,-81,225,-81,353,-93,239,40,-0.326293,-0.0348889,0,-1.5,3.94113e+12,0,0,0,-3.43224,0.552515,0,0,0,0,-2.48702,0.281378,18354,0,0,0,0,10080,0,0,0,0,0,0
11074,-3.32662e-12,1.04114e-37,-1.61279e-06,-3.40794e-12,1.04104e-37,0,0,0,0,-3.57863,0.221074,0.66291,-3.47183,0.556995,-2.46719,0.279134,0,-0.502727,0.221074,225,-81,225,-81,353,-93,239,40,-0.327647,-0.0348889,0,-1.5,3.94113e+12,0,0,0,-3.47183,0.556995,0,0,0,0,-2.46719,0.279134,18354,0,0,0,0,10080,0,0,0,0,0,0
11112,-3.32662e-12,1.04114e-37,-1.61279e-06,-3.40794e-12,1.04104e-37,0,0,0,0,-3.57863,0.221074,0.66291,-3.56178,0.567171,-2.42172,0.27399,0,-0.502727,0.221074,225,-81,225,-81,353,-93,239,40,-0.330707,-0.0348889,0,-1.5,3.94113e+12,0,0,0,-3.56178,0.567171,0,0,0,0,-2.42172,0.27399,18354,0,0,0,0,10080,0,0,0,0,0,0
11129,-3.32662e-12,1.04114e-37,-1.61279e-06,-3.40794e-12,1.04104e-37,0,0,0,0,-3.57863,0.221074,0.66291,-3.60272,0.571803,-2.4012,0.271668,0,-0.502727,0.221074,225,-81,225,-81,353,-93,239,40,-0.332103,-0.0348889,0,-1.5,3.94113e+12,0,0,0,-3.60272,0.571803,0,0,0,0,-2.4012,0.271668,18354,0,0,0,0,10080,0,0,0,0,0,0
11146,-3.32662e-12,1.04114e-37,-1.61279e-06,-3.40794e-12,1.04104e-37,0,0,0,0,-3.57863,0.221074,0.66291,-3.64569,0.576665,-2.37966,0.269231,0,-0.502727,0.221074,225,-81,225,-81,353,-93,239,40,-0.333566,-0.0348889,0,-1.5,3.94113e+12,0,0,0,-3.64569,0.576665,0,0,0,0,-2.37966,0.269231,18354,0,0,0,0,10080,0,0,0,0,0,0
11163,-3.32662e-12,1.04114e-37,-1.61279e-06,-3.40794e-12,1.04104e-37,0,0,0,0,-3.57863,0.221074,0.66291,-3.68593,0.581218,-2.35949,0.266949,0,-0.502727,0.221074,225,-81,225,-81,353,-93,239,40,-0.334934,-0.0348889,0,-1.5,3.94113e+12,0,0,0,-3.68593,0.581218,0,0,0,0,-2.35949,0.266949,18354,0,0,0,0,10080,0,0,0,0,0,0
11181,-3.32662e-12,1.04114e-37,-1.61279e-06,-3.40794e-12,1.04104e-37,0,0,0,0,-3.57863,0.221074,0.66291,-3.72582,0.585731,-2.3395,0.264687,0,-0.502727,0.221074,225,-81,225,-81,353,-93,239,40,-0.33629,-0.0348889,0,-1.5,3.94113e+12,0,0,0,-3.72582,0.585731,0,0,0,0,-2.3395,0.264687,18354,0,0,0,0,10080,0,0,0,0,0,0
11198,-3.32662e-12,1.04114e-37,-1.61279e-06,-3.40794e-12,1.04104e-37,0,0,0,0,-3.57863,0.221074,0.66291,-3.76538,0.590206,-2.31967,0.262444,0,-0.502727,0.221074,225,-81,225,-81,353,-93,239,40,-0.337633,-0.0348889,0,-1.5,3.94113e+12,0,0,0,-3.76538,0.590206,0,0,0,0,-2.31967,0.262444,18354,0,0,0,0,10080,0,0,0,0,0,0
11216,-3.32662e-12,1.04114e-37,-1.61279e-06,-3.40794e-12,1.04104e-37,0,0,0,0,-3.57863,0.221074,0.66291,-3.80689,0.594903,-2.29886,0.26009,0,-0.502727,0.221074,225,-81,225,-81,353,-93,239,40,-0.33904,-0.0348889,0,-1.5,3.94113e+12,0,0,0,-3.80689,0.594903,0,0,0,0,-2.29886,0.26009,18354,0,0,0,0,10080,0,0,0,0,0,0
11233,-3.32662e-12,1.04114e-37,-1.61279e-06,-3.40794e-12,1.04104e-37,0,0,0,0,-3.57863,0.221074,0.66291,-3.84576,0.599301,-2.27938,0.257886,0,-0.502727,0.221074,225,-81,225,-81,353,-93,239,40,-0.340358,-0.0348889,0,-1.5,3.94113e+12,0,0,0,-3.84576,0.599301,0,0,0,0,-2.27938,0.257886,18354,0,0,0,0,10080,0,0,0,0,0,0
11250,-3.32662e-12,1.04114e-37,-1.61279e-06,-3.40794e-12,1.04104e-37,0,0,0,0,-3.57863,0.221074,0.66291,-3.88656,0.603916,-2.25893,0.255572,0,-0.502727,0.221074,225,-81,225,-81,353,-93,239,40,-0.341738,-0.0348889,0,-1.5,3.94113e+12,0,0,0,-3.88656,0.603916,0,0,0,0,-2.25893,0.255572,18354,0,0,0,0,10080,0,0,0,0,0,0
11267,-3.32662e-12,1.04114e-37,-1.61279e-06,-3.40794e-12,1.04104e-37,0,0,0,0,-3.57863,0.221074,0.66291,-3.92475,0.608237,-2.23979,0.253407,0,-0.502727,0.221074,225,-81,225,-81,353,-93,239,40,-0.34303,-0.0348889,0,-1.5,3.94113e+12,0,0,0,-3.92475,0.608237,0,0,0,0,-2.23979,0.253407,18354,0,0,0,0,10080,0,0,0,0,0,0
11285,-3.32662e-12,1.04114e-37,-1.61279e-06,-3.40794e-12,1.04104e-37,0,0,0,0,-3.57863,0.221074,0.66291,-3.96262,0.612522,-2.22081,0.251259,0,-0.502727,0.221074,225,-81,225,-81,353,-93,239,40,-0.34431,-0.0348889,0,-1.5,3.94113e+12,0,0,0,-3.96262,0.612522,0,0,0,0,-2.22081,0.251259,18354,0,0,0,0,10080,0,0,0,0,0,0
11302,-3.32662e-12,1.04114e-37,-1.61279e-06,-3.40794e-12,1.04104e-37,0,0,0,0,-3.57863,0.221074,0.66291,-4.00017,0.61677,-2.20199,0.24913,0,-0.502727,0.221074,225,-81,225,-81,353,-93,239,40,-0.345577,-0.0348889,0,-1.5,3.94113e+12,0,0,0,-4.00017,0.61677,0,0,0,0,-2.20199,0.24913,18354,0,0,0,0,10080,0,0,0,0,0,0
11317,-3.32662e-12,1.04114e-37,-1.61279e-06,-3.40794e-12,1.04104e-37,0,0,0,0,-3.57863,0.221074,0.66291,-4.03522,0.620736,-2.18443,0.247143,0,-0.502727,0.221074,225,-81,225,-81,353,-93,239,40,-0.346759,-0.0348889,0,-1.5,3.94113e+12,0,0,0,-4.03522,0.620736,0,0,0,0,-2.18443,0.247143,18354,0,0,0,0,10080,0,0,0,0,0,0
11332,-3.32662e-12,1.04114e-37,-1.61279e-06,-3.40794e-12,1.04104e-37,0,0,0,0,-3.57863,0.221074,0.66291,-4.06784,0.624426,-2.16809,0.245295,0,-0.502727,0.221074,225,-81,225,-81,353,-93,239,40,-0.347859,-0.0348889,0,-1.5,3.94113e+12,0,0,0,-4.06784,0.624426,0,0,0,0,-2.16809,0.245295,18354,0,0,0,0,10080,0,0,0,0,0,0
11350,-3.32662e-12,1.04114e-37,-1.61279e-06,-3.40794e-12,1.04104e-37,0,0,0,0,-3.57863,0.221074,0.66291,-4.10449,0.628573,-2.14972,0.243216,0,-0.502727,0.221074,225,-81,225,-81,353,-93,239,40,-0.349093,-0.0348889,0,-1.5,3.94113e+12,0,0,0,-4.10449,0.628573,0,0,0,0,-2.14972,0.243216,18354,0,0,0,0,10080,0,0,0,0,0,0
11367,-3.32662e-12,1.04114e-37,-1.61279e-06,-3.40794e-12,1.04104e-37,0,0,0,0,-3.57863,0.221074,0.66291,-4.14084,0.632685,-2.1315,0.241155,0,-0.502727,0.221074,225,-81,225,-81,353,-93,239,40,-0.350315,-0.0348889,0,-1.5,3.94113e+12,0,0,0,-4.14084,0.632685,0,0,0,0,-2.1315,0.241155,18354,0,0,0,0,10080,0,0,0,0,0,0
11385,-3.32662e-12,1.04114e-37,-1.61279e-06,-3.40794e-12,1.04104e-37,0,0,0,0,-3.57863,0.221074,0.66291,-4.17899,0.637001,-2.11238,0.238991,0,-0.502727,0.221074,225,-81,225,-81,353,-93,239,40,-0.351597,-0.0348889,0,-1.5,3.94113e+12,0,0,0,-4.17899,0.637001,0,0,0,0,-2.11238,0.238991,18354,0,0,0,0,10080,0,0,0,0,0,0
11402,-3.32662e-12,1.04114e-37,-1.61279e-06,-3.40794e-12,1.04104e-37,0,0,0,0,-3.57863,0.221074,0.66291,-4.2147,0.641042,-2.09448,0.236966,0,-0.502727,0.221074,225,-81,225,-81,353,-93,239,40,-0.352798,-0.0348889,0,-1.5,3.94113e+12,0,0,0,-4.2147,0.641042,0,0,0,0,-2.09448,0.236966,18354,0,0,0,0,10080,0,0,0,0,0,0
11419,-3.32662e-12,1.04114e-37,-1.61279e-06,-3.40794e-12,1.04104e-37,0,0,0,0,-3.57863,0.221074,0.66291,-4.25219,0.645283,-2.07569,0.234841,0,-0.502727,0.221074,225,-81,225,-81,353,-93,239,40,-0.354055,-0.0348889,0,-1.5,3.94113e+12,0,0,0,-4.25219,0.645283,0,0,0,0,-2.07569,0.234841,18354,0,0,0,0,10080,0,0,0,0,0,0
11436,-3.32662e-12,1.04114e-37,-1.61279e-06,-3.40794e-12,1.04104e-37,0,0,0,0,-3.57863,0.221074,0.66291,-4.28729,0.649254,-2.05811,0.232851,0,-0.502727,0.221074,225,-81,225,-81,353,-93,239,40,-0.355231,-0.0348889,0,-1.5,3.94113e+12,0,0,0,-4.28729,0.649254,0,0,0,0,-2.05811,0.232851,18354,0,0,0,0,10080,0,0,0,0,0,0
11454,-3.32662e-12,1.04114e-37,-1.61279e-06,-3.40794e-12,1.04104e-37,0,0,0,0,-3.57863,0.221074,0.66291,-4.32412,0.653421,-2.03964,0.230762,0,-0.502727,0.221074,225,-81,225,-81,353,-93,239,40,-0.356464,-0.0348889,0,-1.5,3.94113e+12,0,0,0,-4.32412,0.653421,0,0,0,0,-2.03964,0.230762,18354,0,0,0,0,10080,0,0,0,0,0,0
11471,-3.32662e-12,1.04114e-37,-1.61279e-06,-3.40794e-12,1.04104e-37,0,0,0,0,-3.57863,0.221074,0.66291,-4.35861,0.657323,-2.02236,0.228807,0,-0.502727,0.221074,225,-81,225,-81,353,-93,239,40,-0.357619,-0.0348889,0,-1.5,3.94113e+12,0,0,0,-4.35861,0.657323,0,0,0,0,-2.02236,0.228807,18354,0,0,0,0,10080,0,0,0,0,0,0
11489,-3.32662e-12,1.04114e-37,-1.61279e-06,-3.40794e-12,1.04104e-37,0,0,0,0,-3.57863,0.221074,0.66291,-4.3928,0.661192,-2.00522,0.226868,0,-0.502727,0.221074,225,-81,225,-81,353,-93,239,40,-0.358762,-0.0348889,0,-1.5,3.94113e+12,0,0,0,-4.3928,0.661192,0,0,0,0,-2.00522,0.226868,18354,0,0,0,0,10080,0,0,0,0,0,0
11506,-3.32662e-12,1.04114e-37,-1.61279e-06,-3.40794e-12,1.04104e-37,0,0,0,0,-3.57863,0.221074,0.66291,-4.42869,0.665252,-1.98723,0.224832,0,-0.502727,0.221074,225,-81,225,-81,353,-93,239,40,-0.35996,-0.0348889,0,-1.5,3.94113e+12,0,0,0,-4.42869,0.665252,0,0,0,0,-1.98723,0.224832,18354,0,0,0,0,10080,0,0,0,0,0,0
11524,-3.32662e-12,1.04114e-37,-1.61279e-06,-3.40794e-12,1.04104e-37,0,0,0,0,-3.57863,0.221074,0.66291,-4.46228,0.669053,-1.97039,0.222927,0,-0.502727,0.221074,225,-81,225,-81,353,-93,239,40,-0.361082,-0.0348889,0,-1.5,3.94113e+12,0,0,0,-4.46228,0.669053,0,0,0,0,-1.97039,0.222927,18354,0,0,0,0,10080,0,0,0,0,0,0
11538,-3.32662e-12,1.04114e-37,-1.61279e-06,-3.40794e-12,1.04104e-37,0,0,0,0,-3.57863,0.221074,0.66291,-4.4917,0.672381,-1.95566,0.22126,0,-0.502727,0.221074,225,-81,225,-81,353,-93,239,40,-0.362062,-0.0348889,0,-1.5,3.94113e+12,0,0,0,-4.4917,0.672381,0,0,0,0,-1.95566,0.22126,18354,0,0,0,0,10080,0,0,0,0,0,0
11554,-3.32662e-12,1.04114e-37,-1.61279e-06,-3.40794e-12,1.04104e-37,0,0,0,0,-3.57863,0.221074,0.66291,-4.5209,0.675685,-1.94103,0.219605,0,-0.502727,0.221074,225,-81,225,-81,353,-93,239,40,-0.363036,-0.0348889,0,-1.5,3.94113e+12,0,0,0,-4.5209,0.675685,0,0,0,0,-1.94103,0.219605,18354,0,0,0,0,10080,0,0,0,0,0,0
11571,-3.32662e-12,1.04114e-37,-1.61279e-06,-3.40794e-12,1.04104e-37,0,0,0,0,-3.57863,0.221074,0.66291,-4.55372,0.679398,-1.92458,0.217744,0,-0.502727,0.221074,225,-81,225,-81,353,-93,239,40,-0.364128,-0.0348889,0,-1.5,3.94113e+12,0,0,0,-4.55372,0.679398,0,0,0,0,-1.92458,0.217744,18354,0,0,0,0,10080,0,0,0,0,0,0
11588,-3.32662e-12,1.04114e-37,-1.61279e-06,-3.40794e-12,1.04104e-37,0,0,0,0,-3.57863,0.221074,0.66291,-4.58816,0.683294,-1.90732,0.215791,0,-0.502727,0.221074,225,-81,225,-81,353,-93,239,40,-0.365274,-0.0348889,0,-1.5,3.94113e+12,0,0,0,-4.58816,0.683294,0,0,0,0,-1.90732,0.215791,18354,0,0,0,0,10080,0,0,0,0,0,0
11605,-3.32662e-12,1.04114e-37,-1.61279e-06,-3.40794e-12,1.04104e-37,0,0,0,0,-3.57863,0.221074,0.66291,-4.62041,0.686943,-1.89116,0.213962,0,-0.502727,0.221074,225,-81,225,-81,353,-93,239,40,-0.366346,-0.0348889,0,-1.5,3.94113e+12,0,0,0,-4.62041,0.686943,0,0,0,0,-1.89116,0.213962,18354,0,0,0,0,10080,0,0,0,0,0,0
11623,-3.32662e-12,1.04114e-37,-1.61279e-06,-3.40794e-12,1.04104e-37,0,0,0,0,-3.57863,0.221074,0.66291,-4.65426,0.690772,-1.87419,0.212043,0,-0.502727,0.221074,225,-81,225,-81,353,-93,239,40,-0.36747,-0.0348889,0,-1.5,3.94113e+12,0,0,0,-4.65426,0.690772,0,0,0,0,-1.87419,0.212043,18354,0,0,0,0,10080,0,0,0,0,0,0
11640,-3.32662e-12,1.04114e-37,-1.61279e-06,-3.40794e-12,1.04104e-37,0,0,0,0,-3.57863,0.221074,0.66291,-4.68595,0.694358,-1.85831,0.210246,0,-0.502727,0.221074,225,-81,225,-81,353,-93,239,40,-0.368522,-0.0348889,0,-1.5,3.94113e+12,0,0,0,-4.68595,0.694358,0,0,0,0,-1.85831,0.210246,18354,0,0,0,0,10080,0,0,0,0,0,0
11658,-3.32662e-12,1.04114e-37,-1.61279e-06,-3.40794e-12,1.04104e-37,0,0,0,0,-3.57863,0.221074,0.66291,-4.71736,0.697912,-1.84256,0.208464,0,-0.502727,0.221074,225,-81,225,-81,353,-93,239,40,-0.369563,-0.0348889,0,-1.5,3.94113e+12,0,0,0,-4.71736,0.697912,0,0,0,0,-1.84256,0.208464,18354,0,0,0,0,10080,0,0,0,0,0,0
11675,-3.32662e-12,1.04114e-37,-1.61279e-06,-3.40794e-12,1.04104e-37,0,0,0,0,-3.57863,0.221074,0.66291,-4.74852,0.701437,-1.82695,0.206698,0,-0.502727,0.221074,225,-81,225,-81,353,-93,239,40,-0.370595,-0.0348889,0,-1.5,3.94113e+12,0,0,0,-4.74852,0.701437,0,0,0,0,-1.82695,0.206698,18354,0,0,0,0,10080,0,0,0,0,0,0
11692,-3.32662e-12,1.04114e-37,-1.61279e-06,-3.40794e-12,1.04104e-37,0,0,0,0,-3.57863,0.221074,0.66291,-4.78122,0.705137,-1.81056,0.204844,0,-0.502727,0.221074,225,-81,225,-81,353,-93,239,40,-0.371677,-0.0348889,0,-1.5,3.94113e+12,0,0,0,-4.78122,0.705137,0,0,0,0,-1.81056,0.204844,18354,0,0,0,0,10080,0,0,0,0,0,0
11709,-3.32662e-12,1.04114e-37,-1.61279e-06,-3.40794e-12,1.04104e-37,0,0,0,0,-3.57863,0.221074,0.66291,-4.81183,0.7086,-1.79522,0.203108,0,-0.502727,0.221074,225,-81,225,-81,353,-93,239,40,-0.37269,-0.0348889,0,-1.5,3.94113e+12,0,0,0,-4.81183,0.7086,0,0,0,0,-1.79522,0.203108,18354,0,0,0,0,10080,0,0,0,0,0,0
11727,-3.32662e-12,1.04114e-37,-1.61279e-06,-3.40794e-12,1.04104e-37,0,0,0,0,-3.57863,0.221074,0.66291,-4.84218,0.712034,-1.78,0.201387,0,-0.502727,0.221074,225,-81,225,-81,353,-93,239,40,-0.373693,-0.0348889,0,-1.5,3.94113e+12,0,0,0,-4.84218,0.712034,0,0,0,0,-1.78,0.201387,18354,0,0,0,0,10080,0,0,0,0,0,0
11744,-3.32662e-12,1.04114e-37,-1.61279e-06,-3.40794e-12,1.04104e-37,0,0,0,0,-3.57863,0.221074,0.66291,-4.87404,0.715638,-1.76404,0.19958,0,-0.502727,0.221074,225,-81,225,-81,353,-93,239,40,-0.374745,-0.0348889,0,-1.5,3.94113e+12,0,0,0,-4.87404,0.715638,0,0,0,0,-1.76404,0.19958,18354,0,0,0,0,10080,0,0,0,0,0,0
11760,-3.32662e-12,1.04114e-37,-1.61279e-06,-3.40794e-12,1.04104e-37,0,0,0,0,-3.57863,0.221074,0.66291,-4.90038,0.718618,-1.75084,0.198088,0,-0.502727,0.221074,225,-81,225,-81,353,-93,239,40,-0.375614,-0.0348889,0,-1.5,3.94113e+12,0,0,0,-4.90038,0.718618,0,0,0,0,-1.75084,0.198088,18354,0,0,0,0,10080,0,0,0,0,0,0
11775,-3.32662e-12,1.04114e-37,-1.61279e-06,-3.40794e-12,1.04104e-37,0,0,0,0,-3.57863,0.221074,0.66291,-4.92652,0.721576,-1.73775,0.196606,0,-0.502727,0.221074,225,-81,225,-81,353,-93,239,40,-0.376477,-0.0348889,0,-1.5,3.94113e+12,0,0,0,-4.92652,0.721576,0,0,0,0,-1.73775,0.196606,18354,0,0,0,0,10080,0,0,0,0,0,0
11792,-3.32662e-12,1.04114e-37,-1.61279e-06,-3.40794e-12,1.04104e-37,0,0,0,0,-3.57863,0.221074,0.66291,-4.95762,0.725095,-1.72216,0.194843,0,-0.502727,0.221074,225,-81,225,-81,353,-93,239,40,-0.377501,-0.0348889,0,-1.5,3.94113e+12,0,0,0,-4.95762,0.725095,0,0,0,0,-1.72216,0.194843,18354,0,0,0,0,10080,0,0,0,0,0,0
11809,-3.32662e-12,1.04114e-37,-1.61279e-06,-3.40794e-12,1.04104e-37,0,0,0,0,-3.57863,0.221074,0.66291,-4.98674,0.728389,-1.70757,0.193192,0,-0.502727,0.221074,225,-81,225,-81,353,-93,239,40,-0.37846,-0.0348889,0,-1.5,3.94113e+12,0,0,0,-4.98674,0.728389,0,0,0,0,-1.70757,0.193192,18354,0,0,0,0,10080,0,0,0,0,0,0
11827,-3.32662e-12,1.04114e-37,-1.61279e-06,-3.40794e-12,1.04104e-37,0,0,0,0,-3.57863,0.221074,0.66291,-5.01561,0.731655,-1.6931,0.191555,0,-0.502727,0.221074,225,-81,225,-81,353,-93,239,40,-0.37941,-0.0348889,0,-1.5,3.94113e+12,0,0,0,-5.01561,0.731655,0,0,0,0,-1.6931,0.191555,18354,0,0,0,0,10080,0,0,0,0,0,0
11844,-3.32662e-12,1.04114e-37,-1.61279e-06,-3.40794e-12,1.04104e-37,0,0,0,0,-3.57863,0.221074,0.66291,-5.04423,0.734894,-1.67875,0.189931,0,-0.502727,0.221074,225,-81,225,-81,353,-93,239,40,-0.380351,-0.0348889,0,-1.5,3.94113e+12,0,0,0,-5.04423,0.734894,0,0,0,0,-1.67875,0.189931,18354,0,0,0,0,10080,0,0,0,0,0,0
11861,-3.32662e-12,1.04114e-37,-1.61279e-06,-3.40794e-12,1.04104e-37,0,0,0,0,-3.57863,0.221074,0.66291,-5.07428,0.738293,-1.66369,0.188227,0,-0.502727,0.221074,225,-81,225,-81,353,-93,239,40,-0.381338,-0.0348889,0,-1.5,3.94113e+12,0,0,0,-5.07428,0.738293,0,0,0,0,-1.66369,0.188227,18354,0,0,0,0,10080,0,0,0,0,0,0
11879,-3.32662e-12,1.04114e-37,-1.61279e-06,-3.40794e-12,1.04104e-37,0,0,0,0,-3.57863,0.221074,0.66291,-5.10241,0.741476,-1.64959,0.186632,0,-0.502727,0.221074,225,-81,225,-81,353,-93,239,40,-0.382261,-0.0348889,0,-1.5,3.94113e+12,0,0,0,-5.10241,0.741476,0,0,0,0,-1.64959,0.186632,18354,0,0,0,0,10080,0,0,0,0,0,0
11896,-3.32662e-12,1.04114e-37,-1.61279e-06,-3.40794e-12,1.04104e-37,0,0,0,0,-3.57863,0.221074,0.66291,-5.1303,0.744631,-1.63561,0.185051,0,-0.502727,0.221074,225,-81,225,-81,353,-93,239,40,-0.383176,-0.0348889,0,-1.5,3.94113e+12,0,0,0,-5.1303,0.744631,0,0,0,0,-1.63561,0.185051,18354,0,0,0,0,10080,0,0,0,0,0,0
11913,-3.32662e-12,1.04114e-37,-1.61279e-06,-3.40794e-12,1.04104e-37,0,0,0,0,-3.57863,0.221074,0.66291,-5.15795,0.74776,-1.62175,0.183483,0,-0.502727,0.221074,225,-81,225,-81,353,-93,239,40,-0.384082,-0.0348889,0,-1.5,3.94113e+12,0,0,0,-5.15795,0.74776,0,0,0,0,-1.62175,0.183483,18354,0,0,0,0,10080,0,0,0,0,0,0
11930,-3.32662e-12,1.04114e-37,-1.61279e-06,-3.40794e-12,1.04104e-37,0,0,0,0,-3.57863,0.221074,0.66291,-5.18537,0.750862,-1.60801,0.181928,0,-0.502727,0.221074,225,-81,225,-81,353,-93,239,40,-0.38498,-0.0348889,0,-1.5,3.94113e+12,0,0,0,-5.18537,0.750862,0,0,0,0,-1.60801,0.181928,18354,0,0,0,0,10080,0,0,0,0,0,0
11947,-3.32662e-12,1.04114e-37,-1.61279e-06,-3.40794e-12,1.04104e-37,0,0,0,0,-3.57863,0.221074,0.66291,-5.21256,0.753938,-1.59438,0.180386,0,-0.502727,0.221074,225,-81,225,-81,353,-93,239,40,-0.38587,-0.0348889,0,-1.5,3.94113e+12,0,0,0,-5.21256,0.753938,0,0,0,0,-1.59438,0.180386,18354,0,0,0,0,10080,0,0,0,0,0,0
11967,-3.32662e-12,1.04114e-37,-1.61279e-06,-3.40794e-12,1.04104e-37,0,0,0,0,-3.57863,0.221074,0.66291,-5.24423,0.757522,-1.57849,0.178588,0,-0.502727,0.221074,225,-81,225,-81,353,-93,239,40,-0.386905,-0.0348889,0,-1.5,3.94113e+12,0,0,0,-5.24423,0.757522,0,0,0,0,-1.57849,0.178588,18354,0,0,0,0,10080,0,0,0,0,0,0
11983,-3.32662e-12,1.04114e-37,-1.61279e-06,-3.40794e-12,1.04104e-37,0,0,0,0,-3.57863,0.221074,0.66291,-5.27092,0.760541,-1.56512,0.177075,0,-0.502727,0.221074,225,-81,225,-81,353,-93,239,40,-0.387778,-0.0348889,0,-1.5,3.94113e+12,0,0,0,-5.27092,0.760541,0,0,0,0,-1.56512,0.177075,18354,0,0,0,0,10080,0,0,0,0,0,0
11998,-3.32662e-12,1.04114e-37,-1.61279e-06,-3.40794e-12,1.04104e-37,0,0,0,0,-3.57863,0.221074,0.66291,-5.29274,0.76301,-1.55419,0.175839,0,-0.502727,0.221074,225,-81,225,-81,353,-93,239,40,-0.38849,-0.0348889,0,-1.5,3.94113e+12,0,0,0,-5.29274,0.76301,0,0,0,0,-1.55419,0.175839,18354,0,0,0,0,10080,0,0,0,0,0,0
12015,-3.32662e-12,1.04114e-37,-1.61279e-06,-3.40794e-12,1.04104e-37,0,0,0,0,-3.57863,0.221074,0.66291,-5.32056,0.766157,-1.54025,0.174261,0,-0.502727,0.221074,225,-81,225,-81,353,-93,239,40,-0.389398,-0.0348889,0,-1.5,3.94113e+12,0,0,0,-5.32056,0.766157,0,0,0,0,-1.54025,0.174261,18354,0,0,0,0,10080,0,0,0,0,0,0
12032,-3.32662e-12,1.04114e-37,-1.61279e-06,-3.40794e-12,1.04104e-37,0,0,0,0,-3.57863,0.221074,0.66291,-5.3466,0.769103,-1.5272,0.172785,0,-0.502727,0.221074,225,-81,225,-81,353,-93,239,40,-0.390247,-0.0348889,0,-1.5,3.94113e+12,0,0,0,-5.3466,0.769103,0,0,0,0,-1.5272,0.172785,18354,0,0,0,0,10080,0,0,0,0,0,0
12050,-3.32662e-12,1.04114e-37,-1.61279e-06,-3.40794e-12,1.04104e-37,0,0,0,0,-3.57863,0.221074,0.66291,-5.37393,0.772195,-1.5135,0.171235,0,-0.502727,0.221074,225,-81,225,-81,353,-93,239,40,-0.391138,-0.0348889,0,-1.5,3.94113e+12,0,0,0,-5.37393,0.772195,0,0,0,0,-1.5135,0.171235,18354,0,0,0,0,10080,0,0,0,0,0,0
12067,-3.32662e-12,1.04114e-37,-1.61279e-06,-3.40794e-12,1.04104e-37,0,0,0,0,-3.57863,0.221074,0.66291,-5.39952,0.775091,-1.50067,0.169784,0,-0.502727,0.221074,225,-81,225,-81,353,-93,239,40,-0.391971,-0.0348889,0,-1.5,3.94113e+12,0,0,0,-5.39952,0.775091,0,0,0,0,-1.50067,0.169784,18354,0,0,0,0,10080,0,0,0,0,0,0
12085,-3.32662e-12,1.04114e-37,-1.61279e-06,-3.40794e-12,1.04104e-37,0,0,0,0,-3.57863,0.221074,0.66291,-5.4249,0.777962,-1.48796,0.168345,0,-0.502727,0.221074,225,-81,225,-81,353,-93,239,40,-0.392797,-0.0348889,0,-1.5,3.94113e+12,0,0,0,-5.4249,0.777962,0,0,0,0,-1.48796,0.168345,18354,0,0,0,0,10080,0,0,0,0,0,0
12102,-3.32662e-12,1.04114e-37,-1.61279e-06,-3.40794e-12,1.04104e-37,0,0,0,0,-3.57863,0.221074,0.66291,-5.45006,0.780809,-1.47535,0.166919,0,-0.502727,0.221074,225,-81,225,-81,353,-93,239,40,-0.393615,-0.0348889,0,-1.5,3.94113e+12,0,0,0,-5.45006,0.780809,0,0,0,0,-1.47535,0.166919,18354,0,0,0,0,10080,0,0,0,0,0,0
12119,-3.32662e-12,1.04114e-37,-1.61279e-06,-3.40794e-12,1.04104e-37,0,0,0,0,-3.57863,0.221074,0.66291,-5.47646,0.783796,-1.46211,0.165421,0,-0.502727,0.221074,225,-81,225,-81,353,-93,239,40,-0.394473,-0.0348889,0,-1.5,3.94113e+12,0,0,0,-5.47646,0.783796,0,0,0,0,-1.46211,0.165421,18354,0,0,0,0,10080,0,0,0,0,0,0
12136,-3.32662e-12,1.04114e-37,-1.61279e-06,-3.40794e-12,1.04104e-37,0,0,0,0,-3.57863,0.221074,0.66291,-5.50119,0.786593,-1.44973,0.16402,0,-0.502727,0.221074,225,-81,225,-81,353,-93,239,40,-0.395276,-0.0348889,0,-1.5,3.94113e+12,0,0,0,-5.50119,0.786593,0,0,0,0,-1.44973,0.16402,18354,0,0,0,0,10080,0,0,0,0,0,0
12154,-3.32662e-12,1.04114e-37,-1.61279e-06,-3.40794e-12,1.04104e-37,0,0,0,0,-3.57863,0.221074,0.66291,-5.5257,0.789366,-1.43744,0.16263,0,-0.502727,0.221074,225,-81,225,-81,353,-93,239,40,-0.396071,-0.0348889,0,-1.5,3.94113e+12,0,0,0,-5.5257,0.789366,0,0,0,0,-1.43744,0.16263,18354,0,0,0,0,10080,0,0,0,0,0,0
12171,-3.32662e-12,1.04114e-37,-1.61279e-06,-3.40794e-12,1.04104e-37,0,0,0,0,-3.57863,0.221074,0.66291,-5.55142,0.792277,-1.42455,0.161171,0,-0.502727,0.221074,225,-81,225,-81,353,-93,239,40,-0.396906,-0.0348889,0,-1.5,3.94113e+12,0,0,0,-5.55142,0.792277,0,0,0,0,-1.42455,0.161171,18354,0,0,0,0,10080,0,0,0,0,0,0
12189,-3.32664e-12,1.03935e-37,1.04119e-37,-3.40794e-12,1.04104e-37,0,0,0,0,-3.57863,0.221074,0.66291,-5.57551,0.795001,-1.41247,0.159805,0,-0.502727,0.221074,225,-81,225,-81,353,-93,239,40,-0.397686,-0.0348889,0,-1.5,3.94113e+12,0,0,0,-5.57551,0.795001,0,0,0,0,-1.41247,0.159805,18354,0,0,0,0,10080,0,0,0,0,0,0
12203,-3.32662e-12,1.04114e-37,-1.61279e-06,-3.40794e-12,1.04104e-37,0,0,0,0,-3.57863,0.221074,0.66291,-5.5966,0.797387,-1.40191,0.15861,0,-0.502727,0.221074,225,-81,225,-81,353,-93,239,40,-0.398369,-0.0348889,0,-1.5,3.94113e+12,0,0,0,-5.5966,0.797387,0,0,0,0,-1.40191,0.15861,18354,0,0,0,0,10080,0,0,0,0,0,0
12219,-3.32662e-12,1.04114e-37,-1.61279e-06,-3.40794e-12,1.04104e-37,0,0,0,0,-3.57863,0.221074,0.66291,-5.61753,0.799755,-1.39142,0.157424,0,-0.502727,0.221074,225,-81,225,-81,353,-93,239,40,-0.399047,-0.0348889,0,-1.5,3.94113e+12,0,0,0,-5.61753,0.799755,0,0,0,0,-1.39142,0.157424,18354,0,0,0,0,10080,0,0,0,0,0,0
12236,-3.32662e-12,1.04114e-37,-1.61279e-06,-3.40794e-12,1.04104e-37,0,0,0,0,-3.57863,0.221074,0.66291,-5.64105,0.802417,-1.37963,0.15609,0,-0.502727,0.221074,225,-81,225,-81,353,-93,239,40,-0.399808,-0.0348889,0,-1.5,3.94113e+12,0,0,0,-5.64105,0.802417,0,0,0,0,-1.37963,0.15609,18354,0,0,0,0,10080,0,0,0,0,0,0
12253,-3.32662e-12,1.04114e-37,-1.61279e-06,-3.40794e-12,1.04104e-37,0,0,0,0,-3.57863,0.221074,0.66291,-5.66574,0.80521,-1.36726,0.154689,0,-0.502727,0.221074,225,-81,225,-81,353,-93,239,40,-0.400606,-0.0348889,0,-1.5,3.94113e+12,0,0,0,-5.66574,0.80521,0,0,0,0,-1.36726,0.154689,18354,0,0,0,0,10080,0,0,0,0,0,0
12271,-3.32662e-12,1.04114e-37,-1.61279e-06,-3.40794e-12,1.04104e-37,0,0,0,0,-3.57863,0.221074,0.66291,-5.68886,0.807826,-1.35567,0.153379,0,-0.502727,0.221074,225,-81,225,-81,353,-93,239,40,-0.401353,-0.0348889,0,-1.5,3.94113e+12,0,0,0,-5.68886,0.807826,0,0,0,0,-1.35567,0.153379,18354,0,0,0,0,10080,0,0,0,0,0,0
12288,-3.32662e-12,1.04114e-37,-1.61279e-06,-3.40794e-12,1.04104e-37,0,0,0,0,-3.57863,0.221074,0.66291,-5.71312,0.810571,-1.34351,0.152003,0,-0.502727,0.221074,225,-81,225,-81,353,-93,239,40,-0.402137,-0.0348889,0,-1.5,3.94113e+12,0,0,0,-5.71312,0.810571,0,0,0,0,-1.34351,0.152003,18354,0,0,0,0,10080,0,0,0,0,0,0
12305,-3.32662e-12,1.04114e-37,-1.61279e-06,-3.40794e-12,1.04104e-37,0,0,0,0,-3.57863,0.221074,0.66291,-5.73584,0.813141,-1.33213,0.150715,0,-0.502727,0.221074,225,-81,225,-81,353,-93,239,40,-0.40287,-0.0348889,0,-1.5,3.94113e+12,0,0,0,-5.73584,0.813141,0,0,0,0,-1.33213,0.150715,18354,0,0,0,0,10080,0,0,0,0,0,0
12323,-3.32662e-12,1.04114e-37,-1.61279e-06,-3.40794e-12,1.04104e-37,0,0,0,0,-3.57863,0.221074,0.66291,-5.75836,0.81569,-1.32084,0.149437,0,-0.502727,0.221074,225,-81,225,-81,353,-93,239,40,-0.403596,-0.0348889,0,-1.5,3.94113e+12,0,0,0,-5.75836,0.81569,0,0,0,0,-1.32084,0.149437,18354,0,0,0,0,10080,0,0,0,0,0,0
12340,-3.32662e-12,1.04114e-37,-1.61279e-06,-3.40794e-12,1.04104e-37,0,0,0,0,-3.57863,0.221074,0.66291,-5.78069,0.818216,-1.30964,0.148171,0,-0.502727,0.221074,225,-81,225,-81,353,-93,239,40,-0.404316,-0.0348889,0,-1.5,3.94113e+12,0,0,0,-5.78069,0.818216,0,0,0,0,-1.30964,0.148171,18354,0,0,0,0,10080,0,0,0,0,0,0
12357,-3.32662e-12,1.04114e-37,-1.61279e-06,-3.40794e-12,1.04104e-37,0,0,0,0,-3.57863,0.221074,0.66291,-5.80413,0.820868,-1.29789,0.146842,0,-0.502727,0.221074,225,-81,225,-81,353,-93,239,40,-0.40507,-0.0348889,0,-1.5,3.94113e+12,0,0,0,-5.80413,0.820868,0,0,0,0,-1.29789,0.146842,18354,0,0,0,0,10080,0,0,0,0,0,0
12374,-3.32662e-12,1.04114e-37,-1.61279e-06,-3.40794e-12,1.04104e-37,0,0,0,0,-3.57863,0.221074,0.66291,-5.82608,0.823351,-1.2869,0.145598,0,-0.502727,0.221074,225,-81,225,-81,353,-93,239,40,-0.405777,-0.0348889,0,-1.5,3.94113e+12,0,0,0,-5.82608,0.823351,0,0,0,0,-1.2869,0.145598,18354,0,0,0,0,10080,0,0,0,0,0,0
12392,-3.32662e-12,1.04114e-37,-1.61279e-06,-3.40794e-12,1.04104e-37,0,0,0,0,-3.57863,0.221074,0.66291,-5.84784,0.825812,-1.27599,0.144364,0,-0.502727,0.221074,225,-81,225,-81,353,-93,239,40,-0.406477,-0.0348889,0,-1.5,3.94113e+12,0,0,0,-5.84784,0.825812,0,0,0,0,-1.27599,0.144364,18354,0,0,0,0,10080,0,0,0,0,0,0
12409,-3.32662e-12,1.04114e-37,-1.61279e-06,-3.40794e-12,1.04104e-37,0,0,0,0,-3.57863,0.221074,0.66291,-5.86941,0.828253,-1.26518,0.14314,0,-0.502727,0.221074,225,-81,225,-81,353,-93,239,40,-0.40717,-0.0348889,0,-1.5,3.94113e+12,0,0,0,-5.86941,0.828253,0,0,0,0,-1.26518,0.14314,18354,0,0,0,0,10080,0,0,0,0,0,0
12426,-3.32662e-12,1.04114e-37,-1.61279e-06,-3.40794e-12,1.04104e-37,0,0,0,0,-3.57863,0.221074,0.66291,-5.89205,0.830815,-1.25383,0.141856,0,-0.502727,0.221074,225,-81,225,-81,353,-93,239,40,-0.407898,-0.0348889,0,-1.5,3.94113e+12,0,0,0,-5.89205,0.830815,0,0,0,0,-1.25383,0.141856,18354,0,0,0,0,10080,0,0,0,0,0,0
12441,-3.32662e-12,1.04114e-37,-1.61279e-06,-3.40794e-12,1.04104e-37,0,0,0,0,-3.57863,0.221074,0.66291,-5.91077,0.832933,-1.24445,0.140795,0,-0.502727,0.221074,225,-81,225,-81,353,-93,239,40,-0.408498,-0.0348889,0,-1.5,3.94113e+12,0,0,0,-5.91077,0.832933,0,0,0,0,-1.24445,0.140795,18354,0,0,0,0,10080,0,0,0,0,0,0
12459,-3.32662e-12,1.04114e-37,-1.61279e-06,-3.40794e-12,1.04104e-37,0,0,0,0,-3.57863,0.221074,0.66291,-5.93181,0.835313,-1.23391,0.139602,0,-0.502727,0.221074,225,-81,225,-81,353,-93,239,40,-0.409174,-0.0348889,0,-1.5,3.94113e+12,0,0,0,-5.93181,0.835313,0,0,0,0,-1.23391,0.139602,18354,0,0,0,0,10080,0,0,0,0,0,0
12476,-3.32662e-12,1.04114e-37,-1.61279e-06,-3.40794e-12,1.04104e-37,0,0,0,0,-3.57863,0.221074,0.66291,-5.9539,0.837812,-1.22284,0.13835,0,-0.502727,0.221074,225,-81,225,-81,353,-93,239,40,-0.409882,-0.0348889,0,-1.5,3.94113e+12,0,0,0,-5.9539,0.837812,0,0,0,0,-1.22284,0.13835,18354,0,0,0,0,10080,0,0,0,0,0,0
12493,-3.32662e-12,1.04114e-37,-1.61279e-06,-3.40794e-12,1.04104e-37,0,0,0,0,-3.57863,0.221074,0.66291,-5.97457,0.840151,-1.21248,0.137178,0,-0.502727,0.221074,225,-81,225,-81,353,-93,239,40,-0.410545,-0.0348889,0,-1.5,3.94113e+12,0,0,0,-5.97457,0.840151,0,0,0,0,-1.21248,0.137178,18354,0,0,0,0,10080,0,0,0,0,0,0
12511,-3.32662e-12,1.04114e-37,-1.61279e-06,-3.40794e-12,1.04104e-37,0,0,0,0,-3.57863,0.221074,0.66291,-5.99507,0.842471,-1.2022,0.136015,0,-0.502727,0.221074,225,-81,225,-81,353,-93,239,40,-0.411201,-0.0348889,0,-1.5,3.94113e+12,0,0,0,-5.99507,0.842471,0,0,0,0,-1.2022,0.136015,18354,0,0,0,0,10080,0,0,0,0,0,0
12528,-3.32662e-12,1.04114e-37,-1.61279e-06,-3.40794e-12,1.04104e-37,0,0,0,0,-3.57863,0.221074,0.66291,-6.01659,0.844905,-1.19142,0.134795,0,-0.502727,0.221074,225,-81,225,-81,353,-93,239,40,-0.41189,-0.0348889,0,-1.5,3.94113e+12,0,0,0,-6.01659,0.844905,0,0,0,0,-1.19142,0.134795,18354,0,0,0,0,10080,0,0,0,0,0,0
12545,-3.32662e-12,1.04114e-37,-1.61279e-06,-3.40794e-12,1.04104e-37,0,0,0,0,-3.57863,0.221074,0.66291,-6.03673,0.847184,-1.18132,0.133653,0,-0.502727,0.221074,225,-81,225,-81,353,-93,239,40,-0.412535,-0.0348889,0,-1.5,3.94113e+12,0,0,0,-6.03673,0.847184,0,0,0,0,-1.18132,0.133653,18354,0,0,0,0,10080,0,0,0,0,0,0
12562,-3.32662e-12,1.04114e-37,-1.61279e-06,-3.40794e-12,1.04104e-37,0,0,0,0,-3.57863,0.221074,0.66291,-6.05671,0.849444,-1.17131,0.13252,0,-0.502727,0.221074,225,-81,225,-81,353,-93,239,40,-0.413174,-0.0348889,0,-1.5,3.94113e+12,0,0,0,-6.05671,0.849444,0,0,0,0,-1.17131,0.13252,18354,0,0,0,0,10080,0,0,0,0,0,0
12580,-3.32662e-12,1.04114e-37,-1.61279e-06,-3.40794e-12,1.04104e-37,0,0,0,0,-3.57863,0.221074,0.66291,-6.07651,0.851685,-1.16139,0.131398,0,-0.502727,0.221074,225,-81,225,-81,353,-93,239,40,-0.413807,-0.0348889,0,-1.5,3.94113e+12,0,0,0,-6.07651,0.851685,0,0,0,0,-1.16139,0.131398,18354,0,0,0,0,10080,0,0,0,0,0,0
12597,-3.32662e-12,1.04114e-37,-1.61279e-06,-3.40794e-12,1.04104e-37,0,0,0,0,-3.57863,0.221074,0.66291,-6.09615,0.853907,-1.15155,0.130284,0,-0.502727,0.221074,225,-81,225,-81,353,-93,239,40,-0.414434,-0.0348889,0,-1.5,3.94113e+12,0,0,0,-6.09615,0.853907,0,0,0,0,-1.15155,0.130284,18354,0,0,0,0,10080,0,0,0,0,0,0
12614,-3.32662e-12,1.04114e-37,-1.61279e-06,-3.40794e-12,1.04104e-37,0,0,0,0,-3.57863,0.221074,0.66291,-6.11676,0.856238,-1.14122,0.129115,0,-0.502727,0.221074,225,-81,225,-81,353,-93,239,40,-0.415092,-0.0348889,0,-1.5,3.94113e+12,0,0,0,-6.11676,0.856238,0,0,0,0,-1.14122,0.129115,18354,0,0,0,0,10080,0,0,0,0,0,0
12632,-3.32662e-12,1.04114e-37,-1.61279e-06,-3.40794e-12,1.04104e-37,0,0,0,0,-3.57863,0.221074,0.66291,-6.13606,0.858422,-1.13155,0.128021,0,-0.502727,0.221074,225,-81,225,-81,353,-93,239,40,-0.415708,-0.0348889,0,-1.5,3.94113e+12,0,0,0,-6.13606,0.858422,0,0,0,0,-1.13155,0.128021,18354,0,0,0,0,10080,0,0,0,0,0,0
12649,-3.32662e-12,1.04114e-37,-1.61279e-06,-3.40794e-12,1.04104e-37,0,0,0,0,-3.57863,0.221074,0.66291,-6.15631,0.860713,-1.1214,0.126873,0,-0.502727,0.221074,225,-81,225,-81,353,-93,239,40,-0.416354,-0.0348889,0,-1.5,3.94113e+12,0,0,0,-6.15631,0.860713,0,0,0,0,-1.1214,0.126873,18354,0,0,0,0,10080,0,0,0,0,0,0
12664,-3.32662e-12,1.04114e-37,-1.61279e-06,-3.40794e-12,1.04104e-37,0,0,0,0,-3.57863,0.221074,0.66291,-6.17305,0.862607,-1.11301,0.125924,0,-0.502727,0.221074,225,-81,225,-81,353,-93,239,40,-0.416887,-0.0348889,0,-1.5,3.94113e+12,0,0,0,-6.17305,0.862607,0,0,0,0,-1.11301,0.125924,18354,0,0,0,0,10080,0,0,0,0,0,0
12687,-3.32662e-12,1.04114e-37,-1.61279e-06,-3.40794e-12,1.04104e-37,0,0,0,0,-3.57863,0.221074,0.66291,-6.19845,0.865481,-1.10026,0.124481,0,-0.502727,0.221074,225,-81,225,-81,353,-93,239,40,-0.417696,-0.0348889,0,-1.5,3.94113e+12,0,0,0,-6.19845,0.865481,0,0,0,0,-1.10026,0.124481,18354,0,0,0,0,10080,0,0,0,0,0,0
12704,-3.32662e-12,1.04114e-37,-1.61279e-06,-3.40794e-12,1.04104e-37,0,0,0,0,-3.55055,0.351551,0.65527,-6.21706,0.867585,-1.09093,0.123426,0,-0.464257,0.351551,212,-93,212,-93,337,-93,225,43,-0.418289,-0.0348889,0,-1.5,3.94113e+12,0,0,0,-6.21706,0.867585,0,0,0,0,-1.09093,0.123426,17952,0,0,0,0,12694,0,0,0,0,0,0
12722,-3.32662e-12,1.04114e-37,-1.61279e-06,-3.40794e-12,1.04104e-37,0,0,0,0,-3.55055,0.351551,0.65527,-6.2355,0.869672,-1.08169,0.122381,0,-0.464257,0.351551,212,-93,212,-93,337,-93,225,43,-0.418875,-0.0348889,0,-1.5,3.94113e+12,0,0,0,-6.2355,0.869672,0,0,0,0,-1.08169,0.122381,17952,0,0,0,0,12694,0,0,0,0,0,0
12739,-3.32662e-12,1.04114e-37,-1.61279e-06,-3.40794e-12,1.04104e-37,0,0,0,0,-3.55055,0.351551,0.65527,-6.25379,0.871742,-1.07252,0.121344,0,-0.464257,0.351551,212,-93,212,-93,337,-93,225,43,-0.419457,-0.0348889,0,-1.5,3.94113e+12,0,0,0,-6.25379,0.871742,0,0,0,0,-1.07252,0.121344,17952,0,0,0,0,12694,0,0,0,0,0,0
12756,-3.32662e-12,1.04114e-37,-1.61279e-06,-3.40794e-12,1.04104e-37,0,0,0,0,-3.55055,0.351551,0.65527,-6.27298,0.873913,-1.0629,0.120255,0,-0.464257,0.351551,212,-93,212,-93,337,-93,225,43,-0.420067,-0.0348889,0,-1.5,3.94113e+12,0,0,0,-6.27298,0.873913,0,0,0,0,-1.0629,0.120255,17952,0,0,0,0,12694,0,0,0,0,0,0
12773,-3.32662e-12,1.04114e-37,-1.61279e-06,-3.40794e-12,1.04104e-37,0,0,0,0,-3.55055,0.351551,0.65527,-6.2899,0.875827,-1.05442,0.119296,0,-0.464257,0.351551,212,-93,212,-93,337,-93,225,43,-0.420605,-0.0348889,0,-1.5,3.94113e+12,0,0,0,-6.2899,0.875827,0,0,0,0,-1.05442,0.119296,17952,0,0,0,0,12694,0,0,0,0,0,0
12790,-3.32662e-12,1.04114e-37,-1.61279e-06,-3.40794e-12,1.04104e-37,0,0,0,0,-3.55055,0.351551,0.65527,-6.30877,0.877962,-1.04496,0.118226,0,-0.464257,0.351551,212,-93,212,-93,337,-93,225,43,-0.421203,-0.0348889,0,-1.5,3.94113e+12,0,0,0,-6.30877,0.877962,0,0,0,0,-1.04496,0.118226,17952,0,0,0,0,12694,0,0,0,0,0,0
12807,-3.32662e-12,1.04114e-37,-1.61279e-06,-3.40794e-12,1.04104e-37,0,0,0,0,-3.55055,0.351551,0.65527,-6.32644,0.879962,-1.03611,0.117224,0,-0.464257,0.351551,212,-93,212,-93,337,-93,225,43,-0.421764,-0.0348889,0,-1.5,3.94113e+12,0,0,0,-6.32644,0.879962,0,0,0,0,-1.03611,0.117224,17952,0,0,0,0,12694,0,0,0,0,0,0
12824,-3.32662e-12,1.04114e-37,-1.61279e-06,-3.40794e-12,1.04104e-37,0,0,0,0,-3.55055,0.351551,0.65527,-6.34396,0.881943,-1.02733,0.11623,0,-0.464257,0.351551,212,-93,212,-93,337,-93,225,43,-0.42232,-0.0348889,0,-1.5,3.94113e+12,0,0,0,-6.34396,0.881943,0,0,0,0,-1.02733,0.11623,17952,0,0,0,0,12694,0,0,0,0,0,0
12841,-3.32662e-12,1.04114e-37,-1.61279e-06,-3.40794e-12,1.04104e-37,0,0,0,0,-3.55055,0.351551,0.65527,-6.36032,0.883794,-1.01913,0.115303,0,-0.464257,0.351551,212,-93,212,-93,337,-93,225,43,-0.422839,-0.0348889,0,-1.5,3.94113e+12,0,0,0,-6.36032,0.883794,0,0,0,0,-1.01913,0.115303,17952,0,0,0,0,12694,0,0,0,0,0,0
12859,-3.32662e-12,1.04114e-37,-1.61279e-06,-3.40794e-12,1.04104e-37,0,0,0,0,-3.55055,0.351551,0.65527,-6.37855,0.885857,-1.00999,0.114269,0,-0.464257,0.351551,212,-93,212,-93,337,-93,225,43,-0.423416,-0.0348889,0,-1.5,3.94113e+12,0,0,0,-6.37855,0.885857,0,0,0,0,-1.00999,0.114269,17952,0,0,0,0,12694,0,0,0,0,0,0
12878,-3.32662e-12,1.04114e-37,-1.61279e-06,-3.40794e-12,1.04104e-37,0,0,0,0,-3.55055,0.351551,0.65527,-6.39862,0.888127,-0.999925,0.11313,0,-0.464257,0.351551,212,-93,212,-93,337,-93,225,43,-0.424052,-0.0348889,0,-1.5,3.94113e+12,0,0,0,-6.39862,0.888127,0,0,0,0,-0.999925,0.11313,17952,0,0,0,0,12694,0,0,0,0,0,0
12894,-3.32662e-12,1.04114e-37,-1.61279e-06,-3.40794e-12,1.04104e-37,0,0,0,0,-3.55055,0.351551,0.65527,-6.41355,0.889816,-0.992446,0.112284,0,-0.464257,0.351551,212,-93,212,-93,337,-93,225,43,-0.424524,-0.0348889,0,-1.5,3.94113e+12,0,0,0,-6.41355,0.889816,0,0,0,0,-0.992446,0.112284,17952,0,0,0,0,12694,0,0,0,0,0,0
12911,-3.32662e-12,1.04114e-37,-1.61279e-06,-3.40794e-12,1.04104e-37,0,0,0,0,-3.55055,0.351551,0.65527,-6.43033,0.891715,-0.984036,0.111332,0,-0.464257,0.351551,212,-93,212,-93,337,-93,225,43,-0.425055,-0.0348889,0,-1.5,3.94113e+12,0,0,0,-6.43033,0.891715,0,0,0,0,-0.984036,0.111332,17952,0,0,0,0,12694,0,0,0,0,0,0
12928,-3.32662e-12,1.04114e-37,-1.61279e-06,-3.40794e-12,1.04104e-37,0,0,0,0,-3.55055,0.351551,0.65527,-6.44794,0.893707,-0.975208,0.110334,0,-0.464257,0.351551,212,-93,212,-93,337,-93,225,43,-0.425612,-0.0348889,0,-1.5,3.94113e+12,0,0,0,-6.44794,0.893707,0,0,0,0,-0.975208,0.110334,17952,0,0,0,0,12694,0,0,0,0,0,0
12945,-3.32662e-12,1.04114e-37,-1.61279e-06,-3.40794e-12,1.04104e-37,0,0,0,0,-3.55055,0.351551,0.65527,-6.46443,0.895573,-0.966945,0.109399,0,-0.464257,0.351551,212,-93,212,-93,337,-93,225,43,-0.426133,-0.0348889,0,-1.5,3.94113e+12,0,0,0,-6.46443,0.895573,0,0,0,0,-0.966945,0.109399,17952,0,0,0,0,12694,0,0,0,0,0,0
12962,-3.32662e-12,1.04114e-37,-1.61279e-06,-3.40794e-12,1.04104e-37,0,0,0,0,-3.55055,0.351551,0.65527,-6.47982,0.897314,-0.959232,0.108526,0,-0.464257,0.351551,212,-93,212,-93,337,-93,225,43,-0.42662,-0.0348889,0,-1.5,3.94113e+12,0,0,0,-6.47982,0.897314,0,0,0,0,-0.959232,0.108526,17952,0,0,0,0,12694,0,0,0,0,0,0
12979,-3.32662e-12,1.04114e-37,-1.61279e-06,-3.40794e-12,1.04104e-37,0,0,0,0,-3.55055,0.351551,0.65527,-6.49603,0.899149,-0.951103,0.107606,0,-0.464257,0.351551,212,-93,212,-93,337,-93,225,43,-0.427132,-0.0348889,0,-1.5,3.94113e+12,0,0,0,-6.49603,0.899149,0,0,0,0,-0.951103,0.107606,17952,0,0,0,0,12694,0,0,0,0,0,0
12996,-3.32662e-12,1.04114e-37,-1.61279e-06,-3.40794e-12,1.04104e-37,0,0,0,0,-3.55055,0.351551,0.65527,-6.51211,0.900968,-0.943043,0.106694,0,-0.464257,0.351551,212,-93,212,-93,337,-93,225,43,-0.427639,-0.0348889,0,-1.5,3.94113e+12,0,0,0,-6.51211,0.900968,0,0,0,0,-0.943043,0.106694,17952,0,0,0,0,12694,0,0,0,0,0,0
13013,-3.32662e-12,1.04114e-37,-1.61279e-06,-3.40794e-12,1.04104e-37,0,0,0,0,-3.55055,0.351551,0.65527,-6.52806,0.902772,-0.935051,0.10579,0,-0.464257,0.351551,212,-93,212,-93,337,-93,225,43,-0.428143,-0.0348889,0,-1.5,3.94113e+12,0,0,0,-6.52806,0.902772,0,0,0,0,-0.935051,0.10579,17952,0,0,0,0,12694,0,0,0,0,0,0
13029,-3.32662e-12,1.04114e-37,-1.61279e-06,-3.40794e-12,1.04104e-37,0,0,0,0,-3.55055,0.351551,0.65527,-6.54387,0.904561,-0.927128,0.104894,0,-0.464257,0.351551,212,-93,212,-93,337,-93,225,43,-0.428641,-0.0348889,0,-1.5,3.94113e+12,0,0,0,-6.54387,0.904561,0,0,0,0,-0.927128,0.104894,17952,0,0,0,0,12694,0,0,0,0,0,0
13047,-3.32662e-12,1.04114e-37,-1.61279e-06,-3.40794e-12,1.04104e-37,0,0,0,0,-3.55055,0.351551,0.65527,-6.56046,0.906438,-0.918811,0.103953,0,-0.464257,0.351551,212,-93,212,-93,337,-93,225,43,-0.429164,-0.0348889,0,-1.5,3.94113e+12,0,0,0,-6.56046,0.906438,0,0,0,0,-0.918811,0.103953,17952,0,0,0,0,12694,0,0,0,0,0,0
13064,-3.32662e-12,1.04114e-37,-1.61279e-06,-3.40794e-12,1.04104e-37,0,0,0,0,-3.55055,0.351551,0.65527,-6.57509,0.908093,-0.911482,0.103124,0,-0.464257,0.351551,212,-93,212,-93,337,-93,225,43,-0.429625,-0.0348889,0,-1.5,3.94113e+12,0,0,0,-6.57509,0.908093,0,0,0,0,-0.911482,0.103124,17952,0,0,0,0,12694,0,0,0,0,0,0
13081,-3.32662e-12,1.04114e-37,-1.61279e-06,-3.40794e-12,1.04104e-37,0,0,0,0,-3.55055,0.351551,0.65527,-6.5914,0.909939,-0.903305,0.102198,0,-0.464257,0.351551,212,-93,212,-93,337,-93,225,43,-0.430139,-0.0348889,0,-1.5,3.94113e+12,0,0,0,-6.5914,0.909939,0,0,0,0,-0.903305,0.102198,17952,0,0,0,0,12694,0,0,0,0,0,0
13098,-3.32662e-12,1.04114e-37,-1.61279e-06,-3.40794e-12,1.04104e-37,0,0,0,0,-3.55055,0.351551,0.65527,-6.60667,0.911667,-0.895651,0.101333,0,-0.464257,0.351551,212,-93,212,-93,337,-93,225,43,-0.430619,-0.0348889,0,-1.5,3.94113e+12,0,0,0,-6.60667,0.911667,0,0,0,0,-0.895651,0.101333,17952,0,0,0,0,12694,0,0,0,0,0,0
13113,-3.32662e-12,1.04114e-37,-1.61279e-06,-3.40794e-12,1.04104e-37,0,0,0,0,-3.55055,0.351551,0.65527,-6.62005,0.91318,-0.888953,0.100575,0,-0.464257,0.351551,212,-93,212,-93,337,-93,225,43,-0.43104,-0.0348889,0,-1.5,3.94113e+12,0,0,0,-6.62005,0.91318,0,0,0,0,-0.888953,0.100575,17952,0,0,0,0,12694,0,0,0,0,0,0
13128,-3.32662e-12,1.04114e-37,-1.61279e-06,-3.40794e-12,1.04104e-37,0,0,0,0,-3.52818,0.295577,0.466581,-6.63332,0.914681,-0.882305,0.0998226,0,-0.433611,0.295577,218,-64,218,-64,344,-75,227,62,-0.431458,-0.0348889,0,-1.5,3.94113e+12,0,0,0,-6.63332,0.914681,0,0,0,0,-0.882305,0.0998226,18769,0,0,0,0,13118,0,0,0,0,0,0
13145,-3.32662e-12,1.04114e-37,-1.61279e-06,-3.40794e-12,1.04104e-37,0,0,0,0,-3.52818,0.295577,0.466581,-6.64824,0.916369,-0.874829,0.0989768,0,-0.433611,0.295577,218,-64,218,-64,344,-75,227,62,-0.431927,-0.0348889,0,-1.5,3.94113e+12,0,0,0,-6.64824,0.916369,0,0,0,0,-0.874829,0.0989768,18769,0,0,0,0,13118,0,0,0,0,0,0
13162,-3.32662e-12,1.04114e-37,-1.61279e-06,-3.40794e-12,1.04104e-37,0,0,0,0,-3.57559,0.28618,0.518067,-6.66216,0.917945,-0.867851,0.0981873,0,-0.498556,0.28618,218,-68,218,-68,342,-77,234,60,-0.432365,-0.0348889,0,-1.5,3.94113e+12,0,0,0,-6.66216,0.917945,0,0,0,0,-0.867851,0.0981873,18906,0,0,0,0,13152,0,0,0,0,0,0
13179,-3.32662e-12,1.04114e-37,-1.61279e-06,-3.40794e-12,1.04104e-37,0,0,0,0,-3.57559,0.28618,0.518067,-6.6777,0.919702,-0.860066,0.0973064,0,-0.498556,0.28618,218,-68,218,-68,342,-77,234,60,-0.432853,-0.0348889,0,-1.5,3.94113e+12,0,0,0,-6.6777,0.919702,0,0,0,0,-0.860066,0.0973064,18906,0,0,0,0,13152,0,0,0,0,0,0
13199,-3.32662e-12,1.04114e-37,-1.61279e-06,-3.40794e-12,1.04104e-37,0,0,0,0,-3.65652,0.341587,0.609617,-6.69393,0.921539,-0.851921,0.0963849,0,-0.609431,0.341587,216,-72,216,-72,334,-80,228,54,-0.331957,-0.0348889,0,-1.5,3.94113e+12,0,0,0,-0.659688,0.354791,0,0,0,0,-2.64241,0.694684,17956,6.06826,-0.578115,-1.79049,0.598299,13186,0,0,0,0,0,0
