timestamp,A_x,A_y,A_z,P,Q,R,Phi,Theta,Psi,poseX,poseY,poseZ,state_X,state_Y,state_Z,state_VzB,state_Bx,state_By,state_Bz,p1_x,p1_y,p2_x,p2_y,p3_x,p3_y,p4_x,p4_y,roll,pitch,yaw,alt,targetHeading,highLevelState,lowLevelState,gateNumber,filtered_x,filtered_y,x_OT,y_OT,vx_OT,vy_OT,filtered_vx,filtered_vygateArearansac_corr_x,ransac_corr_y,ransac_corr_vx,ransac_corr_vy,detectionTimeStamppTermX,dTermX,pTermY,dTermY,vxcmd,vycmd
10784,0.0986328,0,-5.87109,-0.000354664,-0.000163736,-0.00292011,-0.0322181,0.00494877,-0.655706,0,0,0,-7.57162e-06,-7.09812e-06,-0.00160695,-0.00150903,-0.654767,0,0,0,0,0,0,0,0,0,0,0.266017,-0.520307,0,-1.5,3.84165e-38,0,0,0,-7.57162e-06,-7.09812e-06,-0.0585938,0.0390625,0,0,-0.00160695,-0.00150903,1.9603e-19,0,0,0,0,0,0,0,0,0,2,1.41962e-05
10805,0.170898,0,1.24707,-0.00166631,0.000373496,-0.00421359,-0.0329462,0.00468558,-0.65797,-6.88538,-6.04469,-0.386129,-0.00858121,-0.00814799,-0.0461875,-0.0438866,-0.657063,0,0,652,154,652,154,712,137,651,215,0.278422,-0.510738,0,-1.5,3.84165e-38,0,0,0,-0.00858121,-0.00814799,-0.0585938,0.0390625,0,0,-0.0461875,-0.0438866,4758,0,0,0,0,0,0,0,0,0,2,0.016296
10965,0.118164,0,7.02734,-0.00201232,6.93475e-05,-0.00290588,-0.0337055,0.00431883,-0.660313,-6.94923,-6.09177,-0.388742,-0.0209862,-0.0200478,-0.0795917,-0.0764015,-0.65936,0,0,652,154,652,154,710,139,651,215,0.290321,-0.501473,0,-1.5,3.84165e-38,0,0,0,-0.0209862,-0.0200478,-0.0585938,0.0390625,0,0,-0.0795917,-0.0764015,4636,0,0,0,0,0,0,0,0,0,2,0.0400955
11005,0.269531,0,-4.31055,-0.000756983,-1.57807e-06,-0.00278488,-0.0345172,0.00393805,-0.662537,-6.94923,-6.09177,-0.388742,-0.0244124,-0.0233457,-0.0874198,-0.0842375,-0.66164,0,0,652,154,652,154,710,139,651,215,0.293913,-0.498593,0,-1.5,3.84165e-38,0,0,0,-0.0244124,-0.0233457,-0.0585938,0.0390625,0,0,-0.0874198,-0.0842375,4636,0,0,0,0,0,0,0,0,0,2,0.0466913
11025,0.166016,0,-6.67285,-0.0010944,-0.000293789,-0.00268805,-0.0350996,0.00367095,-0.664855,-6.94901,-6.08988,-0.386138,-0.0261188,-0.0249929,-0.0911076,-0.0880423,-0.663949,0,0,652,154,652,154,710,139,651,215,0.296058,-0.49682,0,-1.5,3.84165e-38,0,0,0,-0.0261188,-0.0249929,-0.0585938,0.0390625,0,0,-0.0911076,-0.0880423,4636,0,0,0,0,0,0,0,0,0,2,0.0499859
11044,0.160156,0,6.26855,-0.000605035,0.000764123,-0.00334887,-0.0354104,0.00345962,-0.666294,-6.94901,-6.08988,-0.386138,-0.0279922,-0.0268073,-0.0949979,-0.0921242,-0.666207,0,0,652,154,652,154,710,139,651,215,0.298301,-0.494959,0,-1.5,3.84165e-38,0,0,0,-0.0279922,-0.0268073,-0.0585938,0.0390625,-0.00999832,-0.00999832,-0.0949979,-0.0921242,4636,0,0,0,0,0,0,0,0,0,2,0.0536146
11063,0.134766,0,4.91309,0.000525185,-9.37465e-05,-0.00314987,-0.0354126,0.00345583,-0.666337,-6.94901,-6.08988,-0.386138,-0.0298438,-0.0286073,-0.0986711,-0.0960276,-0.666337,0,0,652,154,652,154,710,139,651,215,0.299817,-0.493761,0,-1.5,3.84165e-38,0,0,0,-0.0298438,-0.0286073,-0.0585938,0.0390625,0,0,-0.0986711,-0.0960276,4636,0,0,0,0,0,0,0,0,0,2,0.0572146
11082,0.191406,0,-2.56055,-0.000474555,-2.2741e-05,-0.00313268,-0.0354291,0.00345556,-0.666418,-6.94901,-6.08988,-0.386138,-0.0317663,-0.0304826,-0.102311,-0.0998959,-0.666418,0,0,652,154,652,154,710,139,651,215,0.30134,-0.492559,0,-1.5,3.84165e-38,0,0,0,-0.0317663,-0.0304826,-0.0585938,0.0390625,0,0,-0.102311,-0.0998959,4636,0,0,0,0,0,0,0,0,0,2,0.0609652
11099,0.224609,0,6.29883,-0.000554046,0.00119469,-0.0020142,-0.0354311,0.00346167,-0.666452,-6.93742,-6.06867,-0.393784,-0.0334353,-0.0321149,-0.105349,-0.103124,-0.666452,0,0,652,154,652,154,710,140,649,215,0.302627,-0.491545,0,-1.5,3.84165e-38,0,0,0,-0.0334353,-0.0321149,-0.0585938,0.0390625,0,0,-0.105349,-0.103124,4725,0,0,0,0,0,0,0,0,0,2,0.0642298
11123,0.290039,0,-1.50391,-0.00107961,-0.00108787,-0.00307044,-0.0354567,0.00344981,-0.666537,-6.93742,-6.06867,-0.393784,-0.0361541,-0.0347834,-0.110057,-0.108125,-0.666537,0,0,652,154,652,154,710,140,649,215,0.304685,-0.489922,0,-1.5,3.84165e-38,0,0,0,-0.0361541,-0.0347834,-0.0585938,0.0390625,0,0,-0.110057,-0.108125,4725,0,0,0,0,0,0,0,0,0,2,0.0695668
11143,0.256836,0,-0.442383,-0.000997933,-0.000327403,-0.0034504,-0.0354734,0.00343485,-0.666582,-6.93742,-6.06867,-0.393784,-0.0384058,-0.0369996,-0.113778,-0.112082,-0.666582,0,0,652,154,652,154,710,140,649,215,0.306348,-0.488611,0,-1.5,3.84165e-38,0,0,0,-0.0384058,-0.0369996,-0.0585938,0.0390625,0,0,-0.113778,-0.112082,4725,0,0,0,0,0,0,0,0,0,2,0.0739992
11233,0.160156,0,2.4248,-0.00139482,-0.0011725,-0.00375345,-0.0355358,0.00338789,-0.66687,-6.9374,-6.06856,-0.393567,-0.0498714,-0.0484003,-0.130165,-0.129523,-0.666825,0,0,652,154,652,154,710,140,649,215,0.314329,-0.482314,0,-1.5,3.84165e-38,0,0,0,-0.0498714,-0.0484003,-0.0585938,0.0390625,0,0,-0.130165,-0.129523,4725,0,0,0,0,0,0,0,0,0,2,0.0968006
11253,0.193359,0,4.96875,-0.000464924,-0.000429774,-0.00266427,-0.0355472,0.00337226,-0.666911,-6.9374,-6.06856,-0.393567,-0.0526601,-0.0511793,-0.133864,-0.133474,-0.666911,0,0,652,154,652,154,710,140,649,215,0.316224,-0.480817,0,-1.5,3.84165e-38,0,0,0,-0.0526601,-0.0511793,-0.0585938,0.0390625,0,0,-0.133864,-0.133474,4725,0,0,0,0,0,0,0,0,0,2,0.102359
11273,0.259766,0,5.71875,-0.000789811,-0.000547237,-0.00292808,-0.0355574,0.00334068,-0.666991,-6.9374,-6.06856,-0.393567,-0.055247,-0.0537618,-0.137176,-0.137014,-0.66695,0,0,652,154,652,154,710,140,649,215,0.317946,-0.479458,0,-1.5,3.84165e-38,0,0,0,-0.055247,-0.0537618,-0.0585938,0.0390625,-0.00999832,-0.00999832,-0.137176,-0.137014,4725,0,0,0,0,0,0,0,0,0,2,0.107524
11292,0.259766,0,5.71875,-0.000789811,-0.000547237,-0.00292808,-0.0355574,0.00334068,-0.666991,-6.8952,-6.04827,-0.396445,-0.0580389,-0.0565539,-0.140626,-0.14071,-0.666991,0,0,652,154,652,154,712,139,651,215,0.319781,-0.47801,0,-1.5,3.84165e-38,0,0,0,-0.0580389,-0.0565539,-0.0585938,0.0390625,-0.00999832,-0.00999832,-0.140626,-0.14071,4636,0,0,0,0,0,0,0,0,0,2,0.113108
11312,0.271484,0,1.86035,-0.00151828,-0.000729622,-0.0037147,-0.0356024,0.00331918,-0.667103,-6.8952,-6.04827,-0.396445,-0.0608994,-0.0594194,-0.144041,-0.144369,-0.66706,0,0,652,154,652,154,712,139,651,215,0.321646,-0.476536,0,-1.5,3.84165e-38,0,0,0,-0.0608994,-0.0594194,-0.0585938,0.0390625,-0.00999832,-0.00999832,-0.144041,-0.144369,4636,0,0,0,0,0,0,0,0,0,2,0.118839
11332,0.271484,0,-1.69238,-0.000533347,0.000237585,-0.00247834,-0.0355984,0.00332419,-0.667137,-6.89524,-6.04826,-0.3966,-0.0638277,-0.0623577,-0.147425,-0.147997,-0.667137,0,0,652,154,652,154,712,139,651,215,0.323536,-0.475041,0,-1.5,3.84165e-38,0,0,0,-0.0638277,-0.0623577,-0.0585938,0.0390625,-0.00999832,-0.00999832,-0.147425,-0.147997,4636,0,0,0,0,0,0,0,0,0,2,0.124715
11352,0.271484,0,-0.379883,0.000659155,0.00023683,-0.00368103,-0.0355956,0.00332462,-0.667188,-6.94398,-6.09098,-0.391866,-0.0668232,-0.065368,-0.150776,-0.15159,-0.667188,0,0,652,154,652,154,712,140,651,215,0.32544,-0.473537,0,-1.5,3.84165e-38,0,0,0,-0.0668232,-0.065368,-0.0585938,0.0390625,-0.00999832,0,-0.150776,-0.15159,4575,0,0,0,0,0,0,0,0,0,2,0.130736
11372,0.22168,0,-2.05859,-0.00130418,0.000111253,-0.00271995,-0.0356228,0.00331207,-0.667273,-6.94398,-6.09098,-0.391866,-0.0698852,-0.0684497,-0.154093,-0.155149,-0.667273,0,0,652,154,652,154,712,140,651,215,0.327374,-0.472005,0,-1.5,3.84165e-38,0,0,0,-0.0698852,-0.0684497,-0.0585938,0.0390625,-0.00999832,0,-0.154093,-0.155149,4575,0,0,0,0,0,0,0,0,0,2,0.136899
11392,0.22168,0,-2.05859,-0.00130418,0.000111253,-0.00271995,-0.0356228,0.00331207,-0.667273,-6.9488,-6.08666,-0.382423,-0.0730132,-0.0716022,-0.157379,-0.158675,-0.667273,0,0,652,154,652,154,710,139,651,215,0.329305,-0.470484,0,-1.5,3.84165e-38,0,0,0,-0.0730132,-0.0716022,-0.0585938,0.0390625,-0.00999832,0,-0.157379,-0.158675,4636,0,0,0,0,0,0,0,0,0,2,0.143204
11412,0.148438,0,-2.94238,-0.000365383,-4.28752e-05,-0.0028199,-0.0356447,0.0033052,-0.667398,-6.97515,-6.11804,-0.381906,-0.0762064,-0.0748247,-0.160633,-0.162168,-0.667398,0,0,652,154,652,154,712,140,651,215,0.331293,-0.468905,0,-1.5,3.84165e-38,0,0,0,-0.0762064,-0.0748247,-0.0585938,0.0390625,-0.00999832,0,-0.160633,-0.162168,4575,0,0,0,0,0,0,0,0,0,2,0.149649
11432,0.148438,0,3.46582,-0.00124088,3.17977e-05,-0.00308029,-0.03565,0.0033053,-0.667441,-6.97515,-6.11804,-0.381906,-0.0794643,-0.0781166,-0.163856,-0.165628,-0.667441,0,0,652,154,652,154,712,140,651,215,0.333278,-0.467337,0,-1.5,3.84165e-38,0,0,0,-0.0794643,-0.0781166,-0.0585938,0.0390625,-0.00999832,0,-0.163856,-0.165628,4575,0,0,0,0,0,0,0,0,0,2,0.156233
11452,0.168945,0,-4.67188,-0.00131211,0.0004352,-0.00254377,-0.0356639,0.0033012,-0.667479,-6.89158,-6.04582,-0.408733,-0.0827862,-0.0814772,-0.167048,-0.169056,-0.667479,0,0,652,154,652,154,710,140,653,218,0.335282,-0.465753,0,-1.5,3.84165e-38,0,0,0,-0.0827862,-0.0814772,-0.0585938,0.0390625,-0.00999832,0,-0.167048,-0.169056,4680,0,0,0,0,0,0,0,0,0,2,0.162954
11477,0.235352,0,4.30762,-0.000704482,-0.000135741,-0.00323092,-0.0356558,0.00328236,-0.667563,-6.89158,-6.04582,-0.408733,-0.087036,-0.0857827,-0.170998,-0.173299,-0.667563,0,0,652,154,652,154,710,140,653,218,0.33783,-0.463736,0,-1.5,3.84165e-38,0,0,0,-0.087036,-0.0857827,-0.0585938,0.0390625,0,0,-0.170998,-0.173299,4680,0,0,0,0,0,0,0,0,0,2,0.171565
11503,0.244141,0,-2.10254,-0.00186591,-0.000234312,-0.00245774,-0.0356683,0.00326453,-0.667634,-6.89158,-6.04582,-0.408733,-0.091559,-0.0903713,-0.175049,-0.177657,-0.667634,0,0,652,154,652,154,710,140,653,218,0.340508,-0.461617,0,-1.5,3.84165e-38,0,0,0,-0.091559,-0.0903713,-0.0585938,0.0390625,0,0,-0.175049,-0.177657,4680,0,0,0,0,0,0,0,0,0,2,0.180743
11522,0.244141,0,-2.10254,-0.00186591,-0.000234312,-0.00245774,-0.0356683,0.00326453,-0.667634,-6.89162,-6.04579,-0.408905,-0.0949233,-0.0937881,-0.177972,-0.180805,-0.667634,0,0,652,154,652,154,710,140,653,218,0.342467,-0.460072,0,-1.5,3.84165e-38,0,0,0,-0.0949233,-0.0937881,-0.0585938,0.0390625,0,0,-0.177972,-0.180805,4680,0,0,0,0,0,0,0,0,0,2,0.187576
11542,0.144531,0,-2.0791,-0.00139642,-0.000238851,-0.00289096,-0.0357085,0.00325992,-0.667763,-6.89162,-6.04579,-0.408905,-0.0985255,-0.0974502,-0.181022,-0.184088,-0.667763,0,0,652,154,652,154,710,140,653,218,0.344587,-0.458386,0,-1.5,3.84165e-38,0,0,0,-0.0985255,-0.0974502,-0.0585938,0.0390625,0,0,-0.181022,-0.184088,4680,0,0,0,0,0,0,0,0,0,2,0.1949
11563,0.144531,0,-2.0791,-0.00139642,-0.000238851,-0.00289096,-0.0357085,0.00325992,-0.667763,-6.79657,-5.96141,-0.406072,-0.102188,-0.101178,-0.184044,-0.187344,-0.667763,0,0,652,154,652,154,712,137,651,215,0.346689,-0.456728,0,-1.5,3.84165e-38,0,0,0,-0.102188,-0.101178,-0.0585938,0.0390625,0,0,-0.184044,-0.187344,4758,0,0,0,0,0,0,0,0,0,2,0.202355
11582,0.116211,0,-2.96777,-0.00174377,-0.000774219,-0.00320626,-0.0357642,0.00324789,-0.667887,-6.79657,-5.96141,-0.406072,-0.105911,-0.10497,-0.187037,-0.190569,-0.667887,0,0,652,154,652,154,712,137,651,215,0.348846,-0.455011,0,-1.5,3.84165e-38,0,0,0,-0.105911,-0.10497,-0.0585938,0.0390625,0,0,-0.187037,-0.190569,4758,0,0,0,0,0,0,0,0,0,2,0.20994
11603,0.249023,0,-4.68555,-0.00143234,0.000647228,-0.00197614,-0.0358023,0.00325573,-0.667949,-6.79657,-5.96141,-0.406072,-0.109884,-0.10902,-0.190154,-0.193928,-0.667921,0,0,652,154,652,154,712,137,651,215,0.351105,-0.453225,0,-1.5,3.84165e-38,0,0,0,-0.109884,-0.10902,-0.0585938,0.0390625,0,0,-0.190154,-0.193928,4758,0,0,0,0,0,0,0,0,0,2,0.218041
11622,0.249023,0,-4.68555,-0.00143234,0.000647228,-0.00197614,-0.0358023,0.00325573,-0.667949,-7.00611,-6.14499,-0.383689,-0.113534,-0.112744,-0.192948,-0.196939,-0.667949,0,0,650,156,650,156,712,140,653,215,0.353165,-0.451595,0,-1.5,3.84165e-38,0,0,0,-0.113534,-0.112744,-0.0585938,0.0390625,0,0,-0.192948,-0.196939,4650,0,0,0,0,0,0,0,0,0,2,0.225489
11643,0.257812,0,4.28418,0.000302491,-0.000348225,-0.00363396,-0.0357893,0.00324335,-0.668031,-7.00611,-6.14499,-0.383689,-0.117433,-0.116727,-0.195862,-0.20008,-0.668031,0,0,650,156,650,156,712,140,653,215,0.355368,-0.449847,0,-1.5,3.84165e-38,0,0,0,-0.117433,-0.116727,-0.0585938,0.0390625,0,0,-0.195862,-0.20008,4650,0,0,0,0,0,0,0,0,0,2,0.233455
11662,0.151367,0,-2.16211,-0.000596959,0.000546991,-0.00320475,-0.0357999,0.00323346,-0.66811,-7.00255,-6.15052,-0.375585,-0.121391,-0.120772,-0.198745,-0.203189,-0.66811,0,0,652,154,652,154,712,140,653,215,0.357588,-0.448084,0,-1.5,3.84165e-38,0,0,0,-0.121391,-0.120772,-0.0585938,0.0390625,0,0,-0.198745,-0.203189,4500,0,0,0,0,0,0,0,0,0,2,0.241545
11682,0.140625,0,-1.9209,-0.00156971,0.000382197,-0.00271962,-0.0358065,0.00322532,-0.66815,-7.067,-6.21162,-0.372687,-0.125406,-0.124879,-0.2016,-0.20627,-0.66815,0,0,653,156,653,156,712,140,653,215,0.359815,-0.44632,0,-1.5,3.84165e-38,0,0,0,-0.125406,-0.124879,-0.0585938,0.0390625,0,0,-0.2016,-0.20627,4425,0,0,0,0,0,0,0,0,0,2,0.249759
11703,0.140625,0,-5.76367,-0.000142976,0.00080648,-0.001845,-0.0358144,0.0032236,-0.66822,-7.067,-6.21162,-0.372687,-0.129478,-0.129048,-0.204426,-0.209322,-0.66822,0,0,653,156,653,156,712,140,653,215,0.362069,-0.444531,0,-1.5,3.84165e-38,0,0,0,-0.129478,-0.129048,-0.0585938,0.0390625,0,0,-0.204426,-0.209322,4425,0,0,0,0,0,0,0,0,0,2,0.258095
11719,0.198242,0,4.64746,-0.000426384,0.000313499,-0.00258833,-0.035821,0.00322198,-0.668264,-7.067,-6.21162,-0.372687,-0.132979,-0.132634,-0.206804,-0.211891,-0.668264,0,0,653,156,653,156,712,140,653,215,0.363992,-0.443006,0,-1.5,3.84165e-38,0,0,0,-0.132979,-0.132634,-0.0585938,0.0390625,0,0,-0.206804,-0.211891,4425,0,0,0,0,0,0,0,0,0,2,0.265269
11743,0.287109,0,4.50195,-0.00026061,-0.000613539,-0.00304381,-0.0358271,0.00319987,-0.668335,-7.067,-6.21162,-0.372687,-0.138,-0.137782,-0.210134,-0.215488,-0.668302,0,0,653,156,653,156,712,140,653,215,0.366728,-0.44084,0,-1.5,3.84165e-38,0,0,0,-0.138,-0.137782,-0.0585938,0.0390625,0,0,-0.210134,-0.215488,4425,0,0,0,0,0,0,0,0,0,2,0.275563
11763,0.287109,0,-5.56445,-0.0011044,0.000401505,-0.00358864,-0.0358438,0.00320342,-0.668379,-6.92607,-6.07461,-0.38602,-0.142026,-0.141913,-0.212738,-0.218305,-0.668379,0,0,652,154,652,154,712,139,651,215,0.368923,-0.439095,0,-1.5,3.84165e-38,0,0,0,-0.142026,-0.141913,-0.0585938,0.0390625,0,0,-0.212738,-0.218305,4636,0,0,0,0,0,0,0,0,0,2,0.283826
11782,0.28418,0,0.49707,-0.00104892,5.16541e-05,-0.00237344,-0.0358512,0.00319911,-0.668417,-6.92607,-6.07461,-0.38602,-0.146319,-0.14632,-0.215455,-0.221245,-0.668417,0,0,652,154,652,154,712,139,651,215,0.371239,-0.43726,0,-1.5,3.84165e-38,0,0,0,-0.146319,-0.14632,-0.0585938,0.0390625,0,0,-0.215455,-0.221245,4636,0,0,0,0,0,0,0,0,0,2,0.29264
11803,0.217773,0,6.2832,-0.000433404,0.000206813,-0.00290551,-0.0358605,0.00319737,-0.668494,-6.92607,-6.07461,-0.38602,-0.150666,-0.150786,-0.218146,-0.224156,-0.668494,0,0,652,154,652,154,712,139,651,215,0.373583,-0.435397,0,-1.5,3.84165e-38,0,0,0,-0.150666,-0.150786,-0.0585938,0.0390625,0,0,-0.218146,-0.224156,4636,0,0,0,0,0,0,0,0,0,2,0.301572
11822,0.217773,0,6.2832,-0.000433404,0.000206813,-0.00290551,-0.0358605,0.00319737,-0.668494,-6.92607,-6.07461,-0.38602,-0.155066,-0.155309,-0.22081,-0.227039,-0.668494,0,0,652,154,652,154,712,139,651,215,0.375923,-0.433548,0,-1.5,3.84165e-38,0,0,0,-0.155066,-0.155309,-0.0585938,0.0390625,0,0,-0.22081,-0.227039,4636,0,0,0,0,0,0,0,0,0,2,0.310619
11843,0.128906,0,-2.96387,-0.000539048,-0.000925255,-0.00316022,-0.0358837,0.00319645,-0.668608,-6.92607,-6.07461,-0.38602,-0.15952,-0.15989,-0.223449,-0.229894,-0.668608,0,0,652,154,652,154,712,139,651,215,0.37831,-0.431643,0,-1.5,3.84165e-38,0,0,0,-0.15952,-0.15989,-0.0585938,0.0390625,-0.00999832,0.00999832,-0.223449,-0.229894,4636,0,0,0,0,0,0,0,0,0,2,0.319781
11862,0.128906,0,-2.96387,-0.000539048,-0.000925255,-0.00316022,-0.0358837,0.00319645,-0.668608,-6.91733,-6.05887,-0.391676,-0.164025,-0.164528,-0.226064,-0.232723,-0.668608,0,0,652,154,652,154,710,139,651,215,0.380685,-0.429767,0,-1.5,3.84165e-38,0,0,0,-0.164025,-0.164528,-0.0585938,0.0390625,-0.00999832,0.00999832,-0.226064,-0.232723,4636,0,0,0,0,0,0,0,0,0,2,0.329056
11882,0.128906,0,-0.825195,0.000244569,0.000960638,-0.0029507,-0.0358882,0.00319105,-0.668727,-6.91731,-6.05882,-0.391545,-0.168583,-0.169222,-0.228653,-0.235525,-0.668727,0,0,652,154,652,154,710,139,651,215,0.383106,-0.427832,0,-1.5,3.84165e-38,0,0,0,-0.168583,-0.169222,-0.0585938,0.0390625,0,0,-0.228653,-0.235525,4636,0,0,0,0,0,0,0,0,0,2,0.338443
11943,0.244141,0,5.2373,-0.00167434,0.000381477,-0.00252202,-0.0359138,0.00318527,-0.668873,-6.95264,-6.10646,-0.380343,-0.182945,-0.184037,-0.236464,-0.243978,-0.668873,0,0,652,154,652,154,712,139,653,215,0.390612,-0.421872,0,-1.5,3.84165e-38,0,0,0,-0.182945,-0.184037,-0.0585938,0.0390625,0,0,-0.236464,-0.243978,4560,0,0,0,0,0,0,0,0,0,2,0.368074
11962,0.250977,0,-6.71777,-0.000646367,-0.000640035,-0.00316007,-0.035921,0.00317058,-0.66896,-7.03016,-6.1575,-0.379059,-0.187469,-0.188706,-0.238829,-0.246537,-0.668873,0,0,650,156,650,156,710,140,653,215,0.392946,-0.420028,0,-1.5,3.84165e-38,0,0,0,-0.187469,-0.188706,-0.0585938,0.0390625,0,0,-0.238829,-0.246537,4650,0,0,0,0,0,0,0,0,0,2,0.377412
11977,0.217773,0,4.35645,-0.00031635,8.94299e-05,-0.00323933,-0.0358887,0.00317383,-0.668945,-7.03016,-6.1575,-0.379059,-0.191069,-0.192423,-0.240678,-0.248539,-0.66896,0,0,650,156,650,156,710,140,653,215,0.394818,-0.418531,0,-1.5,3.84165e-38,0,0,0,-0.191069,-0.192423,-0.0585938,0.0390625,0,0,-0.240678,-0.248539,4650,0,0,0,0,0,0,0,0,0,2,0.384847
11990,0.18457,0,-3.00098,0.000153532,-0.000801298,-0.00334422,-0.0359226,0.0031507,-0.669054,-6.94873,-6.08602,-0.381557,-0.194211,-0.195668,-0.242266,-0.25026,-0.668945,0,0,652,154,652,154,710,139,651,215,0.396424,-0.417264,0,-1.5,3.84165e-38,0,0,0,-0.194211,-0.195668,-0.0585938,0.0390625,0,0,-0.242266,-0.25026,4636,0,0,0,0,0,0,0,0,0,2,0.391337
12013,0.151367,0,-4.66113,-0.000404808,-0.000403413,-0.0037784,-0.035914,0.00315127,-0.669101,-6.94398,-6.09039,-0.391132,-0.199583,-0.20122,-0.244935,-0.253153,-0.669101,0,0,652,154,652,154,712,140,651,215,0.399207,-0.415031,0,-1.5,3.84165e-38,0,0,0,-0.199583,-0.20122,-0.0585938,0.0390625,0,0,-0.244935,-0.253153,4575,0,0,0,0,0,0,0,0,0,2,0.40244
12032,0.128906,0,1.21289,0.00106811,0.00012722,-0.00278744,-0.0359186,0.00315166,-0.66917,-6.94398,-6.09039,-0.391132,-0.204515,-0.20632,-0.247335,-0.255758,-0.669101,0,0,652,154,652,154,712,140,651,215,0.401718,-0.413046,0,-1.5,3.84165e-38,0,0,0,-0.204515,-0.20632,-0.0585938,0.0390625,0,0,-0.247335,-0.255758,4575,0,0,0,0,0,0,0,0,0,2,0.412639
12052,0.128906,0,-5.91699,-0.000862501,0.000169913,-0.00286828,-0.0359295,0.00315692,-0.6692,-6.94398,-6.09041,-0.391179,-0.209495,-0.211471,-0.249713,-0.258338,-0.6692,0,0,652,154,652,154,712,140,651,215,0.404267,-0.411008,0,-1.5,3.84165e-38,0,0,0,-0.209495,-0.211471,-0.0585938,0.0390625,0,0,-0.249713,-0.258338,4575,0,0,0,0,0,0,0,0,0,2,0.422942
12073,0.128906,0,3.98047,-0.000367993,0.000279257,-0.00318328,-0.0359304,0.00316,-0.669282,-6.94398,-6.09041,-0.391179,-0.214775,-0.216935,-0.252186,-0.261019,-0.669239,0,0,652,154,652,154,712,140,651,215,0.406945,-0.408882,0,-1.5,3.84165e-38,0,0,0,-0.214775,-0.216935,-0.0585938,0.0390625,0,0,-0.252186,-0.261019,4575,0,0,0,0,0,0,0,0,0,2,0.43387
12092,0.128906,0,3.98047,-0.000367993,0.000279257,-0.00318328,-0.0359304,0.00316,-0.669282,-6.96715,-6.10242,-0.386761,-0.219596,-0.221926,-0.254402,-0.26342,-0.669282,0,0,652,154,652,154,710,140,651,215,0.409383,-0.406944,0,-1.5,3.84165e-38,0,0,0,-0.219596,-0.221926,-0.0585938,0.0390625,0,0,-0.254402,-0.26342,4575,0,0,0,0,0,0,0,0,0,2,0.443851
12112,0.128906,0,-5.29102,-0.000800519,-0.000716248,-0.00241482,-0.0359374,0.00314786,-0.669353,-6.96715,-6.10241,-0.386734,-0.224716,-0.227229,-0.256712,-0.265924,-0.669353,0,0,652,154,652,154,710,140,651,215,0.41197,-0.404881,0,-1.5,3.84165e-38,0,0,0,-0.224716,-0.227229,-0.0585938,0.0390625,0,0,-0.256712,-0.265924,4575,0,0,0,0,0,0,0,0,0,2,0.454458
12132,0.128906,0,-5.29102,-0.000800519,-0.000716248,-0.00241482,-0.0359374,0.00314786,-0.669353,-6.96715,-6.10241,-0.386734,-0.229882,-0.232582,-0.258998,-0.268404,-0.669353,0,0,652,154,652,154,710,140,651,215,0.414555,-0.402835,0,-1.5,3.84165e-38,0,0,0,-0.229882,-0.232582,-0.0585938,0.0390625,0,0,-0.258998,-0.268404,4575,0,0,0,0,0,0,0,0,0,2,0.465165
12152,0.128906,0,4.97949,0.000213682,0.00018624,-0.00317382,-0.0359223,0.00312839,-0.669457,-6.96716,-6.1024,-0.386776,-0.235094,-0.237985,-0.26126,-0.27086,-0.669457,0,0,652,154,652,154,710,140,651,215,0.417179,-0.400735,0,-1.5,3.84165e-38,0,0,0,-0.235094,-0.237985,-0.0585938,0.0390625,-0.00999832,0,-0.26126,-0.27086,4575,0,0,0,0,0,0,0,0,0,2,0.47597
12172,0.128906,0,-5.89746,-2.45017e-05,0.000137584,-0.00305336,-0.0359191,0.00312404,-0.669552,-6.96716,-6.1024,-0.386776,-0.240351,-0.243436,-0.263497,-0.273291,-0.669552,0,0,652,154,652,154,710,140,651,215,0.419814,-0.398626,0,-1.5,3.84165e-38,0,0,0,-0.240351,-0.243436,-0.0585938,0.0390625,-0.00999832,0,-0.263497,-0.273291,4575,0,0,0,0,0,0,0,0,0,2,0.486873
12192,0.128906,0,-5.89746,-2.45017e-05,0.000137584,-0.00305336,-0.0359191,0.00312404,-0.669552,-6.99892,-6.12998,-0.376991,-0.245652,-0.248936,-0.265711,-0.275697,-0.669552,0,0,652,154,652,154,710,140,651,215,0.422442,-0.396546,0,-1.5,3.84165e-38,0,0,0,-0.245652,-0.248936,-0.0585938,0.0390625,-0.00999832,0,-0.265711,-0.275697,4575,0,0,0,0,0,0,0,0,0,2,0.497872
12206,0.128906,0,-2.97363,-0.00123555,0.00081941,-0.00356589,-0.0359422,0.0031278,-0.669633,-6.99892,-6.12998,-0.376991,-0.249118,-0.252532,-0.267137,-0.277247,-0.669633,0,0,652,154,652,154,710,140,651,215,0.424173,-0.395156,0,-1.5,3.84165e-38,0,0,0,-0.249118,-0.252532,-0.0585938,0.0390625,0,-0.00999832,-0.267137,-0.277247,4575,0,0,0,0,0,0,0,0,0,2,0.505065
12222,0.128906,0,-2.97363,-0.00123555,0.00081941,-0.00356589,-0.0359422,0.0031278,-0.669633,-6.94881,-6.08604,-0.38189,-0.25368,-0.257269,-0.268992,-0.279262,-0.669633,0,0,652,154,652,154,710,139,651,215,0.426425,-0.393373,0,-1.5,3.84165e-38,0,0,0,-0.25368,-0.257269,-0.0585938,0.0390625,0,-0.00999832,-0.268992,-0.279262,4636,0,0,0,0,0,0,0,0,0,2,0.514537
12243,0.214844,0,-4.03809,0.000717549,-0.000920693,-0.00344042,-0.0359299,0.00309027,-0.66977,-6.94881,-6.08604,-0.38189,-0.259362,-0.263169,-0.271261,-0.281728,-0.66977,0,0,652,154,652,154,710,139,651,215,0.429251,-0.3911,0,-1.5,3.84165e-38,0,0,0,-0.259362,-0.263169,-0.0585938,0.0390625,0,-0.00999832,-0.271261,-0.281728,4636,0,0,0,0,0,0,0,0,0,2,0.526337
12262,0.248047,0,-2.58691,1.08291e-05,-0.000227077,-0.00341219,-0.0359277,0.00308207,-0.669816,-6.9989,-6.12994,-0.376876,-0.264542,-0.268551,-0.273288,-0.283939,-0.669816,0,0,652,154,652,154,710,140,651,215,0.431804,-0.389067,0,-1.5,3.84165e-38,0,0,0,-0.264542,-0.268551,-0.0585938,0.0390625,-0.00999832,-0.00999832,-0.273288,-0.283939,4575,0,0,0,0,0,0,0,0,0,2,0.537101
12282,0.28125,0,-0.182617,0.000338757,0.000163205,-0.00427291,-0.0359244,0.00307816,-0.669866,-6.9989,-6.12994,-0.376876,-0.270038,-0.274262,-0.2754,-0.286244,-0.669866,0,0,652,154,652,154,710,140,651,215,0.434505,-0.386915,0,-1.5,3.84165e-38,0,0,0,-0.270038,-0.274262,-0.0585938,0.0390625,-0.00999832,-0.00999832,-0.2754,-0.286244,4575,0,0,0,0,0,0,0,0,0,2,0.548523
12302,0.28125,0,-0.182617,0.000338757,0.000163205,-0.00427291,-0.0359244,0.00307816,-0.669866,-6.9989,-6.12994,-0.376876,-0.275575,-0.280019,-0.27749,-0.288526,-0.669866,0,0,652,154,652,154,710,140,651,215,0.437208,-0.384773,0,-1.5,3.84165e-38,0,0,0,-0.275575,-0.280019,-0.0585938,0.0390625,-0.00999832,-0.00999832,-0.27749,-0.288526,4575,0,0,0,0,0,0,0,0,0,2,0.560037
12322,0.28125,0,-0.182617,0.000338757,0.000163205,-0.00427291,-0.0359244,0.00307816,-0.669866,-7.07038,-6.1841,-0.368615,-0.281154,-0.285821,-0.27956,-0.290785,-0.669866,0,0,652,154,652,154,708,141,651,215,0.439925,-0.382621,0,-1.5,3.84165e-38,0,0,0,-0.281154,-0.285821,-0.0585938,0.0390625,-0.00999832,-0.00999832,-0.27956,-0.290785,4514,0,0,0,0,0,0,0,0,0,2,0.571642
12342,0.126953,0,-6.74219,-0.000238943,-0.000123777,-0.00211843,-0.0359783,0.00306876,-0.670069,-7.07038,-6.1841,-0.368615,-0.286774,-0.291668,-0.281611,-0.293024,-0.670069,0,0,652,154,652,154,708,141,651,215,0.442698,-0.380368,0,-1.5,3.84165e-38,0,0,0,-0.286774,-0.291668,-0.0585938,0.0390625,-0.00999832,-0.00999832,-0.281611,-0.293024,4514,0,0,0,0,0,0,0,0,0,2,0.583336
12362,0.126953,0,-6.72266,-0.00153131,0.000482142,-0.00248413,-0.0359926,0.00306184,-0.670142,-6.97526,-6.1175,-0.381724,-0.292434,-0.29756,-0.283645,-0.295247,-0.670069,0,0,652,154,652,154,712,140,651,215,0.445442,-0.378194,0,-1.5,3.84165e-38,0,0,0,-0.292434,-0.29756,-0.0585938,0.0390625,-0.00999832,-0.00999832,-0.283645,-0.295247,4575,0,0,0,0,0,0,0,0,0,2,0.595119
12382,0.126953,0,-1.35938,-0.00128033,-0.000638461,-0.00257291,-0.0360061,0.00305628,-0.670182,-6.97526,-6.1175,-0.381724,-0.298136,-0.303495,-0.28566,-0.297449,-0.670182,0,0,652,154,652,154,712,140,651,215,0.448223,-0.375958,0,-1.5,3.84165e-38,0,0,0,-0.298136,-0.303495,-0.0585938,0.0390625,-0.00999832,-0.00999832,-0.28566,-0.297449,4575,0,0,0,0,0,0,0,0,0,2,0.606991
12402,0.126953,0,-6.62109,-0.000998346,0.000146625,-0.00185307,-0.0360261,0.00304502,-0.670215,-6.97526,-6.1175,-0.381724,-0.303877,-0.309475,-0.287657,-0.299634,-0.670215,0,0,652,154,652,154,712,140,651,215,0.451,-0.373747,0,-1.5,3.84165e-38,0,0,0,-0.303877,-0.309475,-0.0585938,0.0390625,0,0,-0.287657,-0.299634,4575,0,0,0,0,0,0,0,0,0,2,0.61895
12416,0.126953,0,3.39746,-0.00131843,-0.000145218,-0.00298679,-0.0360375,0.00304425,-0.670257,-6.94883,-6.08584,-0.381801,-0.307916,-0.313683,-0.289042,-0.301152,-0.670257,0,0,652,154,652,154,710,139,651,215,0.452955,-0.372185,0,-1.5,3.84165e-38,0,0,0,-0.307916,-0.313683,-0.0585938,0.0390625,0,0,-0.289042,-0.301152,4636,0,0,0,0,0,0,0,0,0,2,0.627367
12429,0.126953,0,3.39746,-0.00131843,-0.000145218,-0.00298679,-0.0360375,0.00304425,-0.670257,-6.94883,-6.08584,-0.381801,-0.311684,-0.31761,-0.29032,-0.302552,-0.670257,0,0,652,154,652,154,710,139,651,215,0.454768,-0.370748,0,-1.5,3.84165e-38,0,0,0,-0.311684,-0.31761,-0.0585938,0.0390625,0,0,-0.29032,-0.302552,4636,0,0,0,0,0,0,0,0,0,2,0.635219
12452,0.126953,0,4.50879,-0.00114057,-0.0011125,-0.00270986,-0.0360594,0.00302579,-0.670325,-6.97092,-6.12246,-0.385672,-0.318399,-0.32461,-0.292565,-0.305013,-0.670325,0,0,652,154,652,154,712,140,653,215,0.458006,-0.368161,0,-1.5,3.84165e-38,0,0,0,-0.318399,-0.32461,-0.0585938,0.0390625,-0.00999832,-0.00999832,-0.292565,-0.305013,4500,0,0,0,0,0,0,0,0,0,2,0.649219
12473,0.217773,0,5.86621,-0.00164545,-0.000121687,-0.00233123,-0.0360802,0.00302361,-0.67043,-6.97092,-6.12246,-0.385672,-0.324278,-0.33074,-0.294496,-0.307133,-0.670396,0,0,652,154,652,154,712,140,653,215,0.460837,-0.365895,0,-1.5,3.84165e-38,0,0,0,-0.324278,-0.33074,-0.0585938,0.0390625,0,0,-0.294496,-0.307133,4500,0,0,0,0,0,0,0,0,0,2,0.661479
12492,0.250977,0,-4.18359,-0.00168707,0.000726456,-0.00273665,-0.0360947,0.00302428,-0.670472,-7.00268,-6.15005,-0.375644,-0.330194,-0.336912,-0.296409,-0.309234,-0.670472,0,0,652,154,652,154,712,140,653,215,0.463681,-0.363616,0,-1.5,3.84165e-38,0,0,0,-0.330194,-0.336912,-0.0585938,0.0390625,0,0,-0.296409,-0.309234,4500,0,0,0,0,0,0,0,0,0,2,0.673823
12512,0.237305,0,6.93945,-0.00117946,0.000545439,-0.0024867,-0.036095,0.0030287,-0.670511,-7.00268,-6.15005,-0.375644,-0.336149,-0.343126,-0.298306,-0.311316,-0.670511,0,0,652,154,652,154,712,140,653,215,0.46653,-0.361344,0,-1.5,3.84165e-38,0,0,0,-0.336149,-0.343126,-0.0585938,0.0390625,0,0,-0.298306,-0.311316,4500,0,0,0,0,0,0,0,0,0,2,0.686251
12532,0.237305,0,6.93945,-0.00117946,0.000545439,-0.0024867,-0.036095,0.0030287,-0.670511,-7.00268,-6.15005,-0.375644,-0.342142,-0.349381,-0.300184,-0.313377,-0.670511,0,0,652,154,652,154,712,140,653,215,0.469385,-0.35908,0,-1.5,3.84165e-38,0,0,0,-0.342142,-0.349381,-0.0585938,0.0390625,0,0,-0.300184,-0.313377,4500,0,0,0,0,0,0,0,0,0,2,0.698762
12552,0.137695,0,-6.5127,-0.000944795,-0.000745525,-0.00372579,-0.0361161,0.00301572,-0.67063,-7.07028,-6.18376,-0.367935,-0.348171,-0.355677,-0.302045,-0.315419,-0.67063,0,0,652,154,652,154,708,141,651,215,0.472273,-0.356751,0,-1.5,3.84165e-38,0,0,0,-0.348171,-0.355677,-0.0585938,0.0390625,0,0,-0.302045,-0.315419,4514,0,0,0,0,0,0,0,0,0,2,0.711354
12573,0.121094,0,-4.65039,-0.000882429,-0.000899918,-0.0027141,-0.0361368,0.00298927,-0.670696,-7.07028,-6.18376,-0.367935,-0.354238,-0.362014,-0.303887,-0.317444,-0.67066,0,0,652,154,652,154,708,141,651,215,0.475157,-0.354452,0,-1.5,3.84165e-38,0,0,0,-0.354238,-0.362014,-0.0585938,0.0390625,0,0,-0.303887,-0.317444,4514,0,0,0,0,0,0,0,0,0,2,0.724027
12592,0.121094,0,-4.65039,-0.000882429,-0.000899918,-0.0027141,-0.0361368,0.00298927,-0.670696,-6.97518,-6.11713,-0.381012,-0.360342,-0.368391,-0.30571,-0.319454,-0.670696,0,0,652,154,652,154,712,140,651,215,0.478055,-0.352141,0,-1.5,3.84165e-38,0,0,0,-0.360342,-0.368391,-0.0585938,0.0390625,0,0,-0.30571,-0.319454,4575,0,0,0,0,0,0,0,0,0,2,0.736782
12612,0.250977,0,-6.05566,-0.000955603,-0.000323067,-0.0032061,-0.0361797,0.00297707,-0.670787,-6.99894,-6.12957,-0.376677,-0.366481,-0.374808,-0.307516,-0.321447,-0.670787,0,0,652,154,652,154,710,140,651,215,0.480975,-0.349794,0,-1.5,3.84165e-38,0,0,0,-0.366481,-0.374808,-0.0585938,0.0390625,0,0,-0.307516,-0.321447,4575,0,0,0,0,0,0,0,0,0,2,0.749616
12632,0.28418,0,3.18359,-0.00178057,-0.000861531,-0.00256729,-0.0361926,0.00296449,-0.670866,-6.99894,-6.12957,-0.376677,-0.372656,-0.381265,-0.309307,-0.323426,-0.670866,0,0,652,154,652,154,710,140,651,215,0.483905,-0.347441,0,-1.5,3.84165e-38,0,0,0,-0.372656,-0.381265,-0.0585938,0.0390625,0,0,-0.309307,-0.323426,4575,0,0,0,0,0,0,0,0,0,2,0.762529
12646,0.242188,0,6.20801,-0.00141772,-0.000718543,-0.00357589,-0.0362073,0.00295752,-0.670915,-6.9752,-6.11699,-0.38091,-0.376998,-0.385805,-0.310548,-0.3248,-0.670915,0,0,652,154,652,154,712,140,651,215,0.48596,-0.345793,0,-1.5,3.84165e-38,0,0,0,-0.376998,-0.385805,-0.0585938,0.0390625,0,0,-0.310548,-0.3248,4575,0,0,0,0,0,0,0,0,0,2,0.771609
12662,0.242188,0,6.20801,-0.00141772,-0.000718543,-0.00357589,-0.0362073,0.00295752,-0.670915,-6.9752,-6.11699,-0.38091,-0.381981,-0.391018,-0.311958,-0.326361,-0.670915,0,0,652,154,652,154,712,140,651,215,0.488308,-0.34393,0,-1.5,3.84165e-38,0,0,0,-0.381981,-0.391018,-0.0585938,0.0390625,0,0,-0.311958,-0.326361,4575,0,0,0,0,0,0,0,0,0,2,0.782036
12682,0.142578,0,4.64258,-0.00069458,-0.000676915,-0.0021889,-0.036231,0.00295066,-0.670982,-6.99892,-6.12943,-0.376477,-0.388245,-0.397572,-0.313706,-0.328297,-0.670982,0,0,652,154,652,154,710,140,651,215,0.491265,-0.341558,0,-1.5,3.84165e-38,0,0,0,-0.388245,-0.397572,-0.0585938,0.0390625,0,0,-0.313706,-0.328297,4575,0,0,0,0,0,0,0,0,0,2,0.795145
12703,0.103516,0,0.109375,-0.00149931,-4.80407e-05,-0.00263406,-0.0362465,0.00294051,-0.671052,-6.99892,-6.12943,-0.376477,-0.394543,-0.404165,-0.315438,-0.330218,-0.671052,0,0,652,154,652,154,710,140,651,215,0.494234,-0.339175,0,-1.5,3.84165e-38,0,0,0,-0.394543,-0.404165,-0.0585938,0.0390625,0,0,-0.315438,-0.330218,4575,0,0,0,0,0,0,0,0,0,2,0.80833
12722,0.103516,0,0.109375,-0.00149931,-4.80407e-05,-0.00263406,-0.0362465,0.00294051,-0.671052,-6.99891,-6.12936,-0.376361,-0.400876,-0.410796,-0.317153,-0.332122,-0.671052,0,0,652,154,652,154,710,140,651,215,0.497204,-0.336818,0,-1.5,3.84165e-38,0,0,0,-0.400876,-0.410796,-0.0585938,0.0390625,0,0,-0.317153,-0.332122,4575,0,0,0,0,0,0,0,0,0,2,0.821593
12742,0.103516,0,2.74414,-0.00123672,-0.00051858,-0.00271308,-0.0362681,0.00291659,-0.671152,-6.99891,-6.12936,-0.376361,-0.407243,-0.417465,-0.318852,-0.334008,-0.671152,0,0,652,154,652,154,710,140,651,215,0.5002,-0.334401,0,-1.5,3.84165e-38,0,0,0,-0.407243,-0.417465,-0.0585938,0.0390625,-0.00999832,-0.00999832,-0.318852,-0.334008,4575,0,0,0,0,0,0,0,0,0,2,0.83493
12762,0.160156,0,-0.951172,-0.00107146,0.000161677,-0.00332244,-0.03628,0.00292357,-0.671241,-7.00263,-6.14969,-0.375116,-0.413644,-0.424172,-0.320532,-0.33588,-0.671152,0,0,652,154,652,154,712,140,653,215,0.503193,-0.332025,0,-1.5,3.84165e-38,0,0,0,-0.413644,-0.424172,-0.0585938,0.0390625,0,0,-0.320532,-0.33588,4500,0,0,0,0,0,0,0,0,0,2,0.848343
12782,0.193359,0,0.841797,0.000350406,-0.000198527,-0.00216976,-0.0362785,0.00291779,-0.671269,-7.00263,-6.14962,-0.375033,-0.420078,-0.430915,-0.322198,-0.337733,-0.671269,0,0,652,154,652,154,712,140,653,215,0.506214,-0.329581,0,-1.5,3.84165e-38,0,0,0,-0.420078,-0.430915,-0.0585938,0.0390625,0,0,-0.322198,-0.337733,4500,0,0,0,0,0,0,0,0,0,2,0.86183
12802,0.226562,0,5.06738,-0.000579753,-0.000855402,-0.00224749,-0.0362854,0.00290412,-0.671299,-7.00263,-6.14962,-0.375033,-0.426545,-0.437696,-0.323847,-0.339569,-0.671299,0,0,652,154,652,154,712,140,653,215,0.509233,-0.327171,0,-1.5,3.84165e-38,0,0,0,-0.426545,-0.437696,-0.0585938,0.0390625,0,0,-0.323847,-0.339569,4500,0,0,0,0,0,0,0,0,0,2,0.875391
12822,0.270508,0,-4.93848,-0.000439567,-0.000473767,-0.00235195,-0.0363059,0.00288244,-0.671367,-6.87061,-6.03442,-0.411604,-0.433045,-0.444513,-0.325479,-0.34139,-0.671367,0,0,652,154,652,154,712,140,653,218,0.512268,-0.324733,0,-1.5,3.84165e-38,0,0,0,-0.433045,-0.444513,-0.0585938,0.0390625,0,0,-0.325479,-0.34139,4680,0,0,0,0,0,0,0,0,0,2,0.889025
12842,0.270508,0,2.48828,-0.000978332,-0.00104868,-0.00237769,-0.0363166,0.00286535,-0.671403,-6.87061,-6.03442,-0.411604,-0.439577,-0.451366,-0.327094,-0.343198,-0.671403,0,0,652,154,652,154,712,140,653,218,0.515311,-0.322302,0,-1.5,3.84165e-38,0,0,0,-0.439577,-0.451366,-0.0585938,0.0390625,0,0,-0.327094,-0.343198,4680,0,0,0,0,0,0,0,0,0,2,0.902731
12862,0.270508,0,2.48828,-0.000978332,-0.00104868,-0.00237769,-0.0363166,0.00286535,-0.671403,-6.99895,-6.12925,-0.37641,-0.446141,-0.458255,-0.328692,-0.344991,-0.671403,0,0,652,154,652,154,710,140,651,215,0.518358,-0.31988,0,-1.5,3.84165e-38,0,0,0,-0.446141,-0.458255,-0.0585938,0.0390625,0,0,-0.328692,-0.344991,4575,0,0,0,0,0,0,0,0,0,2,0.91651
12877,0.270508,0,-2.03809,8.88498e-05,-0.000139304,-0.00257306,-0.036303,0.00286546,-0.671523,-6.99895,-6.12925,-0.37641,-0.451083,-0.463443,-0.329879,-0.346322,-0.671523,0,0,652,154,652,154,710,140,651,215,0.520667,-0.317997,0,-1.5,3.84165e-38,0,0,0,-0.451083,-0.463443,-0.0585938,0.0390625,0,0,-0.329879,-0.346322,4575,0,0,0,0,0,0,0,0,0,2,0.926885
12903,0.253906,0,-5.28223,-0.000877744,-8.53255e-05,-0.00365903,-0.0363175,0.00286181,-0.671614,-7.00269,-6.14956,-0.375219,-0.459699,-0.47249,-0.331918,-0.348608,-0.671562,0,0,652,154,652,154,712,140,653,215,0.524662,-0.314806,0,-1.5,3.84165e-38,0,0,0,-0.459699,-0.47249,-0.0585938,0.0390625,0,0,-0.331918,-0.348608,4500,0,0,0,0,0,0,0,0,0,2,0.944981
12922,0.253906,0,-5.28223,-0.000877744,-8.53255e-05,-0.00365903,-0.0363175,0.00286181,-0.671614,-7.00269,-6.14957,-0.375234,-0.466025,-0.479136,-0.333391,-0.350259,-0.671614,0,0,652,154,652,154,712,140,653,215,0.527593,-0.312455,0,-1.5,3.84165e-38,0,0,0,-0.466025,-0.479136,-0.0585938,0.0390625,0,0,-0.333391,-0.350259,4500,0,0,0,0,0,0,0,0,0,2,0.958271
12943,0.170898,0,4.05762,-0.00146308,0.000627424,-0.00318401,-0.0363319,0.00285042,-0.671751,-7.00269,-6.14957,-0.375234,-0.472714,-0.486165,-0.334927,-0.351981,-0.671704,0,0,652,154,652,154,712,140,653,215,0.530694,-0.309952,0,-1.5,3.84165e-38,0,0,0,-0.472714,-0.486165,-0.0585938,0.0390625,0,0,-0.334927,-0.351981,4500,0,0,0,0,0,0,0,0,0,2,0.97233
12962,0.236328,0,6.67383,-0.000974262,-0.000672963,-0.00314672,-0.0363438,0.00283873,-0.6718,-7.00269,-6.14956,-0.375238,-0.479434,-0.493228,-0.336447,-0.353687,-0.6718,0,0,652,154,652,154,712,140,653,215,0.533805,-0.307438,0,-1.5,3.84165e-38,0,0,0,-0.479434,-0.493228,-0.0585938,0.0390625,0,0,-0.336447,-0.353687,4500,0,0,0,0,0,0,0,0,0,2,0.986457
12982,0.251953,0,6.58203,-0.00138615,0.000374314,-0.00283321,-0.0363516,0.00284282,-0.671844,-7.02559,-6.16124,-0.370998,-0.486184,-0.500326,-0.337954,-0.355381,-0.671844,0,0,652,154,652,154,710,140,653,215,0.53692,-0.304942,0,-1.5,3.84165e-38,0,0,0,-0.486184,-0.500326,-0.0585938,0.0390625,0,0,-0.337954,-0.355381,4500,0,0,0,0,0,0,0,0,0,2,1.00065
13003,0.251953,0,0.474609,0.000487666,-0.000472245,-0.00309251,-0.0363599,0.00282958,-0.671937,-7.02559,-6.16124,-0.370998,-0.492964,-0.507457,-0.339446,-0.357058,-0.671937,0,0,652,154,652,154,710,140,653,215,0.54005,-0.302411,0,-1.5,3.84165e-38,0,0,0,-0.492964,-0.507457,-0.0585938,0.0390625,0,0,-0.339446,-0.357058,4500,0,0,0,0,0,0,0,0,0,2,1.01491
13023,0.251953,0,0.474609,0.000487666,-0.000472245,-0.00309251,-0.0363599,0.00282958,-0.671937,-7.00269,-6.1495,-0.375166,-0.500115,-0.514981,-0.340997,-0.358804,-0.671937,0,0,652,154,652,154,712,140,653,215,0.543336,-0.299798,0,-1.5,3.84165e-38,0,0,0,-0.500115,-0.514981,-0.0585938,0.0390625,0,0,-0.340997,-0.358804,4500,0,0,0,0,0,0,0,0,0,2,1.02996
13043,0.251953,0,-7.22168,-7.86346e-07,-0.000127273,-0.00257119,-0.0363633,0.00281499,-0.672049,-7.00269,-6.1495,-0.375166,-0.506612,-0.521818,-0.342386,-0.360368,-0.672049,0,0,652,154,652,154,712,140,653,215,0.546331,-0.297365,0,-1.5,3.84165e-38,0,0,0,-0.506612,-0.521818,-0.0585938,0.0390625,0,0,-0.342386,-0.360368,4500,0,0,0,0,0,0,0,0,0,2,1.04364
13063,0.251953,0,-7.22168,-7.86346e-07,-0.000127273,-0.00257119,-0.0363633,0.00281499,-0.672049,-7.02559,-6.16121,-0.370966,-0.51348,-0.529049,-0.343833,-0.361999,-0.672049,0,0,652,154,652,154,710,140,653,215,0.549479,-0.29486,0,-1.5,3.84165e-38,0,0,0,-0.51348,-0.529049,-0.0585938,0.0390625,0,0,-0.343833,-0.361999,4500,0,0,0,0,0,0,0,0,0,2,1.0581
13082,0.251953,0,2.1123,0.000486725,-0.000906184,-0.00348659,-0.0363454,0.00279091,-0.67214,-7.02559,-6.16121,-0.370966,-0.520377,-0.536311,-0.345264,-0.363614,-0.67214,0,0,652,154,652,154,710,140,653,215,0.552648,-0.292298,0,-1.5,3.84165e-38,0,0,0,-0.520377,-0.536311,-0.0585938,0.0390625,0,0,-0.345264,-0.363614,4500,0,0,0,0,0,0,0,0,0,2,1.07262
13095,0.251953,0,-6.91016,-5.11574e-06,-8.66233e-05,-0.00295436,-0.0363372,0.00276907,-0.672218,-7.02559,-6.16121,-0.370966,-0.524873,-0.541047,-0.346183,-0.364654,-0.67214,0,0,652,154,652,154,710,140,653,215,0.554704,-0.290662,0,-1.5,3.84165e-38,0,0,0,-0.524873,-0.541047,-0.0585938,0.0390625,0,0,-0.346183,-0.364654,4500,0,0,0,0,0,0,0,0,0,2,1.08209
13109,0.251953,0,7.06445,-0.00114756,0.000447572,-0.00378103,-0.0363486,0.00276501,-0.672267,-7.02559,-6.16121,-0.370966,-0.529728,-0.546162,-0.347163,-0.365768,-0.672218,0,0,652,154,652,154,710,140,653,215,0.556932,-0.288852,0,-1.5,3.84165e-38,0,0,0,-0.529728,-0.546162,-0.0585938,0.0390625,0,0,-0.347163,-0.365768,4500,0,0,0,0,0,0,0,0,0,2,1.09232
13133,0.251953,0,-6.61914,-0.00160671,-2.66139e-05,-0.00315489,-0.0363612,0.00276419,-0.672314,-7.04036,-6.17409,-0.382499,-0.537739,-0.554605,-0.348763,-0.367586,-0.672314,0,0,652,154,652,154,712,142,651,215,0.560602,-0.285886,0,-1.5,3.84165e-38,0,0,0,-0.537739,-0.554605,-0.0585938,0.0390625,0,0,-0.348763,-0.367586,4453,0,0,0,0,0,0,0,0,0,2,1.10921
13152,0.251953,0,6.66406,0.000107658,0.000497683,-0.0032844,-0.0363581,0.00276165,-0.672365,-7.07045,-6.18327,-0.368191,-0.544734,-0.561979,-0.35014,-0.36915,-0.672365,0,0,652,154,652,154,708,141,651,215,0.563797,-0.283318,0,-1.5,3.84165e-38,0,0,0,-0.544734,-0.561979,-0.0585938,0.0390625,0,0,-0.35014,-0.36915,4514,0,0,0,0,0,0,0,0,0,2,1.12396
13173,0.251953,0,-1.57617,-0.000651481,0.000196157,-0.0036351,-0.0363704,0.00275442,-0.672454,-7.07045,-6.18327,-0.368191,-0.551756,-0.569383,-0.351502,-0.370699,-0.672454,0,0,652,154,652,154,708,141,651,215,0.567006,-0.280721,0,-1.5,3.84165e-38,0,0,0,-0.551756,-0.569383,-0.0585938,0.0390625,0,0,-0.351502,-0.370699,4514,0,0,0,0,0,0,0,0,0,2,1.13877
13192,0.251953,0,-1.57617,-0.000651481,0.000196157,-0.0036351,-0.0363704,0.00275442,-0.672454,-6.94424,-6.08966,-0.391222,-0.558805,-0.576819,-0.352852,-0.372234,-0.672454,0,0,652,154,652,154,712,140,651,215,0.570215,-0.278166,0,-1.5,3.84165e-38,0,0,0,-0.558805,-0.576819,-0.0585938,0.0390625,0,0,-0.352852,-0.372234,4575,0,0,0,0,0,0,0,0,0,2,1.15364
13212,0.251953,0,2.84277,-0.00116709,-0.000321682,-0.00181865,-0.0363832,0.00275622,-0.672564,-5.0361,-0.236129,-0.335339,-0.565881,-0.584285,-0.354189,-0.373754,-0.672564,0,0,296,88,296,88,389,96,298,175,0.573444,-0.275541,0,-1.5,3.84165e-38,0,0,0,-0.565881,-0.584285,-0.0585938,0.0390625,0,0,-0.354189,-0.373754,8649,0,0,0,0,0,0,0,0,0,2,1.16857
13232,0.251953,0,-5.91016,-0.000820186,-4.06559e-05,-0.000723773,-0.0363994,0.00274272,-0.672615,-5.0361,-0.236129,-0.335339,-0.572983,-0.591781,-0.355514,-0.37526,-0.672564,0,0,296,88,296,88,389,96,298,175,0.57667,-0.272971,0,-1.5,3.84165e-38,0,0,0,-0.572983,-0.591781,-0.0585938,0.0390625,0,0,-0.355514,-0.37526,8649,0,0,0,0,0,0,0,0,0,2,1.18356
13252,0.251953,0,2.79492,-0.00210364,-3.76325e-05,-0.00377519,-0.0364195,0.00274072,-0.672658,-5.0361,-0.236129,-0.335339,-0.580112,-0.599307,-0.356827,-0.376753,-0.672658,0,0,296,88,296,88,389,96,298,175,0.579915,-0.27034,0,-1.5,3.84165e-38,0,0,0,-0.580112,-0.599307,-0.0585938,0.0390625,0,0,-0.356827,-0.376753,8649,0,0,0,0,0,0,0,0,0,2,1.19861
13273,0.251953,0,-1.83789,-2.48691e-05,5.10881e-05,-0.00129186,-0.0364119,0.00274069,-0.672688,-5.0361,-0.236129,-0.335339,-0.587266,-0.606863,-0.358128,-0.378235,-0.672688,0,0,296,88,296,88,389,96,298,175,0.583162,-0.267737,0,-1.5,3.84165e-38,0,0,0,-0.587266,-0.606863,-0.0585938,0.0390625,0,0,-0.358128,-0.378235,8649,0,0,0,0,0,0,0,0,0,2,1.21373
13292,0.251953,0,-4.0293,-0.00011861,-0.000670088,-0.00393701,-0.0364245,0.00272598,-0.672779,-6.97536,-6.11661,-0.381106,-0.594447,-0.614448,-0.359416,-0.379703,-0.672779,0,0,652,154,652,154,712,140,651,215,0.586424,-0.265092,0,-1.5,3.84165e-38,0,0,0,-0.594447,-0.614448,-0.0585938,0.0390625,0,0,-0.359416,-0.379703,4575,0,0,0,0,0,0,0,0,0,2,1.2289
13312,0.251953,0,6.71094,-0.00135824,0.000812643,-0.00209581,-0.0364494,0.00271995,-0.672814,-7.07044,-6.18314,-0.368079,-0.601653,-0.622063,-0.360692,-0.381159,-0.672814,0,0,652,154,652,154,708,141,651,215,0.58969,-0.262472,0,-1.5,3.84165e-38,0,0,0,-0.601653,-0.622063,-0.0585938,0.0390625,0,0,-0.360692,-0.381159,4514,0,0,0,0,0,0,0,0,0,2,1.24413
13326,0.251953,0,6.71094,-0.00135824,0.000812643,-0.00209581,-0.0364494,0.00271995,-0.672814,-7.07044,-6.18314,-0.368079,-0.606711,-0.627408,-0.361577,-0.382172,-0.672814,0,0,652,154,652,154,708,141,651,215,0.591978,-0.260648,0,-1.5,3.84165e-38,0,0,0,-0.606711,-0.627408,-0.0585938,0.0390625,0,0,-0.361577,-0.382172,4514,0,0,0,0,0,0,0,0,0,2,1.25482
13339,0.251953,0,6.71094,-0.00135824,0.000812643,-0.00209581,-0.0364494,0.00271995,-0.672814,-7.07044,-6.18314,-0.368079,-0.611418,-0.632384,-0.362394,-0.383105,-0.672814,0,0,652,154,652,154,708,141,651,215,0.594106,-0.258953,0,-1.5,3.84165e-38,0,0,0,-0.611418,-0.632384,-0.0585938,0.0390625,0,0,-0.362394,-0.383105,4514,0,0,0,0,0,0,0,0,0,2,1.26477
13355,0.251953,0,6.71094,-0.00135824,0.000812643,-0.00209581,-0.0364494,0.00271995,-0.672814,-7.07044,-6.18314,-0.368079,-0.617226,-0.638525,-0.363392,-0.384246,-0.672814,0,0,652,154,652,154,708,141,651,215,0.59673,-0.256861,0,-1.5,3.84165e-38,0,0,0,-0.617226,-0.638525,-0.0585938,0.0390625,0,0,-0.363392,-0.384246,4514,0,0,0,0,0,0,0,0,0,2,1.27705
13372,0.251953,0,-0.826172,-8.11491e-05,0.000801266,-0.00217788,-0.0364722,0.00271771,-0.672972,-7.07044,-6.18314,-0.368079,-0.623416,-0.645071,-0.364444,-0.385449,-0.672814,0,0,652,154,652,154,708,141,651,215,0.599525,-0.254634,0,-1.5,3.84165e-38,0,0,0,-0.623416,-0.645071,-0.0585938,0.0390625,0,0,-0.364444,-0.385449,4514,0,0,0,0,0,0,0,0,0,2,1.29014
13388,0.251953,0,-0.826172,-8.11491e-05,0.000801266,-0.00217788,-0.0364722,0.00271771,-0.672972,-6.87073,-6.03412,-0.411899,-0.629257,-0.65125,-0.365428,-0.386573,-0.672972,0,0,652,154,652,154,712,140,653,218,0.602173,-0.252439,0,-1.5,3.84165e-38,0,0,0,-0.629257,-0.65125,-0.0585938,0.0390625,0,0,-0.365428,-0.386573,4680,0,0,0,0,0,0,0,0,0,2,1.3025
13413,0.214844,0,6.89941,0.000432951,-6.23177e-05,-0.00221001,-0.0364847,0.00272412,-0.67304,-6.97535,-6.11651,-0.38095,-0.638421,-0.660946,-0.366954,-0.388316,-0.67304,0,0,652,154,652,154,712,140,651,215,0.60631,-0.249104,0,-1.5,3.84165e-38,0,0,0,-0.638421,-0.660946,-0.0585938,0.0390625,0,0,-0.366954,-0.388316,4575,0,0,0,0,0,0,0,0,0,2,1.32189
13428,0.148438,0,-6.07617,-0.000615319,0.000246417,-0.00305665,-0.036494,0.00272622,-0.673123,-6.97535,-6.11651,-0.38095,-0.643933,-0.66678,-0.36786,-0.389349,-0.67304,0,0,652,154,652,154,712,140,651,215,0.608793,-0.247125,0,-1.5,3.84165e-38,0,0,0,-0.643933,-0.66678,-0.0585938,0.0390625,0,0,-0.36786,-0.389349,4575,0,0,0,0,0,0,0,0,0,2,1.33356
13453,0.130859,0,-0.250977,-0.000465685,2.73713e-05,-0.00196217,-0.036509,0.00273082,-0.673153,-6.99902,-6.12891,-0.376373,-0.652788,-0.676154,-0.369302,-0.390991,-0.673153,0,0,652,154,652,154,710,140,651,215,0.612787,-0.243878,0,-1.5,3.84165e-38,0,0,0,-0.652788,-0.676154,-0.0585938,0.0390625,0,0,-0.369302,-0.390991,4575,0,0,0,0,0,0,0,0,0,2,1.35231
13468,0.130859,0,5.63574,-0.00206051,0.000164372,-0.00351499,-0.0365204,0.0027407,-0.673231,-6.99902,-6.12891,-0.376373,-0.658706,-0.68242,-0.370254,-0.392074,-0.673196,0,0,652,154,652,154,710,140,651,215,0.613186,-0.243536,0,-1.5,3.84165e-38,0,0,0,-0.658706,-0.68242,-0.0585938,0.0390625,0,0,-0.370254,-0.392074,4575,0,0,0,0,0,0,0,0,0,2,1.36484
13493,0.130859,0,5.63574,-0.00206051,0.000164372,-0.00351499,-0.0365204,0.0027407,-0.673231,-6.99902,-6.12891,-0.376373,-0.667617,-0.691859,-0.371673,-0.393684,-0.673231,0,0,652,154,652,154,710,140,651,215,0.613189,-0.243514,0,-1.5,3.84165e-38,0,0,0,-0.667617,-0.691859,-0.0585938,0.0390625,0,0,-0.371673,-0.393684,4575,0,0,0,0,0,0,0,0,0,2,1.38372
13508,0.130859,0,-1.18555,-0.00111767,0.000584525,-0.00215884,-0.0365292,0.00273562,-0.673338,-6.99902,-6.12891,-0.376373,-0.673574,-0.698168,-0.372609,-0.394746,-0.673302,0,0,652,154,652,154,710,140,651,215,0.613194,-0.243471,0,-1.5,3.84165e-38,0,0,0,-0.673574,-0.698168,-0.0585938,0.0390625,0,0,-0.372609,-0.394746,4575,0,0,0,0,0,0,0,0,0,2,1.39634
13533,0.130859,0,1.34473,-0.000898459,0.000719565,-0.00245314,-0.0365333,0.00274124,-0.673375,-6.99897,-6.12885,-0.376114,-0.682541,-0.70767,-0.374002,-0.396326,-0.673375,0,0,652,154,652,154,710,140,651,215,0.613199,-0.243426,0,-1.5,3.84165e-38,0,0,0,-0.682541,-0.70767,-0.0585938,0.0390625,0,0,-0.374002,-0.396326,4575,0,0,0,0,0,0,0,0,0,2,1.41534
13546,0.130859,0,-6.68652,-0.000138441,0.00116642,-0.00203853,-0.0365368,0.00275133,-0.673406,-6.99897,-6.12885,-0.376114,-0.687784,-0.713227,-0.374806,-0.397237,-0.673406,0,0,652,154,652,154,710,140,651,215,0.613201,-0.243407,0,-1.5,3.84165e-38,0,0,0,-0.687784,-0.713227,-0.0585938,0.0390625,0,0,-0.374806,-0.397237,4575,0,0,0,0,0,0,0,0,0,2,1.42645
13562,0.130859,0,-6.68652,-0.000138441,0.00116642,-0.00203853,-0.0365368,0.00275133,-0.673406,-6.99897,-6.12885,-0.376114,-0.693791,-0.719594,-0.37572,-0.398271,-0.673406,0,0,652,154,652,154,710,140,651,215,0.613201,-0.243407,0,-1.5,3.84165e-38,0,0,0,-0.693791,-0.719594,-0.0585938,0.0390625,0,0,-0.37572,-0.398271,4575,0,0,0,0,0,0,0,0,0,2,1.43919
13582,0.130859,0,-2.98438,-0.00150262,0.000105738,-0.00333259,-0.0365625,0.00275919,-0.673537,-6.99897,-6.12885,-0.376114,-0.701321,-0.727577,-0.376855,-0.399553,-0.673537,0,0,652,154,652,154,710,140,651,215,0.61321,-0.243327,0,-1.5,3.84165e-38,0,0,0,-0.701321,-0.727577,-0.0585938,0.0390625,0,0,-0.376855,-0.399553,4575,0,0,0,0,0,0,0,0,0,2,1.45515
13602,0.130859,0,-1.34473,-0.00102626,-0.000727717,-0.00253759,-0.036583,0.00275096,-0.673576,-6.99897,-6.12885,-0.376114,-0.708874,-0.735586,-0.377982,-0.400825,-0.673576,0,0,652,154,652,154,710,140,651,215,0.613213,-0.243303,0,-1.5,3.84165e-38,0,0,0,-0.708874,-0.735586,-0.0585938,0.0390625,0,0,-0.377982,-0.400825,4575,0,0,0,0,0,0,0,0,0,2,1.47117
13622,0.130859,0,-6.80859,-0.00145009,0.000248778,-0.00287722,-0.0365994,0.00274443,-0.673653,-6.87053,-6.03382,-0.410904,-0.716449,-0.74362,-0.379099,-0.402088,-0.673653,0,0,652,154,652,154,712,140,653,218,0.613218,-0.243255,0,-1.5,3.84165e-38,0,0,0,-0.716449,-0.74362,-0.0585938,0.0390625,0,0,-0.379099,-0.402088,4680,0,0,0,0,0,0,0,0,0,2,1.48724
13642,0.130859,0,5.31055,0.000723108,0.000502662,-0.00199214,-0.0365955,0.00275268,-0.673682,-6.87053,-6.03382,-0.410904,-0.724047,-0.751679,-0.380207,-0.40334,-0.673682,0,0,652,154,652,154,712,140,653,218,0.61322,-0.243238,0,-1.5,3.84165e-38,0,0,0,-0.724047,-0.751679,-0.0585938,0.0390625,0,0,-0.380207,-0.40334,4680,0,0,0,0,0,0,0,0,0,2,1.50336
13662,0.130859,0,5.31055,0.000723108,0.000502662,-0.00199214,-0.0365955,0.00275268,-0.673682,-6.87053,-6.03379,-0.410852,-0.731666,-0.759763,-0.381304,-0.404578,-0.673682,0,0,652,154,652,154,712,140,653,218,0.61322,-0.243238,0,-1.5,3.84165e-38,0,0,0,-0.731666,-0.759763,-0.0585938,0.0390625,0,0,-0.381304,-0.404578,4680,0,0,0,0,0,0,0,0,0,2,1.51953
13682,0.130859,0,7.18848,-0.00136308,0.000543142,-0.00257839,-0.0366123,0.00274772,-0.673788,-6.87053,-6.03379,-0.410852,-0.739307,-0.767872,-0.382391,-0.405805,-0.673788,0,0,652,154,652,154,712,140,653,218,0.613227,-0.243172,0,-1.5,3.84165e-38,0,0,0,-0.739307,-0.767872,-0.0585938,0.0390625,0,0,-0.382391,-0.405805,4680,0,0,0,0,0,0,0,0,0,2,1.53574
13703,0.234375,0,3.91504,-0.000300979,-0.000284378,-0.00275318,-0.0366431,0.00275023,-0.673864,-6.87053,-6.03379,-0.410852,-0.74697,-0.776005,-0.383469,-0.407022,-0.673819,0,0,652,154,652,154,712,140,653,218,0.613229,-0.243153,0,-1.5,3.84165e-38,0,0,0,-0.74697,-0.776005,-0.0585938,0.0390625,0,0,-0.383469,-0.407022,4680,0,0,0,0,0,0,0,0,0,2,1.55201
13722,0.234375,0,3.91504,-0.000300979,-0.000284378,-0.00275318,-0.0366431,0.00275023,-0.673864,-6.87053,-6.03379,-0.410852,-0.754655,-0.784163,-0.38454,-0.40823,-0.673864,0,0,652,154,652,154,712,140,653,218,0.613232,-0.243126,0,-1.5,3.84165e-38,0,0,0,-0.754655,-0.784163,-0.0585938,0.0390625,0,0,-0.38454,-0.40823,4680,0,0,0,0,0,0,0,0,0,2,1.56833
13743,0.290039,0,-6.66211,0.000121167,-0.000209093,-0.00229023,-0.0366739,0.00273547,-0.673942,-6.87053,-6.03379,-0.410852,-0.76236,-0.792344,-0.385601,-0.409428,-0.673942,0,0,652,154,652,154,712,140,653,218,0.613238,-0.243078,0,-1.5,3.84165e-38,0,0,0,-0.76236,-0.792344,-0.0585938,0.0390625,0,0,-0.385601,-0.409428,4680,0,0,0,0,0,0,0,0,0,2,1.58469
13762,0.290039,0,-7.02246,-0.000268894,-0.000733189,-0.00305506,-0.0366829,0.0027281,-0.674018,-6.84263,-6.00948,-0.419754,-0.770087,-0.800549,-0.386653,-0.410619,-0.674018,0,0,652,154,652,154,712,140,653,218,0.613243,-0.243032,0,-1.5,3.84165e-38,0,0,0,-0.770087,-0.800549,-0.0585938,0.0390625,0,0,-0.386653,-0.410619,4680,0,0,0,0,0,0,0,0,0,2,1.6011
13777,0.258789,0,5.26562,-0.00148193,0.000508417,-0.00312212,-0.0366907,0.00273227,-0.674057,-6.84263,-6.00948,-0.419754,-0.775895,-0.806717,-0.387435,-0.411505,-0.674057,0,0,652,154,652,154,712,140,653,218,0.613246,-0.243007,0,-1.5,3.84165e-38,0,0,0,-0.775895,-0.806717,-0.0585938,0.0390625,0,0,-0.387435,-0.411505,4680,0,0,0,0,0,0,0,0,0,2,1.61343
13803,0.192383,0,2.93262,-0.00154142,0.000345181,-0.00384607,-0.0367116,0.0027327,-0.674139,-7.06545,-6.1872,-0.376069,-0.785993,-0.817445,-0.38878,-0.413028,-0.674139,0,0,652,154,652,154,710,142,651,215,0.613251,-0.242957,0,-1.5,3.84165e-38,0,0,0,-0.785993,-0.817445,-0.0585938,0.0390625,0,0,-0.38878,-0.413028,4453,0,0,0,0,0,0,0,0,0,2,1.63489
13822,0.192383,0,2.93262,-0.00154142,0.000345181,-0.00384607,-0.0367116,0.0027327,-0.674139,-5.02492,-0.235251,-0.341412,-0.793393,-0.825307,-0.389755,-0.41413,-0.674139,0,0,296,88,296,88,389,96,298,176,0.613251,-0.242957,0,-1.5,3.84165e-38,0,0,0,-0.793393,-0.825307,-0.0585938,0.0390625,0,0,-0.389755,-0.41413,8649,0,0,0,0,0,0,0,0,0,2,1.65061
13843,0.133789,0,6.04102,-0.000983274,-0.000249967,-0.00346159,-0.0367318,0.00271055,-0.67424,-5.02492,-0.235251,-0.341412,-0.801593,-0.834022,-0.39082,-0.415337,-0.674202,0,0,296,88,296,88,389,96,298,176,0.613256,-0.242918,0,-1.5,3.84165e-38,0,0,0,-0.801593,-0.834022,-0.0585938,0.0390625,0,0,-0.39082,-0.415337,8649,0,0,0,0,0,0,0,0,0,2,1.66804
13862,0.133789,0,-1.44336,-0.00141519,0.000325945,-0.00229378,-0.0367429,0.00271422,-0.674274,-5.05671,-0.242892,-0.332948,-0.809031,-0.841927,-0.391775,-0.416422,-0.674274,0,0,298,88,298,88,389,96,298,176,0.613261,-0.242875,0,-1.5,3.84165e-38,0,0,0,-0.809031,-0.841927,-0.0585938,0.0390625,0,0,-0.391775,-0.416422,8463,0,0,0,0,0,0,0,0,0,2,1.68385
13882,0.133789,0,-2.44141,-0.000954388,-0.00133789,-0.00238361,-0.036759,0.00270008,-0.674305,-5.02495,-0.235183,-0.341489,-0.816881,-0.850271,-0.392773,-0.417556,-0.674305,0,0,296,88,296,88,389,96,298,176,0.613263,-0.242855,0,-1.5,3.84165e-38,0,0,0,-0.816881,-0.850271,-0.0585938,0.0390625,0,-0.00999832,-0.392773,-0.417556,8649,0,0,0,0,0,0,0,0,0,2,1.70054
13902,0.133789,0,-2.44141,-0.000954388,-0.00133789,-0.00238361,-0.036759,0.00270008,-0.674305,-5.02495,-0.235183,-0.341489,-0.82475,-0.858638,-0.39376,-0.418681,-0.674305,0,0,296,88,296,88,389,96,298,176,0.613263,-0.242855,0,-1.5,3.84165e-38,0,0,0,-0.82475,-0.858638,-0.0585938,0.0390625,0,-0.00999832,-0.39376,-0.418681,8649,0,0,0,0,0,0,0,0,0,2,1.71728
13922,0.133789,0,-2.44141,-0.000954388,-0.00133789,-0.00238361,-0.036759,0.00270008,-0.674305,-5.02498,-0.235163,-0.341555,-0.832639,-0.867028,-0.394737,-0.419795,-0.674305,0,0,296,88,296,88,389,96,298,176,0.613263,-0.242855,0,-1.5,3.84165e-38,0,0,0,-0.832639,-0.867028,-0.0585938,0.0390625,0,-0.00999832,-0.394737,-0.419795,8649,0,0,0,0,0,0,0,0,0,2,1.73406
13943,0.133789,0,-2.44141,-0.000954388,-0.00133789,-0.00238361,-0.036759,0.00270008,-0.674305,-5.02498,-0.235163,-0.341555,-0.840547,-0.875439,-0.395705,-0.420898,-0.674305,0,0,296,88,296,88,389,96,298,176,0.613263,-0.242855,0,-1.5,3.84165e-38,0,0,0,-0.840547,-0.875439,-0.0585938,0.0390625,0,-0.00999832,-0.395705,-0.420898,8649,0,0,0,0,0,0,0,0,0,2,1.75088
13962,0.133789,0,-2.44141,-0.000954388,-0.00133789,-0.00238361,-0.036759,0.00270008,-0.674305,-5.02498,-0.235163,-0.341555,-0.848475,-0.883872,-0.396663,-0.421989,-0.674305,0,0,296,88,296,88,389,96,298,176,0.613263,-0.242855,0,-1.5,3.84165e-38,0,0,0,-0.848475,-0.883872,-0.0585938,0.0390625,0,-0.00999832,-0.396663,-0.421989,8649,0,0,0,0,0,0,0,0,0,2,1.76774
13982,0.243164,0,2.50879,-0.000925672,-0.000762451,-0.00282419,-0.0368172,0.00267462,-0.674575,-6.95912,-6.09479,-0.39834,-0.856422,-0.892327,-0.397612,-0.423073,-0.674575,0,0,652,154,652,154,708,141,653,218,0.613281,-0.24269,0,-1.5,3.84165e-38,0,0,0,-0.856422,-0.892327,-0.0585938,0.0390625,0,0,-0.397612,-0.423073,4620,0,0,0,0,0,0,0,0,0,2,1.78465
13996,0.176758,0,-3.28906,-0.000945371,-0.00012992,-0.00367451,-0.0368354,0.00267014,-0.674666,-6.95912,-6.09479,-0.39834,-0.861595,-0.897833,-0.398226,-0.423776,-0.674575,0,0,652,154,652,154,708,141,653,218,0.613281,-0.24269,0,-1.5,3.84165e-38,0,0,0,-0.861595,-0.897833,-0.0585938,0.0390625,0,0,-0.398226,-0.423776,4620,0,0,0,0,0,0,0,0,0,2,1.79567
14009,0.143555,0,2.03027,-0.00187232,-0.000152292,-0.00235717,-0.0368443,0.00266306,-0.674701,-6.95912,-6.09479,-0.39834,-0.867176,-0.903772,-0.398884,-0.42453,-0.674701,0,0,652,154,652,154,708,141,653,218,0.61329,-0.242613,0,-1.5,3.84165e-38,0,0,0,-0.867176,-0.903772,-0.0585938,0.0390625,0,0,-0.398884,-0.42453,4620,0,0,0,0,0,0,0,0,0,2,1.80754
14033,0.119141,0,-6.03418,-0.000958536,-1.76313e-05,-0.00356726,-0.0368536,0.00265665,-0.674744,-6.95912,-6.09479,-0.39834,-0.876369,-0.913557,-0.399957,-0.425762,-0.674744,0,0,652,154,652,154,708,141,653,218,0.613293,-0.242586,0,-1.5,3.84165e-38,0,0,0,-0.876369,-0.913557,-0.0585938,0.0390625,0,0,-0.399957,-0.425762,4620,0,0,0,0,0,0,0,0,0,2,1.82711
14052,0.152344,0,6.6582,-0.00103068,0.000119448,-0.00268434,-0.0368595,0.00265788,-0.674785,-6.87039,-6.03327,-0.409961,-0.884381,-0.922087,-0.40088,-0.426823,-0.674785,0,0,652,154,652,154,712,140,653,218,0.613295,-0.242561,0,-1.5,3.84165e-38,0,0,0,-0.884381,-0.922087,-0.0585938,0.0390625,0,0,-0.40088,-0.426823,4680,0,0,0,0,0,0,0,0,0,2,1.84417
14072,0.152344,0,6.6582,-0.00103068,0.000119448,-0.00268434,-0.0368595,0.00265788,-0.674785,-6.87039,-6.03327,-0.409961,-0.892411,-0.930639,-0.401795,-0.427874,-0.674785,0,0,652,154,652,154,712,140,653,218,0.613295,-0.242561,0,-1.5,3.84165e-38,0,0,0,-0.892411,-0.930639,-0.0585938,0.0390625,0,0,-0.401795,-0.427874,4680,0,0,0,0,0,0,0,0,0,2,1.86128
14092,0.251953,0,1.65918,-3.29449e-05,-0.000198104,-0.00176555,-0.0368566,0.00264554,-0.674939,-5.03627,-0.235488,-0.335701,-0.90046,-0.939211,-0.4027,-0.428915,-0.674939,0,0,296,88,296,88,389,96,298,175,0.613306,-0.242466,0,-1.5,3.84165e-38,0,0,0,-0.90046,-0.939211,-0.0585938,0.0390625,0,0,-0.4027,-0.428915,8649,0,0,0,0,0,0,0,0,0,2,1.87842
14112,0.19043,0,-3.87695,-0.00102463,-7.90533e-05,-0.00296036,-0.0368643,0.00264271,-0.674975,-6.87041,-6.03327,-0.410019,-0.908526,-0.947803,-0.403596,-0.429945,-0.674975,0,0,652,154,652,154,712,140,653,218,0.613308,-0.242444,0,-1.5,3.84165e-38,0,0,0,-0.908526,-0.947803,-0.0585938,0.0390625,0,0,-0.403596,-0.429945,4680,0,0,0,0,0,0,0,0,0,2,1.89561
14132,0.115234,0,2.02734,-0.000908905,-0.0010043,-0.00295277,-0.0368702,0.00262481,-0.675056,-6.87041,-6.03327,-0.410019,-0.916611,-0.956417,-0.404482,-0.430967,-0.675056,0,0,652,154,652,154,712,140,653,218,0.613314,-0.242395,0,-1.5,3.84165e-38,0,0,0,-0.916611,-0.956417,-0.0585938,0.0390625,0,0,-0.404482,-0.430967,4680,0,0,0,0,0,0,0,0,0,2,1.91283
14152,0.141602,0,-4.88184,-0.000290159,-2.14465e-07,-0.00323902,-0.0368744,0.0026197,-0.675094,-6.87041,-6.03327,-0.410019,-0.924713,-0.96505,-0.405359,-0.431981,-0.675094,0,0,652,154,652,154,712,140,653,218,0.613316,-0.242372,0,-1.5,3.84165e-38,0,0,0,-0.924713,-0.96505,-0.0585938,0.0390625,0,0,-0.405359,-0.431981,4680,0,0,0,0,0,0,0,0,0,2,1.9301
14173,0.208008,0,-1.64062,-0.00230314,-0.00027919,-0.0022126,-0.036901,0.0026191,-0.675179,-6.87041,-6.03327,-0.410019,-0.932832,-0.973704,-0.406227,-0.432986,-0.675144,0,0,652,154,652,154,712,140,653,218,0.61332,-0.242341,0,-1.5,3.84165e-38,0,0,0,-0.932832,-0.973704,-0.0585938,0.0390625,0,0,-0.406227,-0.432986,4680,0,0,0,0,0,0,0,0,0,2,1.94741
14192,0.241211,0,4.4668,-0.00111837,7.88017e-06,-0.0024452,-0.0369153,0.00261576,-0.675223,-6.87041,-6.03327,-0.410019,-0.940969,-0.982378,-0.407089,-0.433983,-0.675223,0,0,652,154,652,154,712,140,653,218,0.613325,-0.242293,0,-1.5,3.84165e-38,0,0,0,-0.940969,-0.982378,-0.0585938,0.0390625,0,0,-0.407089,-0.433983,4680,0,0,0,0,0,0,0,0,0,2,1.96476
14212,0.274414,0,0.140625,-0.0001892,-0.000270639,-0.00341159,-0.036918,0.00261305,-0.675273,-7.0025,-6.14838,-0.373368,-0.949122,-0.991071,-0.407944,-0.434974,-0.675273,0,0,652,154,652,154,712,140,653,215,0.613329,-0.242262,0,-1.5,3.84165e-38,0,0,0,-0.949122,-0.991071,-0.0585938,0.0390625,0,0,-0.407944,-0.434974,4500,0,0,0,0,0,0,0,0,0,2,1.98214
14226,0.223633,0,-2.18359,0.000726663,-0.000212936,-0.00245192,-0.0368652,0.00244141,-0.675293,-7.0025,-6.14838,-0.373368,-0.954839,-0.997167,-0.408538,-0.435661,-0.675273,0,0,652,154,652,154,712,140,653,215,0.613329,-0.242262,0,-1.5,3.84165e-38,0,0,0,-0.954839,-0.997167,-0.0585938,0.0390625,0,0,-0.408538,-0.435661,4500,0,0,0,0,0,0,0,0,0,2,1.99433
14242,0.157227,0,0.941406,0.000221057,-5.01244e-05,-0.00300214,-0.0369,0.00260132,-0.675384,-7.0025,-6.14838,-0.373368,-0.961382,-1.00415,-0.409198,-0.436446,-0.675293,0,0,652,154,652,154,712,140,653,215,0.61333,-0.242249,0,-1.5,3.84165e-38,0,0,0,-0.961382,-1.00415,-0.0585938,0.0390625,0,0,-0.409198,-0.436446,4500,0,0,0,0,0,0,0,0,0,2,2
14262,0.118164,0,5.44336,-0.000931695,0.000597584,-0.00272104,-0.0369072,0.00260175,-0.675417,-7.00284,-6.14854,-0.374882,-0.969578,-1.01289,-0.410029,-0.437412,-0.675417,0,0,652,154,652,154,712,140,653,215,0.613338,-0.242173,0,-1.5,3.84165e-38,0,0,0,-0.969578,-1.01289,-0.0585938,0.0390625,0,0,-0.410029,-0.437412,4500,0,0,0,0,0,0,0,0,0,2,2
14282,0.104492,0,-0.839844,-0.000659283,-0.00123569,-0.00247384,-0.0369097,0.00259444,-0.675449,-7.00284,-6.14854,-0.374882,-0.97779,-1.02165,-0.410853,-0.438368,-0.675449,0,0,652,154,652,154,712,140,653,215,0.613341,-0.242154,0,-1.5,3.84165e-38,0,0,0,-0.97779,-1.02165,-0.0585938,0.0390625,0,0,-0.410853,-0.438368,4500,0,0,0,0,0,0,0,0,0,2,2
14303,0.142578,0,1.5498,-0.00039405,0.000625096,-0.00276525,-0.0369254,0.00259991,-0.675509,-7.00284,-6.14854,-0.374882,-0.986019,-1.03043,-0.411669,-0.439316,-0.675509,0,0,652,154,652,154,712,140,653,215,0.613345,-0.242117,0,-1.5,3.84165e-38,0,0,0,-0.986019,-1.03043,-0.0585938,0.0390625,0,0,-0.411669,-0.439316,4500,0,0,0,0,0,0,0,0,0,2,2
14322,0.142578,0,1.5498,-0.00039405,0.000625096,-0.00276525,-0.0369254,0.00259991,-0.675509,-7.00284,-6.14854,-0.374882,-0.994263,-1.03923,-0.412479,-0.440256,-0.675509,0,0,652,154,652,154,712,140,653,215,0.613345,-0.242117,0,-1.5,3.84165e-38,0,0,0,-0.994263,-1.03923,-0.0585938,0.0390625,0,0,-0.412479,-0.440256,4500,0,0,0,0,0,0,0,0,0,2,2
