timestamp,A_x,A_y,A_z,P,Q,R,Phi,Theta,Psi,poseX,poseY,poseZ,state_X,state_Y,state_Z,state_VzB,state_Bx,state_By,state_Bz,p1_x,p1_y,p2_x,p2_y,p3_x,p3_y,p4_x,p4_y,roll,pitch,yaw,alt,targetHeading,highLevelState,lowLevelState,gateNumber,filtered_x,filtered_y
10,0,0,0,0,0,0,0,0,0,0,0,0,0,0,0,0,0,0,0,0,0,0,0,0,0,0,0,0,-0.261799,-0.00779127,-1.5,-nan,0,0,3,0,0
20,0,0,0,0,0,0,0,0,0,0,0,0,0,0,0,0,0,0,0,0,0,0,0,0,0,0,0,0,-0.261799,-0.00751422,-1.5,-nan,0,0,3,0,0
30,-3.21065e-12,0,-1.53083e-06,-3.27738e-12,0,-3.40903e-12,-1.06589e-13,0,0,0,0,0,0,0,0,0,0,0,0,0,0,0,0,0,0,0,0,0,-0.261799,-0.0018191,-1.5,-nan,0,0,3,0,0
40,-3.21065e-12,0,-1.53083e-06,-3.27738e-12,0,0,-1.0659e-13,0,0,0,0,0,0,0,0,0,0,0,0,0,0,0,0,0,0,0,0,0,-0.261799,-0.00175436,-1.5,-nan,0,0,3,0,0
50,-3.21065e-12,0,-1.53083e-06,-3.27738e-12,0,-3.40903e-12,-1.0659e-13,0,0,0,0,0,0,0,0,0,0,0,0,0,0,0,0,0,0,0,0,0,-0.261799,-0.00161942,-1.5,-nan,0,0,3,0,0
60,-3.21065e-12,0,-1.53083e-06,-3.27738e-12,0,0,-1.0659e-13,0,0,0,0,0,0,0,0,0,0,0,0,0,0,0,0,0,0,0,0,0,-0.261799,-0.0015523,-1.5,-nan,0,0,3,0,0
70,-3.21065e-12,0,-1.53083e-06,-3.27738e-12,0,-3.40903e-12,-1.0659e-13,0,0,0,0,0,0,0,0,0,0,0,0,0,0,0,0,0,0,0,0,0,-0.261799,-0.00148795,-1.5,-nan,0,0,3,0,0
80,-3.21065e-12,0,-1.53083e-06,-3.27738e-12,0,0,-1.06591e-13,0,0,0,0,0,0,0,0,0,0,0,0,0,0,0,0,0,0,0,0,0,-0.261799,-0.00139705,-1.5,-nan,0,0,3,0,0
90,-3.21065e-12,0,-1.53083e-06,-3.27738e-12,0,-3.40903e-12,-1.06591e-13,0,0,0,0,0,0,0,0,0,0,0,0,0,0,0,0,0,0,0,0,0,-0.261799,-0.00132542,-1.5,-nan,0,0,3,0,0
100,-3.21065e-12,0,-1.53083e-06,-3.27738e-12,0,0,-1.06591e-13,0,0,0,0,0,0,0,0,0,0,0,0,0,0,0,0,0,0,0,0,0,-0.261799,-0.0012132,-1.5,-nan,0,0,3,0,0
110,-3.21065e-12,0,-1.53083e-06,-3.27738e-12,0,-3.40903e-12,-1.06591e-13,0,0,0,0,0,0,0,0,0,0,0,0,0,0,0,0,0,0,0,0,0,-0.261799,-0.0011367,-1.5,-nan,0,0,3,0,0
120,-3.21065e-12,0,-1.53083e-06,-3.27738e-12,0,0,-1.06592e-13,0,0,0,0,0,0,0,0,0,0,0,0,0,0,0,0,0,0,0,0,0,-0.261799,-0.00108954,-1.5,-nan,0,0,3,0,0
130,-3.21065e-12,0,-1.53083e-06,-3.27738e-12,0,-3.40903e-12,-1.06592e-13,0,0,0,0,0,0,0,0,0,0,0,0,0,0,0,0,0,0,0,0,0,-0.261799,-0.00104219,-1.5,-nan,0,0,3,0,0
140,-3.21065e-12,0,-1.53083e-06,-3.27738e-12,0,0,-1.06592e-13,0,0,0,0,0,0,0,0,0,0,0,0,0,0,0,0,0,0,0,0,0,-0.261799,-0.000998945,-1.5,-nan,0,0,3,0,0
150,-3.21065e-12,0,-1.53083e-06,-3.27738e-12,0,-3.40903e-12,-1.06593e-13,0,0,0,0,0,0,0,0,0,0,0,0,0,0,0,0,0,0,0,0,0,-0.261799,-0.000955532,-1.5,-nan,0,0,3,0,0
160,-3.21065e-12,0,-1.53083e-06,-3.27738e-12,0,0,-1.06593e-13,0,0,0,0,0,0,0,0,0,0,0,0,0,0,0,0,0,0,0,0,0,-0.261799,-0.000906483,-1.5,-nan,0,0,3,0,0
170,-3.21065e-12,0,-1.53083e-06,-3.27738e-12,0,-3.40903e-12,-1.06593e-13,0,0,0,0,0,0,0,0,0,0,0,0,0,0,0,0,0,0,0,0,0,-0.261799,-0.000879577,-1.5,-nan,0,0,3,0,0
180,-3.21065e-12,0,-1.53083e-06,-3.27738e-12,0,0,-1.06593e-13,0,0,0,0,0,0,0,0,0,0,0,0,0,0,0,0,0,0,0,0,0,-0.261799,-0.000856932,-1.5,-nan,0,0,3,0,0
190,-3.21065e-12,0,-1.53083e-06,-3.27738e-12,0,-3.40903e-12,-1.06594e-13,0,0,0,0,0,0,0,0,0,0,0,0,0,0,0,0,0,0,0,0,0,-0.261799,-0.000834877,-1.5,-nan,0,0,3,0,0
200,-3.21065e-12,0,-1.53083e-06,-3.27738e-12,0,0,-1.06594e-13,0,0,0,0,0,0,0,0,0,0,0,0,0,0,0,0,0,0,0,0,0,-0.261799,-0.00081667,-1.5,-nan,0,0,3,0,0
210,-3.21065e-12,0,-1.53083e-06,-3.27738e-12,0,-3.40903e-12,-1.06594e-13,0,0,0,0,0,0,0,0,0,0,0,0,0,0,0,0,0,0,0,0,0,-0.261799,-0.000794037,-1.5,-nan,0,0,3,0,0
220,-3.21065e-12,0,-1.53083e-06,-3.27738e-12,0,0,-1.06594e-13,0,0,0,0,0,0,0,0,0,0,0,0,0,0,0,0,0,0,0,0,0,-0.261799,-0.000762655,-1.5,-nan,0,0,3,0,0
230,-3.21065e-12,0,-1.53083e-06,-3.27738e-12,0,-3.40903e-12,-1.06595e-13,0,0,0,0,0,0,0,0,0,0,0,0,0,0,0,0,0,0,0,0,0,-0.261799,-0.000737016,-1.5,-nan,0,0,3,0,0
240,-3.21065e-12,0,-1.53083e-06,-3.27738e-12,0,0,-1.06595e-13,0,0,0,0,0,0,0,0,0,0,0,0,0,0,0,0,0,0,0,0,0,-0.261799,-0.00070357,-1.5,-nan,0,0,3,0,0
250,-3.21065e-12,0,-1.53083e-06,-3.27738e-12,0,-3.40903e-12,-1.06595e-13,0,0,0,0,0,0,0,0,0,0,0,0,0,0,0,0,0,0,0,0,0,-0.261799,-0.000675788,-1.5,-nan,0,0,3,0,0
260,-3.21065e-12,0,-1.53083e-06,-3.27738e-12,0,0,-1.06596e-13,0,0,0,0,0,0,0,0,0,0,0,0,0,0,0,0,0,0,0,0,0,-0.261799,-0.000645121,-1.5,-nan,0,0,3,0,0
270,-3.21065e-12,0,-1.53083e-06,-3.27738e-12,0,-3.40903e-12,-1.06596e-13,0,0,0,0,0,0,0,0,0,0,0,0,0,0,0,0,0,0,0,0,0,-0.261799,-0.000619647,-1.5,-nan,0,0,3,0,0
280,-3.21065e-12,0,-1.53083e-06,-3.27738e-12,0,0,-1.06596e-13,0,0,0,0,0,0,0,0,0,0,0,0,0,0,0,0,0,0,0,0,0,-0.261799,-0.000595179,-1.5,-nan,0,0,3,0,0
290,-3.21065e-12,0,-1.53083e-06,-3.27738e-12,0,-3.40903e-12,-1.06596e-13,0,0,0,0,0,0,0,0,0,0,0,0,0,0,0,0,0,0,0,0,0,-0.261799,-0.000571656,-1.5,-nan,0,0,3,0,0
300,-3.21067e-12,0,0,-3.27738e-12,0,0,-1.06597e-13,0,0,0,0,0,0,0,0,0,0,0,0,0,0,0,0,0,0,0,0,0,-0.261799,-0.000554689,-1.5,-nan,0,0,3,0,0
310,-3.21065e-12,0,-1.53083e-06,-3.27738e-12,0,-3.40903e-12,-1.06597e-13,0,0,0,0,0,0,0,0,0,0,0,0,0,0,0,0,0,0,0,0,0,-0.261799,-0.000536041,-1.5,-nan,0,0,3,0,0
320,-3.21065e-12,0,-1.53083e-06,-3.27738e-12,0,0,-1.06597e-13,0,0,0,0,0,0,0,0,0,0,0,0,0,0,0,0,0,0,0,0,0,-0.261799,-0.0005138,-1.5,-nan,0,0,3,0,0
330,-3.21065e-12,0,-1.53083e-06,-3.27738e-12,0,-3.40903e-12,-1.06597e-13,0,0,0,0,0,0,0,0,0,0,0,0,0,0,0,0,0,0,0,0,0,-0.261799,-0.000491493,-1.5,-nan,0,0,3,0,0
340,-3.21065e-12,0,-1.53083e-06,-3.27738e-12,0,0,-1.06598e-13,0,0,0,0,0,0,0,0,0,0,0,0,0,0,0,0,0,0,0,0,0,-0.261799,-0.00047112,-1.5,-nan,0,0,3,0,0
350,-3.21065e-12,0,-1.53083e-06,-3.27738e-12,0,-3.40903e-12,-1.06598e-13,0,0,0,0,0,0,0,0,0,0,0,0,0,0,0,0,0,0,0,0,0,-0.261799,-0.000451573,-1.5,-nan,0,0,3,0,0
360,-3.21065e-12,0,-1.53083e-06,-3.27738e-12,0,0,-1.06598e-13,0,0,0,0,0,0,0,0,0,0,0,0,0,0,0,0,0,0,0,0,0,-0.261799,-0.000432837,-1.5,-nan,0,0,3,0,0
370,-3.21065e-12,0,-1.53083e-06,-3.27738e-12,0,-3.40903e-12,-1.06599e-13,0,0,0,0,0,0,0,0,0,0,0,0,0,0,0,0,0,0,0,0,0,-0.261799,-0.000414045,-1.5,-nan,0,0,3,0,0
380,-3.21065e-12,0,-1.53083e-06,-3.27738e-12,0,0,-1.06599e-13,0,0,0,0,0,0,0,0,0,0,0,0,0,0,0,0,0,0,0,0,0,-0.261799,-0.000396866,-1.5,-nan,0,0,3,0,0
390,-3.21065e-12,0,-1.53083e-06,-3.27738e-12,0,-3.40903e-12,-1.06599e-13,0,0,0,0,0,0,0,0,0,0,0,0,0,0,0,0,0,0,0,0,0,-0.261799,-0.000379636,-1.5,-nan,0,0,3,0,0
400,-3.21065e-12,0,-1.53083e-06,-3.27738e-12,0,0,-1.06599e-13,0,0,0,0,0,0,0,0,0,0,0,0,0,0,0,0,0,0,0,0,0,-0.261799,-0.000364632,-1.5,-nan,0,0,3,0,0
410,-3.21065e-12,0,-1.53083e-06,-3.27738e-12,0,-3.40903e-12,-1.066e-13,0,0,0,0,0,0,0,0,0,0,0,0,0,0,0,0,0,0,0,0,0,-0.261799,-0.000349503,-1.5,-nan,0,0,3,0,0
420,-3.21065e-12,0,-1.53083e-06,-3.27738e-12,0,0,-1.066e-13,0,0,0,0,0,0,0,0,0,0,0,0,0,0,0,0,0,0,0,0,0,-0.261799,-0.000334314,-1.5,-nan,0,0,3,0,0
430,-3.21065e-12,0,-1.53083e-06,-3.27738e-12,0,-3.40903e-12,-1.066e-13,0,0,0,0,0,0,0,0,0,0,0,0,0,0,0,0,0,0,0,0,0,-0.261799,-0.000320443,-1.5,-nan,0,0,3,0,0
440,-3.21065e-12,0,-1.53083e-06,-3.27738e-12,0,0,-1.066e-13,0,0,0,0,0,0,0,0,0,0,0,0,0,0,0,0,0,0,0,0,0,-0.261799,-0.000306531,-1.5,-nan,0,0,3,0,0
450,-3.21065e-12,0,-1.53083e-06,-3.27738e-12,0,-3.40903e-12,-1.06601e-13,0,0,0,0,0,0,0,0,0,0,0,0,0,0,0,0,0,0,0,0,0,-0.261799,-0.000293825,-1.5,-nan,0,0,3,0,0
460,-3.21065e-12,0,-1.53083e-06,-3.27738e-12,0,0,-1.06601e-13,0,0,0,0,0,0,0,0,0,0,0,0,0,0,0,0,0,0,0,0,0,-0.261799,-0.000281634,-1.5,-nan,0,0,3,0,0
470,-3.21065e-12,0,-1.53083e-06,-3.27738e-12,0,-3.40903e-12,-1.06601e-13,0,0,0,0,0,0,0,0,0,0,0,0,0,0,0,0,0,0,0,0,0,-0.261799,-0.000269407,-1.5,-nan,0,0,3,0,0
480,-3.21065e-12,0,-1.53083e-06,-3.27738e-12,0,0,-1.06602e-13,0,0,0,0,0,0,0,0,0,0,0,0,0,0,0,0,0,0,0,0,0,-0.261799,-0.000258239,-1.5,-nan,0,0,3,0,0
490,-3.21065e-12,0,-1.53083e-06,-3.27738e-12,0,-3.40903e-12,-1.06602e-13,0,0,0,0,0,0,0,0,0,0,0,0,0,0,0,0,0,0,0,0,0,-0.261799,-0.000247535,-1.5,-nan,0,0,3,0,0
500,-3.21065e-12,0,-1.53083e-06,-3.27738e-12,0,0,-1.06602e-13,0,0,0,0,0,0,0,0,0,0,0,0,0,0,0,0,0,0,0,0,0,-0.261799,-0.000237265,-1.5,-nan,0,0,3,0,0
510,-3.21065e-12,0,-1.53083e-06,-3.27738e-12,0,-3.40903e-12,-1.06602e-13,0,0,0,0,0,0,0,0,0,0,0,0,0,0,0,0,0,0,0,0,0,-0.261799,-0.000226964,-1.5,-nan,0,0,3,0,0
520,-3.21065e-12,0,-1.53083e-06,-3.27738e-12,0,0,-1.06603e-13,0,0,0,0,0,0,0,0,0,0,0,0,0,0,0,0,0,0,0,0,0,-0.261799,-0.000217547,-1.5,-nan,0,0,3,0,0
530,-3.21065e-12,0,-1.53083e-06,-3.27738e-12,0,-3.40903e-12,-1.06603e-13,0,0,0,0,0,0,0,0,0,0,0,0,0,0,0,0,0,0,0,0,0,-0.261799,-0.000208102,-1.5,-nan,0,0,3,0,0
540,-3.21065e-12,0,-1.53083e-06,-3.27738e-12,0,0,-1.06603e-13,0,0,0,0,0,0,0,0,0,0,0,0,0,0,0,0,0,0,0,0,0,-0.261799,-0.000199476,-1.5,-nan,0,0,3,0,0
550,-3.21065e-12,0,-1.53083e-06,-3.27738e-12,0,-3.40903e-12,-1.06603e-13,0,0,0,0,0,0,0,0,0,0,0,0,0,0,0,0,0,0,0,0,0,-0.261799,-0.000190815,-1.5,-nan,0,0,3,0,0
560,-3.21065e-12,0,-1.53083e-06,-3.27738e-12,0,0,-1.06604e-13,0,0,0,0,0,0,0,0,0,0,0,0,0,0,0,0,0,0,0,0,0,-0.261799,-0.000184405,-1.5,-nan,0,0,3,0,0
570,-3.21065e-12,0,-1.53083e-06,-3.27738e-12,0,-3.40903e-12,-1.06604e-13,0,0,0,0,0,0,0,0,0,0,0,0,0,0,0,0,0,0,0,0,0,-0.261799,-0.000178932,-1.5,-nan,0,0,3,0,0
580,-3.21065e-12,0,-1.53083e-06,-3.27738e-12,0,0,-1.06604e-13,0,0,0,0,0,0,0,0,0,0,0,0,0,0,0,0,0,0,0,0,0,-0.261799,-0.000172916,-1.5,-nan,0,0,3,0,0
590,-3.21065e-12,0,-1.53083e-06,-3.27738e-12,0,-3.40903e-12,-1.06605e-13,0,0,0,0,0,0,0,0,0,0,0,0,0,0,0,0,0,0,0,0,0,-0.261799,-0.000165742,-1.5,-nan,0,0,3,0,0
600,-3.21065e-12,0,-1.53083e-06,-3.27738e-12,0,0,-1.06605e-13,0,0,0,0,0,0,0,0,0,0,0,0,0,0,0,0,0,0,0,0,0,-0.261799,-0.000158546,-1.5,-nan,0,0,3,0,0
610,-3.21065e-12,0,-1.53083e-06,-3.27738e-12,0,-3.40903e-12,-1.06605e-13,0,0,0,0,0,0,0,0,0,0,0,0,0,0,0,0,0,0,0,0,0,-0.261799,-0.000151974,-1.5,-nan,0,0,3,0,0
620,-3.21065e-12,0,-1.53083e-06,-3.27738e-12,0,0,-1.06605e-13,0,0,0,0,0,0,0,0,0,0,0,0,0,0,0,0,0,0,0,0,0,-0.261799,-0.000145669,-1.5,-nan,0,0,3,0,0
630,-3.21065e-12,0,-1.53083e-06,-3.27738e-12,0,-3.40903e-12,-1.06606e-13,0,0,0,0,0,0,0,0,0,0,0,0,0,0,0,0,0,0,0,0,0,-0.261799,-0.000139344,-1.5,-nan,0,0,3,0,0
640,-3.21065e-12,0,-1.53083e-06,-3.27738e-12,0,0,-1.06606e-13,0,0,0,0,0,0,0,0,0,0,0,0,0,0,0,0,0,0,0,0,0,-0.261799,-0.000133563,-1.5,-nan,0,0,3,0,0
650,-3.21065e-12,0,-1.53083e-06,-3.27738e-12,0,-3.40903e-12,-1.06606e-13,0,0,0,0,0,0,0,0,0,0,0,0,0,0,0,0,0,0,0,0,0,-0.261799,-0.000127764,-1.5,-nan,0,0,3,0,0
660,-3.21065e-12,0,-1.53083e-06,-3.27738e-12,0,0,-1.06606e-13,0,0,0,0,0,0,0,0,0,0,0,0,0,0,0,0,0,0,0,0,0,-0.261799,-0.000122715,-1.5,-nan,0,0,3,0,0
670,-3.21065e-12,0,-1.53083e-06,-3.27738e-12,0,-3.40903e-12,-1.06607e-13,0,0,0,0,0,0,0,0,0,0,0,0,0,0,0,0,0,0,0,0,0,-0.261799,-0.000117628,-1.5,-nan,0,0,3,0,0
680,-3.21065e-12,0,-1.53083e-06,-3.27738e-12,0,0,-1.06607e-13,0,0,0,0,0,0,0,0,0,0,0,0,0,0,0,0,0,0,0,0,0,-0.261799,-0.000112747,-1.5,-nan,0,0,3,0,0
690,-3.21065e-12,0,-1.53083e-06,-3.27738e-12,0,-3.40903e-12,-1.06607e-13,0,0,0,0,0,0,0,0,0,0,0,0,0,0,0,0,0,0,0,0,0,-0.261799,-0.000106738,-1.5,-nan,0,0,3,0,0
700,-3.21065e-12,0,-1.53083e-06,-3.27738e-12,0,0,-1.06607e-13,0,0,0,0,0,0,0,0,0,0,0,0,0,0,0,0,0,0,0,0,0,-0.261799,-0.000100217,-1.5,-nan,0,0,3,0,0
710,-3.21065e-12,0,-1.53083e-06,-3.27738e-12,0,-3.40903e-12,-1.06608e-13,0,0,0,0,0,0,0,0,0,0,0,0,0,0,0,0,0,0,0,0,0,-0.261799,-9.6059e-05,-1.5,-nan,0,0,3,0,0
720,-3.21065e-12,0,-1.53083e-06,-3.27738e-12,0,0,-1.06608e-13,0,0,0,0,0,0,0,0,0,0,0,0,0,0,0,0,0,0,0,0,0,-0.261799,-9.20734e-05,-1.5,-nan,0,0,3,0,0
730,-3.21065e-12,0,-1.53083e-06,-3.27738e-12,0,-3.40903e-12,-1.06608e-13,0,0,0,0,0,0,0,0,0,0,0,0,0,0,0,0,0,0,0,0,0,-0.261799,-8.8076e-05,-1.5,-nan,0,0,3,0,0
740,-3.21065e-12,0,-1.53083e-06,-3.27738e-12,0,0,-1.06609e-13,0,0,0,0,0,0,0,0,0,0,0,0,0,0,0,0,0,0,0,0,0,-0.261799,-8.44251e-05,-1.5,-nan,0,0,3,0,0
750,-3.21065e-12,0,-1.53083e-06,-3.27738e-12,0,-3.40903e-12,-1.06609e-13,0,0,0,0,0,0,0,0,0,0,0,0,0,0,0,0,0,0,0,0,0,-0.261799,-8.09223e-05,-1.5,-nan,0,0,3,0,0
760,-3.21065e-12,0,-1.53083e-06,-3.27738e-12,0,0,-1.06609e-13,0,0,0,0,0,0,0,0,0,0,0,0,0,0,0,0,0,0,0,0,0,-0.261799,-7.75648e-05,-1.5,-nan,0,0,3,0,0
770,-3.21067e-12,0,0,-3.27738e-12,0,-3.40903e-12,-1.06609e-13,0,0,0,0,0,0,0,0,0,0,0,0,0,0,0,0,0,0,0,0,0,-0.261799,-7.41972e-05,-1.5,-nan,0,0,3,0,0
780,-3.21065e-12,0,-1.53083e-06,-3.27738e-12,0,0,-1.0661e-13,0,0,0,0,0,0,0,0,0,0,0,0,0,0,0,0,0,0,0,0,0,-0.261799,-7.11187e-05,-1.5,-nan,0,0,3,0,0
790,-3.21065e-12,0,-1.53083e-06,-3.27738e-12,0,-3.40903e-12,-1.0661e-13,0,0,0,0,0,0,0,0,0,0,0,0,0,0,0,0,0,0,0,0,0,-0.261799,-6.81708e-05,-1.5,-nan,0,0,3,0,0
800,-3.21065e-12,0,-1.53083e-06,-3.27738e-12,0,0,-1.0661e-13,0,0,0,0,0,0,0,0,0,0,0,0,0,0,0,0,0,0,0,0,0,-0.261799,-6.53423e-05,-1.5,-nan,0,0,3,0,0
810,-3.21065e-12,0,-1.53083e-06,-3.27738e-12,0,-3.40903e-12,-1.0661e-13,0,0,0,0,0,0,0,0,0,0,0,0,0,0,0,0,0,0,0,0,0,-0.261799,-6.25026e-05,-1.5,-nan,0,0,3,0,0
820,-3.21065e-12,0,-1.53083e-06,-3.27738e-12,0,0,-1.06611e-13,0,0,0,0,0,0,0,0,0,0,0,0,0,0,0,0,0,0,0,0,0,-0.261799,-5.97863e-05,-1.5,-nan,0,0,3,0,0
830,-3.21065e-12,0,-1.53083e-06,-3.27738e-12,0,-3.40903e-12,-1.06611e-13,0,0,0,0,0,0,0,0,0,0,0,0,0,0,0,0,0,0,0,0,0,-0.261799,-5.78941e-05,-1.5,-nan,0,0,3,0,0
840,-3.21065e-12,0,-1.53083e-06,-3.27738e-12,0,0,-1.06611e-13,0,0,0,0,0,0,0,0,0,0,0,0,0,0,0,0,0,0,0,0,0,-0.261799,-5.59492e-05,-1.5,-nan,0,0,3,0,0
850,-3.21065e-12,0,-1.53083e-06,-3.27738e-12,0,-3.40903e-12,-1.06612e-13,0,0,0,0,0,0,0,0,0,0,0,0,0,0,0,0,0,0,0,0,0,-0.261799,-5.41795e-05,-1.5,-nan,0,0,3,0,0
860,-3.21065e-12,0,-1.53083e-06,-3.27738e-12,0,0,-1.06612e-13,0,0,0,0,0,0,0,0,0,0,0,0,0,0,0,0,0,0,0,0,0,-0.261799,-5.18273e-05,-1.5,-nan,0,0,3,0,0
870,-3.21065e-12,0,-1.53083e-06,-3.27738e-12,0,-3.40903e-12,-1.06612e-13,0,0,0,0,0,0,0,0,0,0,0,0,0,0,0,0,0,0,0,0,0,-0.261799,-4.97789e-05,-1.5,-nan,0,0,3,0,0
880,-3.21065e-12,0,-1.53083e-06,-3.27738e-12,0,0,-1.06612e-13,0,0,0,0,0,0,0,0,0,0,0,0,0,0,0,0,0,0,0,0,0,-0.261799,-4.75176e-05,-1.5,-nan,0,0,3,0,0
890,-3.21065e-12,0,-1.53083e-06,-3.27738e-12,0,-3.40903e-12,-1.06613e-13,0,0,0,0,0,0,0,0,0,0,0,0,0,0,0,0,0,0,0,0,0,-0.261799,-4.56396e-05,-1.5,-nan,0,0,3,0,0
900,-3.21065e-12,0,-1.53083e-06,-3.27738e-12,0,0,-1.06613e-13,0,0,0,0,0,0,0,0,0,0,0,0,0,0,0,0,0,0,0,0,0,-0.261799,-4.35663e-05,-1.5,-nan,0,0,3,0,0
910,-3.21065e-12,0,-1.53083e-06,-3.27738e-12,0,-3.40903e-12,-1.06613e-13,0,0,0,0,0,0,0,0,0,0,0,0,0,0,0,0,0,0,0,0,0,-0.261799,-4.17604e-05,-1.5,-nan,0,0,3,0,0
920,-3.21065e-12,0,-1.53083e-06,-3.27738e-12,0,0,-1.06613e-13,0,0,0,0,0,0,0,0,0,0,0,0,0,0,0,0,0,0,0,0,0,-0.261799,-3.99474e-05,-1.5,-nan,0,0,3,0,0
930,-3.21065e-12,0,-1.53083e-06,-3.27738e-12,0,-3.40903e-12,-1.06614e-13,0,0,0,0,0,0,0,0,0,0,0,0,0,0,0,0,0,0,0,0,0,-0.261799,-3.83686e-05,-1.5,-nan,0,0,3,0,0
940,-3.21065e-12,0,-1.53083e-06,-3.27738e-12,0,0,-1.06614e-13,0,0,0,0,0,0,0,0,0,0,0,0,0,0,0,0,0,0,0,0,0,-0.261799,-3.67011e-05,-1.5,-nan,0,0,3,0,0
950,-3.21065e-12,0,-1.53083e-06,-3.27738e-12,0,-3.40903e-12,-1.06614e-13,0,0,0,0,0,0,0,0,0,0,0,0,0,0,0,0,0,0,0,0,0,-0.261799,-3.51798e-05,-1.5,-nan,0,0,3,0,0
960,-3.21065e-12,0,-1.53083e-06,-3.27738e-12,0,0,-1.06615e-13,0,0,0,0,0,0,0,0,0,0,0,0,0,0,0,0,0,0,0,0,0,-0.261799,-3.36509e-05,-1.5,-nan,0,0,3,0,0
970,-3.21065e-12,0,-1.53083e-06,-3.27738e-12,0,-3.40903e-12,-1.06615e-13,0,0,0,0,0,0,0,0,0,0,0,0,0,0,0,0,0,0,0,0,0,-0.261799,-3.2321e-05,-1.5,-nan,0,0,3,0,0
980,-3.21065e-12,0,-1.53083e-06,-3.27738e-12,0,0,-1.06615e-13,0,0,0,0,0,0,0,0,0,0,0,0,0,0,0,0,0,0,0,0,0,-0.261799,-3.09163e-05,-1.5,-nan,0,0,3,0,0
990,-3.21065e-12,0,-1.53083e-06,-3.27738e-12,0,-3.40903e-12,-1.06615e-13,0,0,0,0,0,0,0,0,0,0,0,0,0,0,0,0,0,0,0,0,0,-0.261799,-2.96348e-05,-1.5,-nan,0,0,3,0,0
1000,-3.21065e-12,0,-1.53083e-06,-3.27738e-12,0,0,-1.06616e-13,0,0,0,0,0,0,0,0,0,0,0,0,0,0,0,0,0,0,0,0,0,-0.261799,-2.83469e-05,-1.5,-nan,0,0,3,0,0
1010,-3.21065e-12,0,-1.53083e-06,-3.27738e-12,0,-3.40903e-12,-1.06616e-13,0,0,0,0,0,0,0,0,0,0,0,0,0,0,0,0,0,0,0,0,0,-0.261799,-2.71719e-05,-1.5,-nan,0,0,3,0,0
1020,-3.21065e-12,0,-1.53083e-06,-3.27738e-12,0,0,-1.06616e-13,0,0,0,0,0,0,0,0,0,0,0,0,0,0,0,0,0,0,0,0,0,-0.261799,-2.5991e-05,-1.5,-nan,0,0,3,0,0
1030,-3.21065e-12,0,-1.53083e-06,-3.27738e-12,0,-3.40903e-12,-1.06616e-13,0,0,0,0,0,0,0,0,0,0,0,0,0,0,0,0,0,0,0,0,0,-0.261799,-2.50661e-05,-1.5,-nan,0,0,3,0,0
1040,-3.21065e-12,0,-1.53083e-06,-3.27738e-12,0,0,-1.06617e-13,0,0,0,0,0,0,0,0,0,0,0,0,0,0,0,0,0,0,0,0,0,-0.261799,-2.40261e-05,-1.5,-nan,0,0,3,0,0
1050,-3.21065e-12,0,-1.53083e-06,-3.27738e-12,0,-3.40903e-12,-1.06617e-13,0,0,0,0,0,0,0,0,0,0,0,0,0,0,0,0,0,0,0,0,0,-0.261799,-2.2983e-05,-1.5,-nan,0,0,3,0,0
1060,-3.21065e-12,0,-1.53083e-06,-3.27738e-12,0,0,-1.06617e-13,0,0,0,0,0,0,0,0,0,0,0,0,0,0,0,0,0,0,0,0,0,-0.261799,-2.20303e-05,-1.5,-nan,0,0,3,0,0
1070,-3.21065e-12,0,-1.53083e-06,-3.27738e-12,0,-3.40903e-12,-1.06618e-13,0,0,0,0,0,0,0,0,0,0,0,0,0,0,0,0,0,0,0,0,0,-0.261799,-2.11163e-05,-1.5,-nan,0,0,3,0,0
1080,-3.21065e-12,0,-1.53083e-06,-3.27738e-12,0,0,-1.06618e-13,0,0,0,0,0,0,0,0,0,0,0,0,0,0,0,0,0,0,0,0,0,-0.261799,-2.02401e-05,-1.5,-nan,0,0,3,0,0
1090,-3.21065e-12,0,-1.53083e-06,-3.27738e-12,0,-3.40903e-12,-1.06618e-13,0,0,0,0,0,0,0,0,0,0,0,0,0,0,0,0,0,0,0,0,0,-0.261799,-1.95597e-05,-1.5,-nan,0,0,3,0,0
1100,-3.21065e-12,0,-1.53083e-06,-3.27738e-12,0,0,-1.06618e-13,0,0,0,0,0,0,0,0,0,0,0,0,0,0,0,0,0,0,0,0,0,-0.261799,-1.8941e-05,-1.5,-nan,0,0,3,0,0
1110,-3.21065e-12,0,-1.53083e-06,-3.27738e-12,0,-3.40903e-12,-1.06619e-13,0,0,0,0,0,0,0,0,0,0,0,0,0,0,0,0,0,0,0,0,0,-0.261799,-1.83047e-05,-1.5,-nan,0,0,3,0,0
1120,-3.21065e-12,0,-1.53083e-06,-3.27738e-12,0,0,-1.06619e-13,0,0,0,0,0,0,0,0,0,0,0,0,0,0,0,0,0,0,0,0,0,-0.261799,-1.77614e-05,-1.5,-nan,0,0,3,0,0
1130,-3.21065e-12,0,-1.53083e-06,-3.27738e-12,0,-3.40903e-12,-1.06619e-13,0,0,0,0,0,0,0,0,0,0,0,0,0,0,0,0,0,0,0,0,0,-0.261799,-1.70245e-05,-1.5,-nan,0,0,3,0,0
1140,-3.21065e-12,0,-1.53083e-06,-3.27738e-12,0,0,-1.06619e-13,0,0,0,0,0,0,0,0,0,0,0,0,0,0,0,0,0,0,0,0,0,-0.261799,-1.62846e-05,-1.5,-nan,0,0,3,0,0
1150,-3.21065e-12,0,-1.53083e-06,-3.27738e-12,0,-3.40903e-12,-1.0662e-13,0,0,0,0,0,0,0,0,0,0,0,0,0,0,0,0,0,0,0,0,0,-0.261799,-1.5609e-05,-1.5,-nan,0,0,3,0,0
1160,-3.21065e-12,0,-1.53083e-06,-3.27738e-12,0,0,-1.0662e-13,0,0,0,0,0,0,0,0,0,0,0,0,0,0,0,0,0,0,0,0,0,-0.261799,-1.49313e-05,-1.5,-nan,0,0,3,0,0
1170,-3.21065e-12,0,-1.53083e-06,-3.27738e-12,0,-3.40903e-12,-1.0662e-13,0,0,0,0,0,0,0,0,0,0,0,0,0,0,0,0,0,0,0,0,0,-0.261799,-1.43124e-05,-1.5,-nan,0,0,3,0,0
1180,-3.21065e-12,0,-1.53083e-06,-3.27738e-12,0,0,-1.0662e-13,0,0,0,0,0,0,0,0,0,0,0,0,0,0,0,0,0,0,0,0,0,-0.261799,-1.37191e-05,-1.5,-nan,0,0,3,0,0
1190,-3.21065e-12,0,-1.53083e-06,-3.27738e-12,0,-3.40903e-12,-1.06621e-13,0,0,0,0,0,0,0,0,0,0,0,0,0,0,0,0,0,0,0,0,0,-0.261799,-1.31499e-05,-1.5,-nan,0,0,3,0,0
1200,-3.21065e-12,0,-1.53083e-06,-3.27738e-12,0,0,-1.06621e-13,0,0,0,0,0,0,0,0,0,0,0,0,0,0,0,0,0,0,0,0,0,-0.261799,-1.26043e-05,-1.5,-nan,0,0,3,0,0
1210,-3.21065e-12,0,-1.53083e-06,-3.27738e-12,0,-3.40903e-12,-1.06621e-13,0,0,0,0,0,0,0,0,0,0,0,0,0,0,0,0,0,0,0,0,0,-0.261799,-1.20571e-05,-1.5,-nan,0,0,3,0,0
1220,-3.21065e-12,0,-1.53083e-06,-3.27738e-12,0,0,-1.06622e-13,0,0,0,0,0,0,0,0,0,0,0,0,0,0,0,0,0,0,0,0,0,-0.261799,-1.15568e-05,-1.5,-nan,0,0,3,0,0
1230,-3.21065e-12,0,-1.53083e-06,-3.27738e-12,0,-3.40903e-12,-1.06622e-13,0,0,0,0,0,0,0,0,0,0,0,0,0,0,0,0,0,0,0,0,0,-0.261799,-1.10551e-05,-1.5,-nan,0,0,3,0,0
1240,-3.21065e-12,0,-1.53083e-06,-3.27738e-12,0,0,-1.06622e-13,0,0,0,0,0,0,0,0,0,0,0,0,0,0,0,0,0,0,0,0,0,-0.261799,-1.05964e-05,-1.5,-nan,0,0,3,0,0
1250,-3.21065e-12,0,-1.53083e-06,-3.27738e-12,0,-3.40903e-12,-1.06622e-13,0,0,0,0,0,0,0,0,0,0,0,0,0,0,0,0,0,0,0,0,0,-0.261799,-1.00316e-05,-1.5,-nan,0,0,3,0,0
1260,-3.21065e-12,0,-1.53083e-06,-3.27738e-12,0,0,-1.06623e-13,0,0,0,0,0,0,0,0,0,0,0,0,0,0,0,0,0,0,0,0,0,-0.261799,-9.61538e-06,-1.5,-nan,0,0,3,0,0
1270,-3.21065e-12,0,-1.53083e-06,-3.27738e-12,0,-3.40903e-12,-1.06623e-13,0,0,0,0,0,0,0,0,0,0,0,0,0,0,0,0,0,0,0,0,0,-0.261799,-9.21643e-06,-1.5,-nan,0,0,3,0,0
1280,-3.21065e-12,0,-1.53083e-06,-3.27738e-12,0,0,-1.06623e-13,0,0,0,0,0,0,0,0,0,0,0,0,0,0,0,0,0,0,0,0,0,-0.261799,-8.81629e-06,-1.5,-nan,0,0,3,0,0
1290,-3.21065e-12,0,-1.53083e-06,-3.27738e-12,0,-3.40903e-12,-1.06623e-13,0,0,0,0,0,0,0,0,0,0,0,0,0,0,0,0,0,0,0,0,0,-0.261799,-8.45085e-06,-1.5,-nan,0,0,3,0,0
1300,-3.21065e-12,0,-1.53083e-06,-3.27738e-12,0,0,-1.06624e-13,0,0,0,0,0,0,0,0,0,0,0,0,0,0,0,0,0,0,0,0,0,-0.261799,-7.80176e-06,-1.5,-nan,0,0,3,0,0
1310,-3.21065e-12,0,-1.53083e-06,-3.27738e-12,0,-3.40903e-12,-1.06624e-13,0,0,0,0,0,0,0,0,0,0,0,0,0,0,0,0,0,0,0,0,0,-0.261799,-7.32451e-06,-1.5,-nan,0,0,3,0,0
1320,-3.21065e-12,0,-1.53083e-06,-3.27738e-12,0,0,-1.06624e-13,0,0,0,0,0,0,0,0,0,0,0,0,0,0,0,0,0,0,0,0,0,-0.261799,-7.02061e-06,-1.5,-nan,0,0,3,0,0
1330,-3.21065e-12,0,-1.53083e-06,-3.27738e-12,0,-3.40903e-12,-1.06625e-13,0,0,0,0,0,0,0,0,0,0,0,0,0,0,0,0,0,0,0,0,0,-0.261799,-6.7155e-06,-1.5,-nan,0,0,3,0,0
1340,-3.21065e-12,0,-1.53083e-06,-3.27738e-12,0,0,-1.06625e-13,0,0,0,0,0,0,0,0,0,0,0,0,0,0,0,0,0,0,0,0,0,-0.261799,-6.43687e-06,-1.5,-nan,0,0,3,0,0
1350,-3.21065e-12,0,-1.53083e-06,-3.27738e-12,0,-3.40903e-12,-1.06625e-13,0,0,0,0,0,0,0,0,0,0,0,0,0,0,0,0,0,0,0,0,0,-0.261799,-6.14446e-06,-1.5,-nan,0,0,3,0,0
1360,-3.21065e-12,0,-1.53083e-06,-3.27738e-12,0,0,-1.06625e-13,0,0,0,0,0,0,0,0,0,0,0,0,0,0,0,0,0,0,0,0,0,-0.261799,-5.93789e-06,-1.5,-nan,0,0,3,0,0
1370,-3.21065e-12,0,-1.53083e-06,-3.27738e-12,0,-3.40903e-12,-1.06626e-13,0,0,0,0,0,0,0,0,0,0,0,0,0,0,0,0,0,0,0,0,0,-0.261799,-5.75008e-06,-1.5,-nan,0,0,3,0,0
1380,-3.21065e-12,0,-1.53083e-06,-3.27738e-12,0,0,-1.06626e-13,0,0,0,0,0,0,0,0,0,0,0,0,0,0,0,0,0,0,0,0,0,-0.261799,-5.55677e-06,-1.5,-nan,0,0,3,0,0
1390,-3.21065e-12,0,-1.53083e-06,-3.27738e-12,0,-3.40903e-12,-1.06626e-13,0,0,0,0,0,0,0,0,0,0,0,0,0,0,0,0,0,0,0,0,0,-0.261799,-5.32622e-06,-1.5,-nan,0,0,3,0,0
1400,-3.21065e-12,0,-1.53083e-06,-3.27738e-12,0,0,-1.06626e-13,0,0,0,0,0,0,0,0,0,0,0,0,0,0,0,0,0,0,0,0,0,-0.261799,-5.09498e-06,-1.5,-nan,0,0,3,0,0
1410,-3.21065e-12,0,-1.53083e-06,-3.27738e-12,0,-3.40903e-12,-1.06627e-13,0,0,0,0,0,0,0,0,0,0,0,0,0,0,0,0,0,0,0,0,0,-0.261799,-4.88379e-06,-1.5,-nan,0,0,3,0,0
1420,-3.21065e-12,0,-1.53083e-06,-3.27738e-12,0,0,-1.06627e-13,0,0,0,0,0,0,0,0,0,0,0,0,0,0,0,0,0,0,0,0,0,-0.261799,-4.68115e-06,-1.5,-nan,0,0,3,0,0
1430,-3.21065e-12,0,-1.53083e-06,-3.27738e-12,0,-3.40903e-12,-1.06627e-13,0,0,0,0,0,0,0,0,0,0,0,0,0,0,0,0,0,0,0,0,0,-0.261799,-4.47792e-06,-1.5,-nan,0,0,3,0,0
1440,-3.21065e-12,0,-1.53083e-06,-3.27738e-12,0,0,-1.06628e-13,0,0,0,0,0,0,0,0,0,0,0,0,0,0,0,0,0,0,0,0,0,-0.261799,-4.29213e-06,-1.5,-nan,0,0,3,0,0
1450,-3.21065e-12,0,-1.53083e-06,-3.27738e-12,0,-3.40903e-12,-1.06632e-13,0,0,0,0,0,0,0,0,0,0,0,0,0,0,0,0,0,0,0,0,0,-0.261799,-4.11404e-06,-1.5,-nan,0,0,3,0,0
1460,-3.21065e-12,0,-1.53083e-06,-3.27738e-12,0,0,-1.06632e-13,0,0,0,0,0,0,0,0,0,0,0,0,0,0,0,0,0,0,0,0,0,-0.261799,-3.93543e-06,-1.5,-nan,0,0,3,0,0
1470,-3.21065e-12,0,-1.53083e-06,-3.27738e-12,0,-3.40903e-12,-1.06632e-13,0,0,0,0,0,0,0,0,0,0,0,0,0,0,0,0,0,0,0,0,0,-0.261799,-3.7723e-06,-1.5,-nan,0,0,3,0,0
1480,-3.21065e-12,0,-1.53083e-06,-3.27738e-12,0,0,-1.06632e-13,0,0,0,0,0,0,0,0,0,0,0,0,0,0,0,0,0,0,0,0,0,-0.261799,-3.61579e-06,-1.5,-nan,0,0,3,0,0
1490,-3.21065e-12,0,-1.53083e-06,-3.27738e-12,0,-3.40903e-12,-1.06633e-13,0,0,0,0,0,0,0,0,0,0,0,0,0,0,0,0,0,0,0,0,0,-0.261799,-3.45865e-06,-1.5,-nan,0,0,3,0,0
1500,-3.21065e-12,0,-1.53083e-06,-3.27738e-12,0,0,-1.06633e-13,0,0,0,0,0,0,0,0,0,0,0,0,0,0,0,0,0,0,0,0,0,-0.261799,-3.31515e-06,-1.5,-nan,0,0,3,0,0
1510,-3.21065e-12,0,-1.53083e-06,-3.27738e-12,0,-3.40903e-12,-1.06633e-13,0,0,0,0,0,0,0,0,0,0,0,0,0,0,0,0,0,0,0,0,0,-0.261799,-3.17122e-06,-1.5,-nan,0,0,3,0,0
1520,-3.21065e-12,0,-1.53083e-06,-3.27738e-12,0,0,-1.06633e-13,0,0,0,0,0,0,0,0,0,0,0,0,0,0,0,0,0,0,0,0,0,-0.261799,-3.03964e-06,-1.5,-nan,0,0,3,0,0
1530,-3.21065e-12,0,-1.53083e-06,-3.27738e-12,0,-3.40903e-12,-1.06634e-13,0,0,0,0,0,0,0,0,0,0,0,0,0,0,0,0,0,0,0,0,0,-0.261799,-2.91352e-06,-1.5,-nan,0,0,3,0,0
1540,-3.21065e-12,0,-1.53083e-06,-3.27738e-12,0,0,-1.06634e-13,0,0,0,0,0,0,0,0,0,0,0,0,0,0,0,0,0,0,0,0,0,-0.261799,-2.78703e-06,-1.5,-nan,0,0,3,0,0
1550,-3.21065e-12,0,-1.53083e-06,-3.27738e-12,0,-3.40903e-12,-1.06634e-13,0,0,0,0,0,0,0,0,0,0,0,0,0,0,0,0,0,0,0,0,0,-0.261799,-2.67688e-06,-1.5,-nan,0,0,3,0,0
1560,-3.21065e-12,0,-1.53083e-06,-3.27738e-12,0,0,-1.06634e-13,0,0,-3.41369,0.260946,0.451617,0,0,0,0,0,0.586306,0.260946,-1368112832,-767194348,-1368112832,-767194348,-123184137,-1368112832,-1367607632,-1367607632,0,-0.261799,-2.48152e-06,-1.5,-nan,0,0,3,0,0
1570,-3.21065e-12,0,-1.53083e-06,-3.27738e-12,0,-3.40903e-12,-1.06635e-13,0,0,-3.4007,0.260024,0.44341,0,0,0,0,0,0.599301,0.260024,-1368112832,-767194348,-1368112832,-767194348,-123184137,-1368112832,-1367607632,-1367607632,0,-0.261799,-2.37378e-06,-1.5,-nan,0,0,3,0,0
1580,-3.21065e-12,0,-1.53083e-06,-3.27738e-12,0,0,-1.06628e-13,0,0,-3.39253,0.257033,0.4414,0,0,0,0,0,0.607466,0.257033,-1368112832,-767194348,-1368112832,-767194348,-123184137,-1368112832,-1367607632,-1367607632,0,-0.261799,-2.27529e-06,-1.5,-nan,0,0,3,0,0
1590,-3.21065e-12,0,-1.53083e-06,-3.27738e-12,0,-3.40903e-12,-1.06628e-13,0,0,-3.41369,0.260946,0.451617,0,0,0,0,0,0.586306,0.260946,-1368112832,-767194348,-1368112832,-767194348,-123184137,-1368112832,-1367607632,-1367607632,0,-0.261799,-2.18089e-06,-1.5,-nan,0,0,3,0,0
1600,-3.21065e-12,0,-1.53083e-06,-3.27738e-12,0,0,-1.06628e-13,0,0,-3.41369,0.260946,0.451617,0,0,0,0,0,0.586306,0.260946,-1368112832,-767194348,-1368112832,-767194348,-123184137,-1368112832,-1367607632,-1367607632,0,-0.261799,-2.0862e-06,-1.5,-nan,0,0,3,0,0
1610,-3.21065e-12,0,-1.53083e-06,-3.27738e-12,0,-3.40903e-12,-1.06629e-13,0,0,-3.41369,0.260946,0.451617,0,0,0,0,0,0.586306,0.260946,-1368112832,-767194348,-1368112832,-767194348,-123184137,-1368112832,-1367607632,-1367607632,-0.261799,-0.261799,-1.65961e-06,-1.5,-nan,0,0,3,0.570591,0.262062
1620,-3.21065e-12,0,-1.53083e-06,-3.27738e-12,0,0,-1.06629e-13,0,0,-3.41369,0.260946,0.451617,0,0,0,0,0,0.586306,0.260946,-1368112832,-767194348,-1368112832,-767194348,-123184137,-1368112832,-1367607632,-1367607632,-0.261799,-0.261799,-1.62015e-06,-1.5,-nan,0,0,3,0.568777,0.262191
1630,-3.21065e-12,0,-1.53083e-06,-3.27738e-12,0,-3.40903e-12,-1.06629e-13,0,0,-3.41491,0.263694,0.454686,0,0,0,0,0,0.58509,0.263694,-1368112832,-767194348,-1368112832,-767194348,-123184137,-1368112832,-1367607632,-1367607632,-0.261799,-0.261799,-1.26298e-06,-1.5,-nan,0,0,3,0.578512,0.265456
1640,-3.21065e-12,0,-1.53083e-06,-3.27738e-12,0,0,-1.06629e-13,0,0,-3.40612,0.262656,0.444908,0,0,0,0,0,0.593877,0.262656,-1368112832,-767194348,-1368112832,-767194348,-123184137,-1368112832,-1367607632,-1367607632,-0.261799,-0.261799,-9.94795e-07,-1.5,-nan,0,0,3,0.571406,0.264573
1650,-3.21065e-12,0,-1.53083e-06,-3.27738e-12,0,-3.40903e-12,-1.0663e-13,0,0,-3.45085,0.281231,0.432196,0,0,0,0,0,0.549155,0.281231,-1368112832,-767194348,-1368112832,-767194348,-123184137,-1368112832,-1367607632,-1367607632,-0.261799,-0.261799,-7.42062e-07,-1.5,-nan,0,0,3,0.533898,0.270818
1660,-3.21065e-12,0,-1.53083e-06,-3.27738e-12,0,0,-1.0663e-13,0,0,-3.44965,0.306426,0.414572,0,0,0,0,0,0.550345,0.306426,-1368112832,-767194348,-1368112832,-767194348,-123184137,-1368112832,-1367607632,-1367607632,-0.261799,-0.261799,-5.94432e-07,-1.5,-nan,0,0,3,0.540316,0.294747
1670,-3.21065e-12,0,-1.53083e-06,-3.27738e-12,0,-3.40903e-12,-1.0663e-13,0,0,-3.45991,0.270016,0.445426,0,0,0,0,0,0.540094,0.270016,-1368112832,-767194348,-1368112832,-767194348,-123184137,-1368112832,-1367607632,-1367607632,-0.261799,-0.261799,-4.41073e-07,-1.5,-nan,0,0,3,0.528861,0.274319
1680,-3.21065e-12,0,-1.53083e-06,-3.27738e-12,0,0,-1.06631e-13,0,0,-3.4057,0.246173,0.421034,0,0,0,0,0,0.594305,0.246173,-1368112832,-767194348,-1368112832,-767194348,-123184137,-1368112832,-1367607632,-1367607632,-0.261799,-0.261799,-3.52455e-07,-1.5,-nan,0,0,3,0.520759,0.273703
1690,-3.21065e-12,0,-1.53083e-06,-3.27738e-12,0,-3.40903e-12,-1.06631e-13,0,0,-3.36655,0.2601,0.380026,0,0,0,0,0,0.633451,0.2601,-1368112832,-767194348,-1368112832,-767194348,-123184137,-1368112832,-1367607632,-1367607632,-0.261799,-0.261799,-2.60831e-07,-1.5,-nan,0,0,3,0.596476,0.27034
1700,-3.21065e-12,0,-1.53083e-06,-3.27738e-12,0,0,-1.06631e-13,0,0,-3.42225,0.267426,0.410315,0,0,0,0,0,0.577752,0.267426,-1368112832,-767194348,-1368112832,-767194348,-123184137,-1368112832,-1367607632,-1367607632,-0.261799,-0.261799,-2.06373e-07,-1.5,-nan,0,0,3,0.576804,0.268157
1710,-3.21065e-12,0,-1.53083e-06,-3.27738e-12,0,-3.40903e-12,-1.06635e-13,0,0,-3.36158,0.297578,0.379097,0,0,0,0,0,0.638423,0.297578,-1368112832,-767194348,-1368112832,-767194348,-123184137,-1368112832,-1367607632,-1367607632,-0.261799,-0.261799,-1.55567e-07,-1.5,-nan,0,0,3,0.597181,0.279306
1720,-3.21065e-12,0,-1.53083e-06,-3.27738e-12,0,0,-1.06635e-13,0,0,-3.30109,0.312317,0.352296,0,0,0,0,0,0.698915,0.312317,-1368112832,-767194348,-1368112832,-767194348,-123184137,-1368112832,-1367607632,-1367607632,-0.261799,-0.261799,-1.13367e-07,-1.5,-nan,0,0,3,0.622516,0.292226
1730,-3.21065e-12,0,-1.53083e-06,-3.27738e-12,0,-3.40903e-12,-1.06636e-13,0,0,-3.26758,0.320082,0.323335,0,0,0,0,0,0.732419,0.320082,-1368112832,-767194348,-1368112832,-767194348,-123184137,-1368112832,-1367607632,-1367607632,-0.261799,-0.261799,-9.05901e-08,-1.5,-nan,0,0,3,0.653545,0.309705
1740,-3.21065e-12,0,-1.53083e-06,-3.27738e-12,0,0,-1.06636e-13,0,0,-3.35931,0.305223,0.370768,0,0,0,0,0,0.640695,0.305223,-1368112832,-767194348,-1368112832,-767194348,-123184137,-1368112832,-1367607632,-1367607632,-0.261799,-0.261799,-6.72615e-08,-1.5,-nan,0,0,3,0.666569,0.309691
1750,-3.21065e-12,0,-1.53083e-06,-3.27738e-12,0,-3.40903e-12,-1.06636e-13,0,0,-3.4223,0.273297,0.425433,0,0,0,0,0,0.5777,0.273297,-1368112832,-767194348,-1368112832,-767194348,-123184137,-1368112832,-1367607632,-1367607632,-0.261799,-0.261799,-5.37477e-08,-1.5,-nan,0,0,3,0.647756,0.313234
1760,-3.21065e-12,0,-1.53083e-06,-3.27738e-12,0,0,-1.06636e-13,0,0,-3.4223,0.273297,0.425433,0,0,0,0,0,0.5777,0.273297,-1368112832,-767194348,-1368112832,-767194348,-123184137,-1368112832,-1367607632,-1367607632,-0.261799,-0.261799,-5.20466e-08,-1.5,-nan,0,0,3,0.648351,0.313762
1770,-3.21065e-12,0,-1.53083e-06,-3.27738e-12,0,-3.40903e-12,-1.06637e-13,0,0,-3.4223,0.273297,0.425433,0,0,0,0,0,0.5777,0.273297,-1368112832,-767194348,-1368112832,-767194348,-123184137,-1368112832,-1367607632,-1367607632,-0.261799,-0.261799,-5.02969e-08,-1.5,-nan,0,0,3,0.648983,0.314323
1780,-3.21065e-12,0,-1.53083e-06,-3.27738e-12,0,0,-1.06637e-13,0,0,-3.4223,0.273297,0.425433,0,0,0,0,0,0.5777,0.273297,-1368112832,-767194348,-1368112832,-767194348,-123184137,-1368112832,-1367607632,-1367607632,-0.261799,-0.261799,-4.80145e-08,-1.5,-nan,0,0,3,0.649839,0.315082
1790,-3.21065e-12,0,-1.53083e-06,-3.27738e-12,0,-3.40903e-12,-1.06637e-13,0,0,-3.4223,0.273297,0.425433,0,0,0,0,0,0.5777,0.273297,-1368112832,-767194348,-1368112832,-767194348,-123184137,-1368112832,-1367607632,-1367607632,-0.261799,-0.261799,-4.61185e-08,-1.5,-nan,0,0,3,0.650582,0.315742
1800,-3.21065e-12,0,-1.53083e-06,-3.27738e-12,0,0,-1.06637e-13,0,0,-3.4223,0.273297,0.425433,0,0,0,0,0,0.5777,0.273297,-1368112832,-767194348,-1368112832,-767194348,-123184137,-1368112832,-1367607632,-1367607632,-0.261799,-0.261799,-4.41142e-08,-1.5,-nan,0,0,3,0.651401,0.316468
1810,-3.21065e-12,0,-1.53083e-06,-3.27738e-12,0,-3.40903e-12,-1.06638e-13,0,0,-3.4223,0.273297,0.425433,0,0,0,0,0,0.5777,0.273297,-1368112832,-767194348,-1368112832,-767194348,-123184137,-1368112832,-1367607632,-1367607632,-0.261799,-0.261799,-4.23707e-08,-1.5,-nan,0,0,3,0.652144,0.317128
1820,-3.21065e-12,0,-1.53083e-06,-3.27738e-12,0,0,-1.06638e-13,0,0,-3.4223,0.273297,0.425433,0,0,0,0,0,0.5777,0.273297,-1368112832,-767194348,-1368112832,-767194348,-123184137,-1368112832,-1367607632,-1367607632,-0.261799,-0.261799,-4.05294e-08,-1.5,-nan,0,0,3,0.652963,0.317854
1830,-3.21065e-12,0,-1.53083e-06,-3.27738e-12,0,-3.40903e-12,-1.06638e-13,0,0,-3.34132,0.208272,0.414423,0,0,0,0,0,0.658678,0.208272,-1368112832,-767194348,-1368112832,-767194348,-123184137,-1368112832,-1367607632,-1367607632,-0.261799,-0.261799,-3.22418e-08,-1.5,-nan,0,0,3,0.657641,0.288502
1840,-3.21065e-12,0,-1.53083e-06,-3.27738e-12,0,0,-1.06639e-13,0,0,-3.34132,0.208272,0.414423,0,0,0,0,0,0.658678,0.208272,-1368112832,-767194348,-1368112832,-767194348,-123184137,-1368112832,-1367607632,-1367607632,-0.261799,-0.261799,-3.15386e-08,-1.5,-nan,0,0,3,0.658065,0.288662
1850,-3.21065e-12,0,-1.53083e-06,-3.27738e-12,0,-3.40903e-12,-1.06639e-13,0,0,-3.36207,0.221047,0.363219,0,0,0,0,0,0.63793,0.221047,-1368112832,-767194348,-1368112832,-767194348,-123184137,-1368112832,-1367607632,-1367607632,-0.261799,-0.261799,-2.50522e-08,-1.5,-nan,0,0,3,0.665442,0.271212
1860,-3.21065e-12,0,-1.53083e-06,-3.27738e-12,0,0,-1.06639e-13,0,0,-3.31625,0.208815,0.364541,0,0,0,0,0,0.683745,0.208815,-1368112832,-767194348,-1368112832,-767194348,-123184137,-1368112832,-1367607632,-1367607632,-0.259225,-0.261799,-2.02652e-08,-1.5,-nan,0,0,3,0.687744,0.234881
1870,-3.21065e-12,0,-1.53083e-06,-3.27738e-12,0,-3.40903e-12,-1.06639e-13,0,0,-3.31625,0.208815,0.364541,0,0,0,0,0,0.683745,0.208815,-1368112832,-767194348,-1368112832,-767194348,-123184137,-1368112832,-1367607632,-1367607632,-0.258726,-0.261799,-1.96238e-08,-1.5,-nan,0,0,3,0.688821,0.234452
1880,-3.21065e-12,0,-1.53083e-06,-3.27738e-12,0,0,-1.0664e-13,0,0,-3.31625,0.208815,0.364541,0,0,0,0,0,0.683745,0.208815,-1368112832,-767194348,-1368112832,-767194348,-123184137,-1368112832,-1367607632,-1367607632,-0.25829,-0.261799,-1.908e-08,-1.5,-nan,0,0,3,0.689762,0.234077
1890,-3.21065e-12,0,-1.53083e-06,-3.27738e-12,0,-3.40903e-12,-1.0664e-13,0,0,-3.38994,0.210499,0.439686,0,0,0,0,0,0.610059,0.210499,-1368112832,-767194348,-1368112832,-767194348,-123184137,-1368112832,-1367607632,-1367607632,-0.222353,-0.261799,-1.47583e-08,-1.5,-nan,0,0,3,0.684905,0.208489
1900,-3.21065e-12,0,-1.53083e-06,-3.27738e-12,0,0,-1.0664e-13,0,0,-3.39865,0.216896,0.466637,0,0,0,0,0,0.601353,0.216896,-1368112832,-767194348,-1368112832,-767194348,-123184137,-1368112832,-1367607632,-1367607632,-0.209958,-0.261799,-1.09508e-08,-1.5,-nan,0,0,3,0.657909,0.20157
1910,-3.21065e-12,0,-1.53083e-06,-3.27738e-12,0,-3.40903e-12,-1.0664e-13,0,0,-3.40682,0.231426,0.537348,0,0,0,0,0,0.593178,0.231426,-1368112832,-767194348,-1368112832,-767194348,-123184137,-1368112832,-1367607632,-1367607632,-0.222609,-0.261799,-8.06626e-09,-1.5,-nan,0,0,3,0.640452,0.207605
1920,-3.21065e-12,0,-1.53083e-06,-3.27738e-12,0,0,-1.06641e-13,0,0,-3.43046,0.225495,0.536153,0,0,0,0,0,0.569538,0.225495,-1368112832,-767194348,-1368112832,-767194348,-123184137,-1368112832,-1367607632,-1367607632,-0.21839,-0.261799,-6.35038e-09,-1.5,-nan,0,0,3,0.598921,0.204464
1930,-3.21065e-12,0,-1.53083e-06,-3.27738e-12,0,-3.40903e-12,-1.06641e-13,0,0,-3.33847,0.238392,0.492042,0,0,0,0,0,0.661529,0.238392,-1368112832,-767194348,-1368112832,-767194348,-123184137,-1368112832,-1367607632,-1367607632,-0.22511,-0.261799,-4.82731e-09,-1.5,-nan,0,0,3,0.601228,0.214595
1940,-3.21065e-12,0,-1.53083e-06,-3.27738e-12,0,0,-1.06641e-13,0,0,-3.31888,0.233657,0.490743,0,0,0,0,0,0.681123,0.233657,-1368112832,-767194348,-1368112832,-767194348,-123184137,-1368112832,-1367607632,-1367607632,-0.218066,-0.261799,-3.75486e-09,-1.5,-nan,0,0,3,0.640109,0.209382
1950,-3.21065e-12,0,-1.53083e-06,-3.27738e-12,0,-3.40903e-12,-1.06642e-13,0,0,-3.26845,0.212547,0.440279,0,0,0,0,0,0.73155,0.212547,-1368112832,-767194348,-1368112832,-767194348,-123184137,-1368112832,-1367607632,-1367607632,-0.210498,-0.261799,-2.84692e-09,-1.5,-nan,0,0,3,0.654775,0.203171
1960,-3.21065e-12,0,-1.53083e-06,-3.27738e-12,0,0,-1.06642e-13,0,0,-3.25681,0.212204,0.437198,0,0,0,0,0,0.743186,0.212204,-1368112832,-767194348,-1368112832,-767194348,-123184137,-1368112832,-1367607632,-1367607632,-0.203003,-0.261799,-2.26478e-09,-1.5,-nan,0,0,3,0.670635,0.197144
1970,-3.21065e-12,0,-1.53083e-06,-3.27738e-12,0,-3.40903e-12,-1.06642e-13,0,0,-3.29633,0.21948,0.453351,0,0,0,0,0,0.703669,0.21948,-1368112832,-767194348,-1368112832,-767194348,-123184137,-1368112832,-1367607632,-1367607632,-0.214981,-0.261799,-1.73948e-09,-1.5,-nan,0,0,3,0.701275,0.201199
1980,-3.21065e-12,0,-1.53083e-06,-3.27738e-12,0,0,-1.06642e-13,0,0,-3.30739,0.206694,0.466222,0,0,0,0,0,0.692606,0.206694,-1368112832,-767194348,-1368112832,-767194348,-123184137,-1368112832,-1367607632,-1367607632,-0.238143,-0.261799,-1.39745e-09,-1.5,-nan,0,0,3,0.712306,0.208753
1990,-3.21065e-12,0,-1.53083e-06,-3.27738e-12,0,-3.40903e-12,-1.06643e-13,0,0,-3.2852,0.218358,0.450729,0,0,0,0,0,0.714803,0.218358,-1368112832,-767194348,-1368112832,-767194348,-123184137,-1368112832,-1367607632,-1367607632,-0.252045,-0.261799,-1.09523e-09,-1.5,-nan,0,0,3,0.718027,0.217591
2000,-3.21065e-12,0,-1.53083e-06,-3.27738e-12,0,0,-1.06643e-13,0,0,-3.26689,0.223793,0.443075,0,0,0,0,0,0.733115,0.223793,-1368112832,-767194348,-1368112832,-767194348,-123184137,-1368112832,-1367607632,-1367607632,-0.259286,-0.261799,-8.25601e-10,-1.5,-nan,0,0,3,0.729198,0.221222
2010,-3.21065e-12,0,-1.53083e-06,-3.27738e-12,0,-3.40903e-12,-1.06643e-13,0,0,-3.33169,0.222357,0.489801,0,0,0,0,0,0.668315,0.222357,-1368112832,-767194348,-1368112832,-767194348,-123184137,-1368112832,-1367607632,-1367607632,-0.260054,-0.261799,-6.42184e-10,-1.5,-nan,0,0,3,0.734802,0.221639
2020,-3.21065e-12,0,-1.53083e-06,-3.27738e-12,0,0,-1.06643e-13,0,0,-3.29447,0.215971,0.465618,0,0,0,0,0,0.705534,0.215971,-1368112832,-767194348,-1368112832,-767194348,-123184137,-1368112832,-1367607632,-1367607632,-0.253257,-0.261799,-4.8409e-10,-1.5,-nan,0,0,3,0.749689,0.218115
2030,-3.21065e-12,0,-1.53083e-06,-3.27738e-12,0,-3.40903e-12,-1.06644e-13,0,0,-3.29055,0.218424,0.45306,0,0,0,0,0,0.709455,0.218424,-1368112832,-767194348,-1368112832,-767194348,-123184137,-1368112832,-1367607632,-1367607632,-0.253708,-0.261799,-3.7349e-10,-1.5,-nan,0,0,3,0.719931,0.218381
2040,-3.21065e-12,0,-1.53083e-06,-3.27738e-12,0,0,-1.06644e-13,0,0,-3.30227,0.218557,0.470492,0,0,0,0,0,0.697728,0.218557,-1368112832,-767194348,-1368112832,-767194348,-123184137,-1368112832,-1367607632,-1367607632,-0.255378,-0.261799,-2.87581e-10,-1.5,-nan,0,0,3,0.725664,0.218995
2050,-3.21065e-12,0,-1.53083e-06,-3.27738e-12,0,-3.40903e-12,-1.06644e-13,0,0,-3.34954,0.214874,0.520348,0,0,0,0,0,0.650456,0.214874,-1368112832,-767194348,-1368112832,-767194348,-123184137,-1368112832,-1367607632,-1367607632,-0.253143,-0.261799,-2.2867e-10,-1.5,-nan,0,0,3,0.727762,0.217902
2060,-3.21065e-12,0,-1.53083e-06,-3.27738e-12,0,0,-1.06645e-13,0,0,-3.2912,0.218429,0.458549,0,0,0,0,0,0.708802,0.218429,-1368112832,-767194348,-1368112832,-767194348,-123184137,-1368112832,-1367607632,-1367607632,-0.248258,-0.261799,-1.69225e-10,-1.5,-nan,0,0,3,0.719868,0.215737
2070,-3.21065e-12,0,-1.53083e-06,-3.27738e-12,0,-3.40903e-12,-1.06645e-13,0,0,-3.2821,0.228661,0.452654,0,0,0,0,0,0.7179,0.228661,-1368112832,-767194348,-1368112832,-767194348,-123184137,-1368112832,-1367607632,-1367607632,-0.24803,-0.261799,-1.29896e-10,-1.5,-nan,0,0,3,0.726377,0.215565
2080,-3.21065e-12,0,-1.53083e-06,-3.27738e-12,0,0,-1.06645e-13,0,0,-3.26428,0.221065,0.439246,0,0,0,0,0,0.735717,0.221065,-1368112832,-767194348,-1368112832,-767194348,-123184137,-1368112832,-1367607632,-1367607632,-0.253649,-0.261799,-9.99631e-11,-1.5,-nan,0,0,3,0.724574,0.218274
2090,-3.21065e-12,0,-1.53083e-06,-3.27738e-12,0,-3.40903e-12,-1.06645e-13,0,0,-3.3392,0.206836,0.496662,0,0,0,0,0,0.660799,0.206836,-1368112832,-767194348,-1368112832,-767194348,-123184137,-1368112832,-1367607632,-1367607632,-0.252742,-0.261799,-7.81479e-11,-1.5,-nan,0,0,3,0.713961,0.21776
2100,-3.21065e-12,0,-1.53083e-06,-3.27738e-12,0,0,-1.06646e-13,0,0,-3.34835,0.217109,0.457702,0,0,0,0,0,0.651649,0.217109,-1368112832,-767194348,-1368112832,-767194348,-123184137,-1368112832,-1367607632,-1367607632,-0.253557,-0.261799,-5.90979e-11,-1.5,-nan,0,0,3,0.678749,0.217978
2110,-3.21065e-12,0,-1.53083e-06,-3.27738e-12,0,-3.40903e-12,-1.06646e-13,0,0,-3.32679,0.218306,0.478233,0,0,0,0,0,0.67321,0.218306,-1368112832,-767194348,-1368112832,-767194348,-123184137,-1368112832,-1367607632,-1367607632,-0.254086,-0.261799,-4.62008e-11,-1.5,-nan,0,0,3,0.670816,0.218239
2120,-3.21065e-12,0,-1.53083e-06,-3.27738e-12,0,0,-1.06646e-13,0,0,-3.31004,0.216883,0.477924,0,0,0,0,0,0.68996,0.216883,-1368112832,-767194348,-1368112832,-767194348,-123184137,-1368112832,-1367607632,-1367607632,-0.254333,-0.261799,-3.52108e-11,-1.5,-nan,0,0,3,0.666815,0.218473
2130,-3.21065e-12,0,-1.53083e-06,-3.27738e-12,0,-3.40903e-12,-1.06646e-13,0,0,-3.29848,0.217416,0.468064,0,0,0,0,0,0.701517,0.217416,-1368112832,-767194348,-1368112832,-767194348,-123184137,-1368112832,-1367607632,-1367607632,-0.252363,-0.261799,-2.74575e-11,-1.5,-nan,0,0,3,0.688082,0.217305
2140,-3.21065e-12,0,-1.53083e-06,-3.27738e-12,0,0,-1.06647e-13,0,0,-3.30505,0.229698,0.496224,0,0,0,0,0,0.694951,0.229698,-1368112832,-767194348,-1368112832,-767194348,-123184137,-1368112832,-1367607632,-1367607632,-0.254761,-0.261799,-2.10222e-11,-1.5,-nan,0,0,3,0.687478,0.218784
2150,-3.21065e-12,0,-1.53083e-06,-3.27738e-12,0,-3.40903e-12,-1.06647e-13,0,0,-3.30405,0.230124,0.514475,0,0,0,0,0,0.695953,0.230124,-1368112832,-767194348,-1368112832,-767194348,-123184137,-1368112832,-1367607632,-1367607632,-0.25306,-0.261799,-1.53504e-11,-1.5,-nan,0,0,3,0.692543,0.217674
2160,-3.21065e-12,0,-1.53083e-06,-3.27738e-12,0,0,-1.06647e-13,0,0,-3.30405,0.230124,0.514475,0,0,0,0,0,0.695953,0.230124,-1368112832,-767194348,-1368112832,-767194348,-123184137,-1368112832,-1367607632,-1367607632,-0.253041,-0.261799,-1.45332e-11,-1.5,-nan,0,0,3,0.692292,0.217659
2170,-3.21065e-12,0,-1.53083e-06,-3.27738e-12,0,-3.40903e-12,-1.06647e-13,0,0,-3.30405,0.230124,0.514475,0,0,0,0,0,0.695953,0.230124,-1368112832,-767194348,-1368112832,-767194348,-123184137,-1368112832,-1367607632,-1367607632,-0.253029,-0.261799,-1.4016e-11,-1.5,-nan,0,0,3,0.692124,0.217648
2180,-3.21065e-12,0,-1.53083e-06,-3.27738e-12,0,0,-1.06648e-13,0,0,-3.30405,0.230124,0.514475,0,0,0,0,0,0.695953,0.230124,-1368112832,-767194348,-1368112832,-767194348,-123184137,-1368112832,-1367607632,-1367607632,-0.253019,-0.261799,-1.36276e-11,-1.5,-nan,0,0,3,0.691994,0.21764
2190,-3.21065e-12,0,-1.53083e-06,-3.27738e-12,0,-3.40903e-12,-1.06648e-13,0,0,-3.30405,0.230124,0.514475,0,0,0,0,0,0.695953,0.230124,-1368112832,-767194348,-1368112832,-767194348,-123184137,-1368112832,-1367607632,-1367607632,-0.253009,-0.261799,-1.32499e-11,-1.5,-nan,0,0,3,0.691864,0.217631
2200,-3.21065e-12,0,-1.53083e-06,-3.27738e-12,0,0,-1.06648e-13,0,0,-3.30405,0.230124,0.514475,0,0,0,0,0,0.695953,0.230124,-1368112832,-767194348,-1368112832,-767194348,-123184137,-1368112832,-1367607632,-1367607632,-0.252995,-0.261799,-1.27001e-11,-1.5,-nan,0,0,3,0.691669,0.217619
2210,-3.21065e-12,0,-1.53083e-06,-3.27738e-12,0,-3.40903e-12,-1.06649e-13,0,0,-3.30405,0.230124,0.514475,0,0,0,0,0,0.695953,0.230124,-1368112832,-767194348,-1368112832,-767194348,-123184137,-1368112832,-1367607632,-1367607632,-0.25298,-0.261799,-1.21488e-11,-1.5,-nan,0,0,3,0.691464,0.217606
2220,-3.21065e-12,0,-1.53083e-06,-3.27738e-12,0,0,-1.06649e-13,0,0,-3.30405,0.230124,0.514475,0,0,0,0,0,0.695953,0.230124,-1368112832,-767194348,-1368112832,-767194348,-123184137,-1368112832,-1367607632,-1367607632,-0.252965,-0.261799,-1.16447e-11,-1.5,-nan,0,0,3,0.691269,0.217594
2230,-3.21065e-12,0,-1.53083e-06,-3.27738e-12,0,-3.40903e-12,-1.06649e-13,0,0,-3.30405,0.230124,0.514475,0,0,0,0,0,0.695953,0.230124,-1368112832,-767194348,-1368112832,-767194348,-123184137,-1368112832,-1367607632,-1367607632,-0.252951,-0.261799,-1.11616e-11,-1.5,-nan,0,0,3,0.691074,0.217581
2240,-3.21065e-12,0,-1.53083e-06,-3.27738e-12,0,0,-1.06649e-13,0,0,-3.30405,0.230124,0.514475,0,0,0,0,0,0.695953,0.230124,-1368112832,-767194348,-1368112832,-767194348,-123184137,-1368112832,-1367607632,-1367607632,-0.252932,-0.261799,-1.05447e-11,-1.5,-nan,0,0,3,0.690814,0.217565
2250,-3.21065e-12,0,-1.53083e-06,-3.27738e-12,0,-3.40903e-12,-1.0665e-13,0,0,-3.30405,0.230124,0.514475,0,0,0,0,0,0.695953,0.230124,-1368112832,-767194348,-1368112832,-767194348,-123184137,-1368112832,-1367607632,-1367607632,-0.25291,-0.261799,-9.87888e-12,-1.5,-nan,0,0,3,0.690516,0.217546
2260,-3.21065e-12,0,-1.53083e-06,-3.27738e-12,0,0,-1.0665e-13,0,0,-3.30405,0.230124,0.514475,0,0,0,0,0,0.695953,0.230124,-1368112832,-767194348,-1368112832,-767194348,-123184137,-1368112832,-1367607632,-1367607632,-0.252894,-0.261799,-9.44998e-12,-1.5,-nan,0,0,3,0.690312,0.217533
2270,-3.21065e-12,0,-1.53083e-06,-3.27738e-12,0,-3.40903e-12,-1.0665e-13,0,0,-3.30405,0.230124,0.514475,0,0,0,0,0,0.695953,0.230124,-1368112832,-767194348,-1368112832,-767194348,-123184137,-1368112832,-1367607632,-1367607632,-0.25288,-0.261799,-9.0579e-12,-1.5,-nan,0,0,3,0.690117,0.21752
2280,-3.21065e-12,0,-1.53083e-06,-3.27738e-12,0,0,-1.0665e-13,0,0,-3.30405,0.230124,0.514475,0,0,0,0,0,0.695953,0.230124,-1368112832,-767194348,-1368112832,-767194348,-123184137,-1368112832,-1367607632,-1367607632,-0.252865,-0.261799,-8.66425e-12,-1.5,-nan,0,0,3,0.689912,0.217507
2290,-3.21065e-12,0,-1.53083e-06,-3.27738e-12,0,-3.40903e-12,-1.06651e-13,0,0,-3.30405,0.230124,0.514475,0,0,0,0,0,0.695953,0.230124,-1368112832,-767194348,-1368112832,-767194348,-123184137,-1368112832,-1367607632,-1367607632,-0.25285,-0.261799,-8.28809e-12,-1.5,-nan,0,0,3,0.689708,0.217494
2300,-3.21065e-12,0,-1.53083e-06,-3.27738e-12,0,0,-1.06651e-13,0,0,-3.30405,0.230124,0.514475,0,0,0,0,0,0.695953,0.230124,-1368112832,-767194348,-1368112832,-767194348,-123184137,-1368112832,-1367607632,-1367607632,-0.252835,-0.261799,-7.94454e-12,-1.5,-nan,0,0,3,0.689512,0.217482
2310,-3.21065e-12,0,-1.53083e-06,-3.27738e-12,0,-3.40903e-12,-1.06651e-13,0,0,-3.30405,0.230124,0.514475,0,0,0,0,0,0.695953,0.230124,-1368112832,-767194348,-1368112832,-767194348,-123184137,-1368112832,-1367607632,-1367607632,-0.25282,-0.261799,-7.58402e-12,-1.5,-nan,0,0,3,0.689299,0.217468
2320,-3.21065e-12,0,-1.53083e-06,-3.27738e-12,0,0,-1.06652e-13,0,0,-3.30405,0.230124,0.514475,0.689159,0.217459,-0.00929638,-0.000590813,0,0.695953,0.230124,-1368112832,-767194348,-1368112832,-767194348,-123184137,-1368112832,-1367607632,-1367607632,-0.252218,-0.261799,-7.35891e-12,-1.5,-nan,0,0,3,0.689159,0.217459
2330,-3.21065e-12,0,-1.53083e-06,-3.27738e-12,0,-3.40903e-12,-1.06652e-13,0,0,-3.30405,0.230124,0.514475,0.689002,0.217449,-0.00921758,-0.000585805,0,0.695953,0.230124,-1368112832,-767194348,-1368112832,-767194348,-123184137,-1368112832,-1367607632,-1367607632,-0.252214,-0.261799,-7.11152e-12,-1.5,-nan,0,0,3,0.689002,0.217449
2340,-3.21065e-12,0,-1.53083e-06,-3.27738e-12,0,0,-1.06652e-13,0,0,-3.30405,0.230124,0.514475,0.688819,0.217438,-0.00912568,-0.000579964,0,0.695953,0.230124,-1368112832,-767194348,-1368112832,-767194348,-123184137,-1368112832,-1367607632,-1367607632,-0.25221,-0.261799,-6.83045e-12,-1.5,-nan,0,0,3,0.688819,0.217438
2350,-3.21065e-12,0,-1.53083e-06,-3.27738e-12,0,-3.40903e-12,-1.06652e-13,0,0,-3.30405,0.230124,0.514475,0.688611,0.217425,-0.00902109,-0.000573317,0,0.695953,0.230124,-1368112832,-767194348,-1368112832,-767194348,-123184137,-1368112832,-1367607632,-1367607632,-0.252205,-0.261799,-6.52049e-12,-1.5,-nan,0,0,3,0.688611,0.217425
2360,-3.21065e-12,0,-1.53083e-06,-3.27738e-12,0,0,-1.06653e-13,0,0,-3.30405,0.230124,0.514475,0.688431,0.217413,-0.00893115,-0.000567601,0,0.695953,0.230124,-1368112832,-767194348,-1368112832,-767194348,-123184137,-1368112832,-1367607632,-1367607632,-0.2522,-0.261799,-6.26278e-12,-1.5,-nan,0,0,3,0.688431,0.217413
2370,-3.21065e-12,0,-1.53083e-06,-3.27738e-12,0,-3.40903e-12,-1.06653e-13,0,0,-3.30405,0.230124,0.514475,0.688237,0.217401,-0.00883321,-0.000561377,0,0.695953,0.230124,-1368112832,-767194348,-1368112832,-767194348,-123184137,-1368112832,-1367607632,-1367607632,-0.252195,-0.261799,-5.99061e-12,-1.5,-nan,0,0,3,0.688237,0.217401
2380,-3.21065e-12,0,-1.53083e-06,-3.27738e-12,0,0,-1.06653e-13,0,0,-3.30405,0.230124,0.514475,0.688052,0.217389,-0.00874077,-0.000555502,0,0.695953,0.230124,-1368112832,-767194348,-1368112832,-767194348,-123184137,-1368112832,-1367607632,-1367607632,-0.252191,-0.261799,-5.74229e-12,-1.5,-nan,0,0,3,0.688052,0.217389
2390,-3.21065e-12,0,-1.53083e-06,-3.27738e-12,0,-3.40903e-12,-1.06653e-13,0,0,-3.30405,0.230124,0.514475,0.687862,0.217377,-0.00864492,-0.00054941,0,0.695953,0.230124,-1368112832,-767194348,-1368112832,-767194348,-123184137,-1368112832,-1367607632,-1367607632,-0.252186,-0.261799,-5.49274e-12,-1.5,-nan,0,0,3,0.687862,0.217377
2400,-3.21065e-12,0,-1.53083e-06,-3.27738e-12,0,0,-1.06654e-13,0,0,-3.30405,0.230124,0.514475,0.68769,0.217366,-0.00855873,-0.000543933,0,0.695953,0.230124,-1368112832,-767194348,-1368112832,-767194348,-123184137,-1368112832,-1367607632,-1367607632,-0.252181,-0.261799,-5.27565e-12,-1.5,-nan,0,0,3,0.68769,0.217366
2410,-3.21065e-12,0,-1.53083e-06,-3.27738e-12,0,-3.40903e-12,-1.06654e-13,0,0,-3.30405,0.230124,0.514475,0.687495,0.217354,-0.00846063,-0.000537699,0,0.695953,0.230124,-1368112832,-767194348,-1368112832,-767194348,-123184137,-1368112832,-1367607632,-1367607632,-0.252176,-0.261799,-5.03624e-12,-1.5,-nan,0,0,3,0.687495,0.217354
2420,-3.21065e-12,0,-1.53083e-06,-3.27738e-12,0,0,-1.06654e-13,0,0,-3.30405,0.230124,0.514475,0.687327,0.217343,-0.00837628,-0.000532338,0,0.695953,0.230124,-1368112832,-767194348,-1368112832,-767194348,-123184137,-1368112832,-1367607632,-1367607632,-0.252172,-0.261799,-4.8372e-12,-1.5,-nan,0,0,3,0.687327,0.217343
2430,-3.21065e-12,0,-1.53083e-06,-3.27738e-12,0,-3.40903e-12,-1.06655e-13,0,0,-3.30405,0.230124,0.514475,0.687144,0.217331,-0.00828443,-0.0005265,0,0.695953,0.230124,-1368112832,-767194348,-1368112832,-767194348,-123184137,-1368112832,-1367607632,-1367607632,-0.252168,-0.261799,-4.62698e-12,-1.5,-nan,0,0,3,0.687144,0.217331
2440,-3.21065e-12,0,-1.53083e-06,-3.27738e-12,0,0,-1.06655e-13,0,0,-3.30405,0.230124,0.514475,0.686979,0.217321,-0.00820183,-0.000521251,0,0.695953,0.230124,-1368112832,-767194348,-1368112832,-767194348,-123184137,-1368112832,-1367607632,-1367607632,-0.252163,-0.261799,-4.44411e-12,-1.5,-nan,0,0,3,0.686979,0.217321
2450,-3.21065e-12,0,-1.53083e-06,-3.27738e-12,0,-3.40903e-12,-1.06655e-13,0,0,-3.30405,0.230124,0.514475,0.686849,0.217313,-0.0081364,-0.000517092,0,0.695953,0.230124,-1368112832,-767194348,-1368112832,-767194348,-123184137,-1368112832,-1367607632,-1367607632,-0.25216,-0.261799,-4.30345e-12,-1.5,-nan,0,0,3,0.686849,0.217313
2460,-3.21065e-12,0,-1.53083e-06,-3.27738e-12,0,0,-1.06655e-13,0,0,-3.30405,0.230124,0.514475,0.686711,0.217304,-0.00806744,-0.00051271,0,0.695953,0.230124,-1368112832,-767194348,-1368112832,-767194348,-123184137,-1368112832,-1367607632,-1367607632,-0.252157,-0.261799,-4.15888e-12,-1.5,-nan,0,0,3,0.686711,0.217304
2470,-3.21065e-12,0,-1.53083e-06,-3.27738e-12,0,-3.40903e-12,-1.06656e-13,0,0,-3.30405,0.230124,0.514475,0.686551,0.217294,-0.00798701,-0.000507599,0,0.695953,0.230124,-1368112832,-767194348,-1368112832,-767194348,-123184137,-1368112832,-1367607632,-1367607632,-0.252153,-0.261799,-3.99451e-12,-1.5,-nan,0,0,3,0.686551,0.217294
2480,-3.21065e-12,0,-1.53083e-06,-3.27738e-12,0,0,-1.06656e-13,0,0,-3.30405,0.230124,0.514475,0.686377,0.217283,-0.00789943,-0.000502032,0,0.695953,0.230124,-1368112832,-767194348,-1368112832,-767194348,-123184137,-1368112832,-1367607632,-1367607632,-0.252148,-0.261799,-3.82091e-12,-1.5,-nan,0,0,3,0.686377,0.217283
2490,-3.21065e-12,0,-1.53083e-06,-3.27738e-12,0,-3.40903e-12,-1.06656e-13,0,0,-3.30405,0.230124,0.514475,0.68622,0.217273,-0.00782067,-0.000497027,0,0.695953,0.230124,-1368112832,-767194348,-1368112832,-767194348,-123184137,-1368112832,-1367607632,-1367607632,-0.252144,-0.261799,-3.6699e-12,-1.5,-nan,0,0,3,0.68622,0.217273
2500,-3.21065e-12,0,-1.53083e-06,-3.27738e-12,0,0,-1.06656e-13,0,0,-3.30405,0.230124,0.514475,0.686041,0.217261,-0.00773103,-0.000491331,0,0.695953,0.230124,-1368112832,-767194348,-1368112832,-767194348,-123184137,-1368112832,-1367607632,-1367607632,-0.25214,-0.261799,-3.50336e-12,-1.5,-nan,0,0,3,0.686041,0.217261
2510,-3.21065e-12,0,-1.53083e-06,-3.27738e-12,0,-3.40903e-12,-1.06657e-13,0,0,-3.30405,0.230124,0.514475,0.685888,0.217252,-0.00765396,-0.000486432,0,0.695953,0.230124,-1368112832,-767194348,-1368112832,-767194348,-123184137,-1368112832,-1367607632,-1367607632,-0.252136,-0.261799,-3.3649e-12,-1.5,-nan,0,0,3,0.685888,0.217252
2520,-3.21065e-12,0,-1.53083e-06,-3.27738e-12,0,0,-1.06657e-13,0,0,-3.30405,0.230124,0.514475,0.685721,0.217241,-0.00757002,-0.000481098,0,0.695953,0.230124,-1368112832,-767194348,-1368112832,-767194348,-123184137,-1368112832,-1367607632,-1367607632,-0.252132,-0.261799,-3.21867e-12,-1.5,-nan,0,0,3,0.685721,0.217241
2530,-3.21065e-12,0,-1.53083e-06,-3.27738e-12,0,-3.40903e-12,-1.06657e-13,0,0,-3.30405,0.230124,0.514475,0.685563,0.217231,-0.0074908,-0.000476063,0,0.695953,0.230124,-1368112832,-767194348,-1368112832,-767194348,-123184137,-1368112832,-1367607632,-1367607632,-0.252128,-0.261799,-3.08525e-12,-1.5,-nan,0,0,3,0.685563,0.217231
2540,-3.21065e-12,0,-1.53083e-06,-3.27738e-12,0,0,-1.06658e-13,0,0,-3.30405,0.230124,0.514475,0.685399,0.217221,-0.00740867,-0.000470844,0,0.695953,0.230124,-1368112832,-767194348,-1368112832,-767194348,-123184137,-1368112832,-1367607632,-1367607632,-0.252124,-0.261799,-2.9513e-12,-1.5,-nan,0,0,3,0.685399,0.217221
2550,-3.21065e-12,0,-1.53083e-06,-3.27738e-12,0,-3.40903e-12,-1.06658e-13,0,0,-3.30405,0.230124,0.514475,0.685252,0.217211,-0.00733481,-0.000466149,0,0.695953,0.230124,-1368112832,-767194348,-1368112832,-767194348,-123184137,-1368112832,-1367607632,-1367607632,-0.25212,-0.261799,-2.83466e-12,-1.5,-nan,0,0,3,0.685252,0.217211
2560,-3.21065e-12,0,-1.53083e-06,-3.27738e-12,0,0,-1.06658e-13,0,0,-3.30405,0.230124,0.514475,0.685092,0.217201,-0.00725437,-0.000461037,0,0.695953,0.230124,-1368112832,-767194348,-1368112832,-767194348,-123184137,-1368112832,-1367607632,-1367607632,-0.252116,-0.261799,-2.71147e-12,-1.5,-nan,0,0,3,0.685092,0.217201
2570,-3.21065e-12,0,-1.53083e-06,-3.27738e-12,0,-3.40903e-12,-1.06658e-13,0,0,-3.30405,0.230124,0.514475,0.684941,0.217191,-0.00717845,-0.000456212,0,0.695953,0.230124,-1368112832,-767194348,-1368112832,-767194348,-123184137,-1368112832,-1367607632,-1367607632,-0.252112,-0.261799,-2.59907e-12,-1.5,-nan,0,0,3,0.684941,0.217191
2580,-3.21065e-12,0,-1.53083e-06,-3.27738e-12,0,0,-1.06659e-13,0,0,-3.30405,0.230124,0.514475,0.684834,0.217185,-0.00712476,-0.0004528,0,0.695953,0.230124,-1368112832,-767194348,-1368112832,-767194348,-123184137,-1368112832,-1367607632,-1367607632,-0.252109,-0.261799,-2.52193e-12,-1.5,-nan,0,0,3,0.684834,0.217185
2590,-3.21065e-12,0,-1.53083e-06,-3.27738e-12,0,-3.40903e-12,-1.06659e-13,0,0,-3.30405,0.230124,0.514475,0.684678,0.217175,-0.00704663,-0.000447835,0,0.695953,0.230124,-1368112832,-767194348,-1368112832,-767194348,-123184137,-1368112832,-1367607632,-1367607632,-0.252106,-0.261799,-2.41233e-12,-1.5,-nan,0,0,3,0.684678,0.217175
2600,-3.21065e-12,0,-1.53083e-06,-3.27738e-12,0,0,-1.06659e-13,0,0,-3.30405,0.230124,0.514475,0.684531,0.217165,-0.00697286,-0.000443147,0,0.695953,0.230124,-1368112832,-767194348,-1368112832,-767194348,-123184137,-1368112832,-1367607632,-1367607632,-0.252102,-0.261799,-2.31699e-12,-1.5,-nan,0,0,3,0.684531,0.217165
2610,-3.21065e-12,0,-1.53083e-06,-3.27738e-12,0,-3.40903e-12,-1.06659e-13,0,0,-3.30405,0.230124,0.514475,0.684379,0.217156,-0.0068964,-0.000438287,0,0.695953,0.230124,-1368112832,-767194348,-1368112832,-767194348,-123184137,-1368112832,-1367607632,-1367607632,-0.252098,-0.261799,-2.21629e-12,-1.5,-nan,0,0,3,0.684379,0.217156
2620,-3.21065e-12,0,-1.53083e-06,-3.27738e-12,0,0,-1.0666e-13,0,0,-3.30405,0.230124,0.514475,0.684235,0.217147,-0.00682421,-0.000433699,0,0.695953,0.230124,-1368112832,-767194348,-1368112832,-767194348,-123184137,-1368112832,-1367607632,-1367607632,-0.252094,-0.261799,-2.12434e-12,-1.5,-nan,0,0,3,0.684235,0.217147
2630,-3.21065e-12,0,-1.53083e-06,-3.27738e-12,0,-3.40903e-12,-1.0666e-13,0,0,-3.30405,0.230124,0.514475,0.684086,0.217137,-0.00674937,-0.000428943,0,0.695953,0.230124,-1368112832,-767194348,-1368112832,-767194348,-123184137,-1368112832,-1367607632,-1367607632,-0.252091,-0.261799,-2.03202e-12,-1.5,-nan,0,0,3,0.684086,0.217137
2640,-3.21065e-12,0,-1.53083e-06,-3.27738e-12,0,0,-1.0666e-13,0,0,-3.30405,0.230124,0.514475,0.683946,0.217128,-0.00667874,-0.000424454,0,0.695953,0.230124,-1368112832,-767194348,-1368112832,-767194348,-123184137,-1368112832,-1367607632,-1367607632,-0.252087,-0.261799,-1.94779e-12,-1.5,-nan,0,0,3,0.683946,0.217128
2650,-3.21065e-12,0,-1.53083e-06,-3.27738e-12,0,-3.40903e-12,-1.06661e-13,0,0,-3.30405,0.230124,0.514475,0.6838,0.217119,-0.0066055,-0.000419799,0,0.695953,0.230124,-1368112832,-767194348,-1368112832,-767194348,-123184137,-1368112832,-1367607632,-1367607632,-0.252083,-0.261799,-1.86314e-12,-1.5,-nan,0,0,3,0.6838,0.217119
2660,-3.21065e-12,0,-1.53083e-06,-3.27738e-12,0,0,-1.06661e-13,0,0,-3.30405,0.230124,0.514475,0.683662,0.21711,-0.00653637,-0.000415406,0,0.695953,0.230124,-1368112832,-767194348,-1368112832,-767194348,-123184137,-1368112832,-1367607632,-1367607632,-0.25208,-0.261799,-1.78591e-12,-1.5,-nan,0,0,3,0.683662,0.21711
2670,-3.21065e-12,0,-1.53083e-06,-3.27738e-12,0,-3.40903e-12,-1.06661e-13,0,0,-3.30405,0.230124,0.514475,0.683519,0.217101,-0.00646471,-0.000410852,0,0.695953,0.230124,-1368112832,-767194348,-1368112832,-767194348,-123184137,-1368112832,-1367607632,-1367607632,-0.252076,-0.261799,-1.70837e-12,-1.5,-nan,0,0,3,0.683519,0.217101
2680,-3.21065e-12,0,-1.53083e-06,-3.27738e-12,0,0,-1.06661e-13,0,0,-3.30405,0.230124,0.514475,0.683391,0.217093,-0.00640025,-0.000406755,0,0.695953,0.230124,-1368112832,-767194348,-1368112832,-767194348,-123184137,-1368112832,-1367607632,-1367607632,-0.252073,-0.261799,-1.64085e-12,-1.5,-nan,0,0,3,0.683391,0.217093
2690,-3.21065e-12,0,-1.53083e-06,-3.27738e-12,0,-3.40903e-12,-1.06662e-13,0,0,-3.30405,0.230124,0.514475,0.683245,0.217084,-0.0063269,-0.000402094,0,0.695953,0.230124,-1368112832,-767194348,-1368112832,-767194348,-123184137,-1368112832,-1367607632,-1367607632,-0.252069,-0.261799,-1.56639e-12,-1.5,-nan,0,0,3,0.683245,0.217084
2700,-3.21065e-12,0,-1.53083e-06,-3.27738e-12,0,0,-1.06662e-13,0,0,-3.30405,0.230124,0.514475,0.683119,0.217076,-0.00626382,-0.000398085,0,0.695953,0.230124,-1368112832,-767194348,-1368112832,-767194348,-123184137,-1368112832,-1367607632,-1367607632,-0.252066,-0.261799,-1.50448e-12,-1.5,-nan,0,0,3,0.683119,0.217076
2710,-3.21065e-12,0,-1.53083e-06,-3.27738e-12,0,-3.40903e-12,-1.06662e-13,0,0,-3.30405,0.230124,0.514475,0.68302,0.217069,-0.00621385,-0.000394909,0,0.695953,0.230124,-1368112832,-767194348,-1368112832,-767194348,-123184137,-1368112832,-1367607632,-1367607632,-0.252064,-0.261799,-1.45687e-12,-1.5,-nan,0,0,3,0.68302,0.217069
2720,-3.21065e-12,0,-1.53083e-06,-3.27738e-12,0,0,-1.06662e-13,0,0,-3.30405,0.230124,0.514475,0.682878,0.21706,-0.00614263,-0.000390383,0,0.695953,0.230124,-1368112832,-767194348,-1368112832,-767194348,-123184137,-1368112832,-1367607632,-1367607632,-0.25206,-0.261799,-1.39075e-12,-1.5,-nan,0,0,3,0.682878,0.21706
2730,-3.21065e-12,0,-1.53083e-06,-3.27738e-12,0,-3.40903e-12,-1.06663e-13,0,0,-3.30405,0.230124,0.514475,0.682756,0.217053,-0.00608139,-0.00038649,0,0.695953,0.230124,-1368112832,-767194348,-1368112832,-767194348,-123184137,-1368112832,-1367607632,-1367607632,-0.252057,-0.261799,-1.33579e-12,-1.5,-nan,0,0,3,0.682756,0.217053
2740,-3.21065e-12,0,-1.53083e-06,-3.27738e-12,0,0,-1.06663e-13,0,0,-3.30405,0.230124,0.514475,0.682617,0.217044,-0.00601169,-0.000382061,0,0.695953,0.230124,-1368112832,-767194348,-1368112832,-767194348,-123184137,-1368112832,-1367607632,-1367607632,-0.252054,-0.261799,-1.27517e-12,-1.5,-nan,0,0,3,0.682617,0.217044
2750,-3.21065e-12,0,-1.53083e-06,-3.27738e-12,0,-3.40903e-12,-1.06663e-13,0,0,-3.30405,0.230124,0.514475,0.682498,0.217036,-0.00595177,-0.000378253,0,0.695953,0.230124,-1368112832,-767194348,-1368112832,-767194348,-123184137,-1368112832,-1367607632,-1367607632,-0.252051,-0.261799,-1.22482e-12,-1.5,-nan,0,0,3,0.682498,0.217036
2760,-3.21067e-12,0,0,-3.27738e-12,0,0,-1.06663e-13,0,0,-3.30405,0.230124,0.514475,0.682368,0.217028,-0.0058865,-0.000374105,0,0.695953,0.230124,-1368112832,-767194348,-1368112832,-767194348,-123184137,-1368112832,-1367607632,-1367607632,-0.252047,-0.261799,-1.17159e-12,-1.5,-nan,0,0,3,0.682368,0.217028
