timestamp,A_x,A_y,A_z,P,Q,R,Phi,Theta,Psi,poseX,poseY,poseZ,state_X,state_Y,state_Z,state_VzB,state_Bx,state_By,state_Bz,p1_x,p1_y,p2_x,p2_y,p3_x,p3_y,p4_x,p4_y,roll,pitch,yaw,alt,targetHeading,highLevelState,lowLevelState,gateNumber,filtered_x,filtered_y,x_OT,y_OT,vx_OT,vy_OT,filtered_vx,filtered_vygateArearansac_corr_x,ransac_corr_y,ransac_corr_vx,ransac_corr_vy,detectionTimeStamppTermX,dTermX,pTermY,dTermY,vxcmd,vycmd
9776,0,0,0,0,0,0,0,0,0,0,0,0,0,0,0,0,0,0,0,0,0,0,0,0,0,0,0,0,-0.15,0.0141372,-1.5,3.94113e+12,0,0,2,0,0,0,0,0,0,0,0,1.9603e-19,0,0,0,0,0,0,0,0,0,1,0
10313,-3.21174e-12,0,-1.57461e-06,-3.27738e-12,0,0,-1.13703e-13,0,0,0,0,0,0,0,0,0,0,0,0,0,0,0,0,0,0,0,0,0,-0.15,0.859225,-1.5,3.94113e+12,0,0,2,0,0,0,0,0,0,0,0,1.9603e-19,0,0,0,0,0,0,0,0,0,1,0
10329,-3.21174e-12,0,-1.57461e-06,-3.27738e-12,0,0,-1.13703e-13,0,0,0,0,0,0,0,0,0,0,0,0,0,0,0,0,0,0,0,0,0,-0.15,0.882787,-1.5,3.94113e+12,0,0,2,0,0,0,0,0,0,0,0,1.9603e-19,0,0,0,0,0,0,0,0,0,1,0
10344,-3.21174e-12,0,-1.57461e-06,-3.27738e-12,0,0,-1.13704e-13,0,0,0,0,0,0,0,0,0,0,0,0,0,0,0,0,0,0,0,0,0,-0.15,0.90792,-1.5,3.94113e+12,0,0,2,0,0,0,0,0,0,0,0,1.9603e-19,0,0,0,0,0,0,0,0,0,1,0
10360,-3.21174e-12,0,-1.57461e-06,-3.27738e-12,0,0,-1.13704e-13,0,0,0,0,0,0,0,0,0,0,0,0,0,0,0,0,0,0,0,0,0,-0.15,0.931481,-1.5,3.94113e+12,0,0,2,0,0,0,0,0,0,0,0,1.9603e-19,0,0,0,0,0,0,0,0,0,1,0
10375,-3.21174e-12,0,-1.57461e-06,-3.27738e-12,0,0,-1.13705e-13,0,0,0,0,0,0,0,0,0,0,0,0,0,0,0,0,0,0,0,0,0,-0.15,0.956614,-1.5,3.94113e+12,0,0,2,0,0,0,0,0,0,0,0,1.9603e-19,0,0,0,0,0,0,0,0,0,1,0
10391,-3.21174e-12,0,-1.57461e-06,-3.27738e-12,0,0,-1.13705e-13,0,0,0,0,0,0,0,0,0,0,0,0,0,0,0,0,0,0,0,0,0,-0.15,0.981747,-1.5,3.94113e+12,0,0,2,0,0,0,0,0,0,0,0,1.9603e-19,0,0,0,0,0,0,0,0,0,1,0
10406,-3.21174e-12,0,-1.57461e-06,-3.27738e-12,0,0,-1.13706e-13,0,0,0,0,0,0,0,0,0,0,0,0,0,0,0,0,0,0,0,0,0,-0.15,1.00531,-1.5,3.94113e+12,0,0,2,0,0,0,0,0,0,0,0,1.9603e-19,0,0,0,0,0,0,0,0,0,1,0
10422,-3.21174e-12,0,-1.57461e-06,-3.27738e-12,0,0,-1.13706e-13,0,0,0,0,0,0,0,0,0,0,0,0,0,0,0,0,0,0,0,0,0,-0.15,1.03044,-1.5,3.94113e+12,0,0,2,0,0,0,0,0,0,0,0,1.9603e-19,0,0,0,0,0,0,0,0,0,1,0
10439,-3.21174e-12,0,-1.57461e-06,-3.27738e-12,0,0,-1.13707e-13,0,0,0,0,0,0,0,0,0,0,0,0,0,0,0,0,0,0,0,0,0,-0.15,1.05557,-1.5,3.94113e+12,0,0,2,0,0,0,0,0,0,0,0,1.9603e-19,0,0,0,0,0,0,0,0,0,1,0
10462,-3.21174e-12,0,-1.57461e-06,-3.27738e-12,0,0,-1.13708e-13,0,0,0,0,0,0,0,0,0,0,0,0,0,0,0,0,0,0,0,0,0,-0.15,1.0917,-1.5,3.94113e+12,0,0,2,0,0,0,0,0,0,0,0,1.9603e-19,0,0,0,0,0,0,0,0,0,1,0
10478,-3.21174e-12,0,-1.57461e-06,-3.27738e-12,0,0,-1.13708e-13,0,0,0,0,0,0,0,0,0,0,0,0,0,0,0,0,0,0,0,0,0,-0.15,1.11684,-1.5,3.94113e+12,0,0,2,0,0,0,0,0,0,0,0,1.9603e-19,0,0,0,0,0,0,0,0,0,1,0
10493,-3.21174e-12,0,-1.57461e-06,-3.27738e-12,0,0,-1.13709e-13,0,0,0,0,0,0,0,0,0,0,0,0,0,0,0,0,0,0,0,0,0,-0.15,1.1404,-1.5,3.94113e+12,0,0,2,0,0,0,0,0,0,0,0,1.9603e-19,0,0,0,0,0,0,0,0,0,1,0
10509,-3.21174e-12,0,-1.57461e-06,-3.27738e-12,0,0,-1.13709e-13,0,0,0,0,0,0,0,0,0,0,0,0,0,0,0,0,0,0,0,0,0,-0.15,1.16553,-1.5,3.94113e+12,0,0,2,0,0,0,0,0,0,0,0,1.9603e-19,0,0,0,0,0,0,0,0,0,1,0
10526,-3.21174e-12,0,-1.57461e-06,-3.27738e-12,0,0,-1.1371e-13,0,0,0,0,0,0,0,0,0,0,0,0,0,0,0,0,0,0,0,0,0,-0.15,1.19223,-1.5,3.94113e+12,0,0,2,0,0,0,0,0,0,0,0,1.9603e-19,0,0,0,0,0,0,0,0,0,1,0
10593,-3.21174e-12,0,-1.57461e-06,-3.27738e-12,0,0,-1.1371e-13,0,0,0,0,0,0,0,0,0,0,0,0,0,0,0,0,0,0,0,0,0,-0.15,1.29748,-1.5,3.94113e+12,0,0,2,0,0,0,0,0,0,0,0,1.9603e-19,0,0,0,0,0,0,0,0,0,1,0
10609,-3.21174e-12,0,-1.57461e-06,-3.27738e-12,0,0,-1.13711e-13,0,0,0,0,0,0,0,0,0,0,0,0,0,0,0,0,0,0,0,0,0,-0.15,1.32261,-1.5,3.94113e+12,0,0,2,0,0,0,0,0,0,0,0,1.9603e-19,0,0,0,0,0,0,0,0,0,1,0
10625,-3.21174e-12,0,-1.57461e-06,-3.27738e-12,0,0,-1.13711e-13,0,0,0,0,0,0,0,0,0,0,0,0,0,0,0,0,0,0,0,0,0,-0.15,1.34774,-1.5,3.94113e+12,0,0,2,0,0,0,0,0,0,0,0,1.9603e-19,0,0,0,0,0,0,0,0,0,1,0
10641,-3.21174e-12,0,-1.57461e-06,-3.27738e-12,0,0,-1.13712e-13,0,0,0,0,0,0,0,0,0,0,0,0,0,0,0,0,0,0,0,0,0,-0.15,1.37288,-1.5,3.94113e+12,0,0,2,0,0,0,0,0,0,0,0,1.9603e-19,0,0,0,0,0,0,0,0,0,1,0
10657,-3.21174e-12,0,-1.57461e-06,-3.27738e-12,0,0,-1.13712e-13,0,0,0,0,0,0,0,0,0,0,0,0,0,0,0,0,0,0,0,0,0,-0.15,1.39801,-1.5,3.94113e+12,0,0,2,0,0,0,0,0,0,0,0,1.9603e-19,0,0,0,0,0,0,0,0,0,1,0
10673,-3.21174e-12,0,-1.57461e-06,-3.27738e-12,0,0,-1.13713e-13,0,0,0,0,0,0,0,0,0,0,0,0,0,0,0,0,0,0,0,0,0,-0.15,1.42314,-1.5,3.94113e+12,0,0,2,0,0,0,0,0,0,0,0,1.9603e-19,0,0,0,0,0,0,0,0,0,1,0
10687,-3.21174e-12,0,-1.57461e-06,-3.27738e-12,0,0,-1.13714e-13,0,0,0,0,0,0,0,0,0,0,0,0,0,0,0,0,0,0,0,0,0,-0.15,1.44513,-1.5,3.94113e+12,0,0,2,0,0,0,0,0,0,0,0,1.9603e-19,0,0,0,0,0,0,0,0,0,1,0
10700,-3.21174e-12,0,-1.57461e-06,-3.27738e-12,0,0,-1.13714e-13,0,0,0,0,0,0,0,0,0,0,0,0,0,0,0,0,0,0,0,0,0,-0.15,1.46555,-1.5,3.94113e+12,0,0,2,0,0,0,0,0,0,0,0,1.9603e-19,0,0,0,0,0,0,0,0,0,1,0
10714,-3.21174e-12,0,-1.57461e-06,-3.27738e-12,0,0,-1.13715e-13,0,0,0,0,0,0,0,0,0,0,0,0,0,0,0,0,0,0,0,0,0,-0.15,1.48755,-1.5,3.94113e+12,0,0,2,0,0,0,0,0,0,0,0,1.9603e-19,0,0,0,0,0,0,0,0,0,1,0
10730,-3.21174e-12,0,-1.57461e-06,-3.27738e-12,0,0,-1.13715e-13,0,0,0,0,0,0,0,0,0,0,0,0,0,0,0,0,0,0,0,0,0,-0.15,1.51268,-1.5,3.94113e+12,0,0,2,0,0,0,0,0,0,0,0,1.9603e-19,0,0,0,0,0,0,0,0,0,1,0
10746,-3.21174e-12,0,-1.57461e-06,-3.27738e-12,0,0,-1.13716e-13,0,0,0,0,0,0,0,0,0,0,0,0,0,0,0,0,0,0,0,0,0,-0.15,1.53781,-1.5,3.94113e+12,0,0,2,0,0,0,0,0,0,0,0,1.9603e-19,0,0,0,0,0,0,0,0,0,1,0
10762,-3.21174e-12,0,-1.57461e-06,-3.27738e-12,0,0,-1.13716e-13,0,0,0,0,0,0,0,0,0,0,0,0,0,0,0,0,0,0,0,0,0,-0.15,1.56137,-1.5,3.94113e+12,0,0,2,0,0,0,0,0,0,0,0,1.9603e-19,0,0,0,0,0,0,0,0,0,1,0
10778,-3.21174e-12,0,-1.57461e-06,-3.27738e-12,0,0,-1.13717e-13,0,0,0,0,0,0,0,0,0,0,0,0,0,0,0,0,0,0,0,0,0,-0.15,1.58651,-1.5,3.94113e+12,0,0,2,0,0,0,0,0,0,0,0,1.9603e-19,0,0,0,0,0,0,0,0,0,1,0
10794,-3.21174e-12,0,-1.57461e-06,-3.27738e-12,0,0,-1.13717e-13,0,0,0,0,0,0,0,0,0,0,0,0,0,0,0,0,0,0,0,0,0,-0.15,1.61007,-1.5,3.94113e+12,0,0,2,0,0,0,0,0,0,0,0,1.9603e-19,0,0,0,0,0,0,0,0,0,1,0
10810,-3.21174e-12,0,-1.57461e-06,-3.27738e-12,0,0,-1.13718e-13,0,0,0,0,0,0,0,0,0,0,0,0,0,0,0,0,0,0,0,0,0,-0.15,1.6352,-1.5,3.94113e+12,0,0,2,0,0,0,0,0,0,0,0,1.9603e-19,0,0,0,0,0,0,0,0,0,1,0
10826,-3.21174e-12,0,-1.57461e-06,-3.27738e-12,0,0,-1.13718e-13,0,0,0,0,0,0,0,0,0,0,0,0,0,0,0,0,0,0,0,0,0,-0.15,1.65876,-1.5,3.94113e+12,0,0,2,0,0,0,0,0,0,0,0,1.9603e-19,0,0,0,0,0,0,0,0,0,1,0
10842,-3.21174e-12,0,-1.57461e-06,-3.27738e-12,0,0,-1.13719e-13,0,0,0,0,0,0,0,0,0,0,0,0,0,0,0,0,0,0,0,0,0,-0.15,1.68547,-1.5,3.94113e+12,0,0,2,0,0,0,0,0,0,0,0,1.9603e-19,0,0,0,0,0,0,0,0,0,1,0
10858,-3.21174e-12,0,-1.57461e-06,-3.27738e-12,0,0,-1.13719e-13,0,0,0,0,0,0,0,0,0,0,0,0,0,0,0,0,0,0,0,0,0,-0.15,1.70903,-1.5,3.94113e+12,0,0,2,0,0,0,0,0,0,0,0,1.9603e-19,0,0,0,0,0,0,0,0,0,1,0
10874,-3.21174e-12,0,-1.57461e-06,-3.27738e-12,0,0,-1.1372e-13,0,0,0,0,0,0,0,0,0,0,0,0,0,0,0,0,0,0,0,0,0,-0.15,1.73573,-1.5,3.94113e+12,0,0,2,0,0,0,0,0,0,0,0,1.9603e-19,0,0,0,0,0,0,0,0,0,1,0
10889,-3.21174e-12,0,-1.57461e-06,-3.27738e-12,0,0,-1.13721e-13,0,0,0,0,0,0,0,0,0,0,0,0,0,0,0,0,0,0,0,0,0,-0.15,1.75929,-1.5,3.94113e+12,0,0,2,0,0,0,0,0,0,0,0,1.9603e-19,0,0,0,0,0,0,0,0,0,1,0
10906,-3.21174e-12,0,-1.57461e-06,-3.27738e-12,0,0,-1.13721e-13,0,0,0,0,0,0,0,0,0,0,0,0,0,0,0,0,0,0,0,0,0,-0.15,1.786,-1.5,3.94113e+12,0,0,2,0,0,0,0,0,0,0,0,1.9603e-19,0,0,0,0,0,0,0,0,0,1,0
10921,-3.21174e-12,0,-1.57461e-06,-3.27738e-12,0,0,-1.13722e-13,0,0,0,0,0,0,0,0,0,0,0,0,0,0,0,0,0,0,0,0,0,-0.15,1.80956,-1.5,3.94113e+12,0,0,2,0,0,0,0,0,0,0,0,1.9603e-19,0,0,0,0,0,0,0,0,0,1,0
10938,-3.21174e-12,0,-1.57461e-06,-3.27738e-12,0,0,-1.13722e-13,0,0,0,0,0,0,0,0,0,0,0,0,0,0,0,0,0,0,0,0,0,-0.15,1.83626,-1.5,3.94113e+12,0,0,2,0,0,0,0,0,0,0,0,1.9603e-19,0,0,0,0,0,0,0,0,0,1,0
10953,-3.21174e-12,0,-1.57461e-06,-3.27738e-12,0,0,-1.13723e-13,0,0,0,0,0,0,0,0,0,0,0,0,0,0,0,0,0,0,0,0,0,-0.15,1.85983,-1.5,3.94113e+12,0,0,2,0,0,0,0,0,0,0,0,1.9603e-19,0,0,0,0,0,0,0,0,0,1,0
10969,-3.21174e-12,0,-1.57461e-06,-3.27738e-12,0,0,-1.13723e-13,0,0,0,0,0,0,0,0,0,0,0,0,0,0,0,0,0,0,0,0,0,-0.15,1.88496,-1.5,3.94113e+12,0,0,2,0,0,0,0,0,0,0,0,1.9603e-19,0,0,0,0,0,0,0,0,0,1,0
10985,-3.21174e-12,0,-1.57461e-06,-3.27738e-12,0,0,-1.13724e-13,0,0,0,0,0,0,0,0,0,0,0,0,0,0,0,0,0,0,0,0,0,-0.15,1.91009,-1.5,3.94113e+12,0,0,2,0,0,0,0,0,0,0,0,1.9603e-19,0,0,0,0,0,0,0,0,0,1,0
11001,-3.21174e-12,0,-1.57461e-06,-3.27738e-12,0,0,-1.13724e-13,0,0,0,0,0,0,0,0,0,0,0,0,0,0,0,0,0,0,0,0,0,-0.15,1.93522,-1.5,3.94113e+12,0,0,2,0,0,0,0,0,0,0,0,1.9603e-19,0,0,0,0,0,0,0,0,0,1,0
11026,-3.21174e-12,0,-1.57461e-06,-3.27738e-12,0,0,-1.13725e-13,0,0,0,0,0,0,0,0,0,0,0,0,0,0,0,0,0,0,0,0,0,-0.15,1.97449,-1.5,3.94113e+12,0,0,2,0,0,0,0,0,0,0,0,1.9603e-19,0,0,0,0,0,0,0,0,0,1,0
11040,-3.21174e-12,0,-1.57461e-06,-3.27738e-12,0,0,-1.13725e-13,0,0,0,0,0,0,0,0,0,0,0,0,0,0,0,0,0,0,0,0,0,-0.15,1.99649,-1.5,3.94113e+12,0,0,2,0,0,0,0,0,0,0,0,1.9603e-19,0,0,0,0,0,0,0,0,0,1,0
11055,-3.21174e-12,0,-1.57461e-06,-3.27738e-12,0,0,-1.13726e-13,0,0,0,0,0,0,0,0,0,0,0,0,0,0,0,0,0,0,0,0,0,-0.15,2.02005,-1.5,3.94113e+12,0,0,2,0,0,0,0,0,0,0,0,1.9603e-19,0,0,0,0,0,0,0,0,0,1,0
11071,-3.21174e-12,0,-1.57461e-06,-3.27738e-12,0,0,-1.13727e-13,0,0,0,0,0,0,0,0,0,0,0,0,0,0,0,0,0,0,0,0,0,-0.15,2.04518,-1.5,3.94113e+12,0,0,2,0,0,0,0,0,0,0,0,1.9603e-19,0,0,0,0,0,0,0,0,0,1,0
11087,-3.21174e-12,0,-1.57461e-06,-3.27738e-12,0,0,-1.13727e-13,0,0,0,0,0,0,0,0,0,0,0,0,0,0,0,0,0,0,0,0,0,-0.15,2.07031,-1.5,3.94113e+12,0,0,2,0,0,0,0,0,0,0,0,1.9603e-19,0,0,0,0,0,0,0,0,0,1,0
11104,-3.21174e-12,0,-1.57461e-06,-3.27738e-12,0,0,-1.13728e-13,0,0,0,0,0,0,0,0,0,0,0,0,0,0,0,0,0,0,0,0,0,-0.15,2.09702,-1.5,3.94113e+12,0,0,2,0,0,0,0,0,0,0,0,1.9603e-19,0,0,0,0,0,0,0,0,0,1,0
11120,-3.21174e-12,0,-1.57461e-06,-3.27738e-12,0,0,-1.13728e-13,0,0,0,0,0,0,0,0,0,0,0,0,0,0,0,0,0,0,0,0,0,-0.15,2.12215,-1.5,3.94113e+12,0,0,2,0,0,0,0,0,0,0,0,1.9603e-19,0,0,0,0,0,0,0,0,0,1,0
11136,-3.21174e-12,0,-1.57461e-06,-3.27738e-12,0,0,-1.13729e-13,0,0,0,0,0,0,0,0,0,0,0,0,0,0,0,0,0,0,0,0,0,-0.15,2.14571,-1.5,3.94113e+12,0,0,2,0,0,0,0,0,0,0,0,1.9603e-19,0,0,0,0,0,0,0,0,0,1,0
11151,-3.21174e-12,0,-1.57461e-06,-3.27738e-12,0,0,-1.13729e-13,0,0,0,0,0,0,0,0,0,0,0,0,0,0,0,0,0,0,0,0,0,-0.15,2.17084,-1.5,3.94113e+12,0,0,2,0,0,0,0,0,0,0,0,1.9603e-19,0,0,0,0,0,0,0,0,0,1,0
11167,-3.21174e-12,0,-1.57461e-06,-3.27738e-12,0,0,-1.1373e-13,0,0,0,0,0,0,0,0,0,0,0,0,0,0,0,0,0,0,0,0,0,-0.15,2.19598,-1.5,3.94113e+12,0,0,2,0,0,0,0,0,0,0,0,1.9603e-19,0,0,0,0,0,0,0,0,0,1,0
11184,-3.21174e-12,0,-1.57461e-06,-3.27738e-12,0,0,-1.1373e-13,0,0,0,0,0,0,0,0,0,0,0,0,0,0,0,0,0,0,0,0,0,-0.15,2.22268,-1.5,3.94113e+12,0,0,2,0,0,0,0,0,0,0,0,1.9603e-19,0,0,0,0,0,0,0,0,0,1,0
11200,-3.21174e-12,0,-1.57461e-06,-3.27738e-12,0,0,-1.13731e-13,0,0,0,0,0,0,0,0,0,0,0,0,0,0,0,0,0,0,0,0,0,-0.15,2.24781,-1.5,3.94113e+12,0,0,2,0,0,0,0,0,0,0,0,1.9603e-19,0,0,0,0,0,0,0,0,0,1,0
11216,-3.21174e-12,0,-1.57461e-06,-3.27738e-12,0,0,-1.13731e-13,0,0,0,0,0,0,0,0,0,0,0,0,0,0,0,0,0,0,0,0,0,-0.15,2.27295,-1.5,3.94113e+12,0,0,2,0,0,0,0,0,0,0,0,1.9603e-19,0,0,0,0,0,0,0,0,0,1,0
11233,-3.21174e-12,0,-1.57461e-06,-3.27738e-12,0,0,-1.13732e-13,0,0,0,0,0,0,0,0,0,0,0,0,0,0,0,0,0,0,0,0,0,-0.15,2.29965,-1.5,3.94113e+12,0,0,2,0,0,0,0,0,0,0,0,1.9603e-19,0,0,0,0,0,0,0,0,0,1,0
11249,-3.21174e-12,0,-1.57461e-06,-3.27738e-12,0,0,-1.13732e-13,0,0,0,0,0,0,0,0,0,0,0,0,0,0,0,0,0,0,0,0,0,-0.15,2.32478,-1.5,3.94113e+12,0,0,2,0,0,0,0,0,0,0,0,1.9603e-19,0,0,0,0,0,0,0,0,0,1,0
11265,-3.21174e-12,0,-1.57461e-06,-3.27738e-12,0,0,-1.13733e-13,0,0,0,0,0,0,0,0,0,0,0,0,0,0,0,0,0,0,0,0,0,-0.15,2.34992,-1.5,3.94113e+12,0,0,2,0,0,0,0,0,0,0,0,1.9603e-19,0,0,0,0,0,0,0,0,0,1,0
11281,-3.21174e-12,0,-1.57461e-06,-3.27738e-12,0,0,-1.13734e-13,0,0,0,0,0,0,0,0,0,0,0,0,0,0,0,0,0,0,0,0,0,-0.15,2.37487,-1.5,3.94113e+12,0,0,2,0,0,0,0,0,0,0,0,1.9603e-19,0,0,0,0,0,0,0,0,0,1,0
11297,-3.21174e-12,0,-1.57461e-06,-3.27738e-12,0,0,-1.13734e-13,0,0,0,0,0,0,0,0,0,0,0,0,0,0,0,0,0,0,0,0,0,-0.15,2.39913,-1.5,3.94113e+12,0,0,2,0,0,0,0,0,0,0,0,1.9603e-19,0,0,0,0,0,0,0,0,0,1,0
11314,-3.21174e-12,0,-1.57461e-06,-3.27738e-12,0,0,-1.13735e-13,0,0,0,0,0,0,0,0,0,0,0,0,0,0,0,0,0,0,0,0,0,-0.15,2.42409,-1.5,3.94113e+12,0,0,2,0,0,0,0,0,0,0,0,1.9603e-19,0,0,0,0,0,0,0,0,0,1,0
11330,-3.21174e-12,0,-1.57461e-06,-3.27738e-12,0,0,-1.13735e-13,0,0,0,0,0,0,0,0,0,0,0,0,0,0,0,0,0,0,0,0,0,-0.15,2.44678,-1.5,3.94113e+12,0,0,2,0,0,0,0,0,0,0,0,1.9603e-19,0,0,0,0,0,0,0,0,0,1,0
11346,-3.21174e-12,0,-1.57461e-06,-3.27738e-12,0,0,-1.13736e-13,0,0,0,0,0,0,0,0,0,0,0,0,0,0,0,0,0,0,0,0,0,-0.15,2.46877,-1.5,3.94113e+12,0,0,2,0,0,0,0,0,0,0,0,1.9603e-19,0,0,0,0,0,0,0,0,0,1,0
11363,-3.21174e-12,0,-1.57461e-06,-3.27738e-12,0,0,-1.13736e-13,0,0,0,0,0,0,0,0,0,0,0,0,0,0,0,0,0,0,0,0,0,-0.15,2.49139,-1.5,3.94113e+12,0,0,2,0,0,0,0,0,0,0,0,1.9603e-19,0,0,0,0,0,0,0,0,0,1,0
11377,-3.21174e-12,0,-1.57461e-06,-3.27738e-12,0,0,-1.13737e-13,0,0,0,0,0,0,0,0,0,0,0,0,0,0,0,0,0,0,0,0,0,-0.15,2.50941,-1.5,3.94113e+12,0,0,2,0,0,0,0,0,0,0,0,1.9603e-19,0,0,0,0,0,0,0,0,0,1,0
11391,-3.21174e-12,0,-1.57461e-06,-3.27738e-12,0,0,-1.13737e-13,0,0,0,0,0,0,0,0,0,0,0,0,0,0,0,0,0,0,0,0,0,-0.15,2.52692,-1.5,3.94113e+12,0,0,2,0,0,0,0,0,0,0,0,1.9603e-19,0,0,0,0,0,0,0,0,0,1,0
11408,-3.21174e-12,0,-1.57461e-06,-3.27738e-12,0,0,-1.13738e-13,0,0,0,0,0,0,0,0,0,0,0,0,0,0,0,0,0,0,0,0,0,-0.15,2.54638,-1.5,3.94113e+12,0,0,2,0,0,0,0,0,0,0,0,1.9603e-19,0,0,0,0,0,0,0,0,0,1,0
11423,-3.21174e-12,0,-1.57461e-06,-3.27738e-12,0,0,-1.13738e-13,0,0,0,0,0,0,0,0,0,0,0,0,0,0,0,0,0,0,0,0,0,-0.15,2.56521,-1.5,3.94113e+12,0,0,2,0,0,0,0,0,0,0,0,1.9603e-19,0,0,0,0,0,0,0,0,0,1,0
11441,-3.21174e-12,0,-1.57461e-06,-3.27738e-12,0,0,-1.13739e-13,0,0,0,0,0,0,0,0,0,0,0,0,0,0,0,0,0,0,0,0,0,-0.15,2.58571,-1.5,3.94113e+12,0,0,2,0,0,0,0,0,0,0,0,1.9603e-19,0,0,0,0,0,0,0,0,0,1,0
11466,-3.21174e-12,0,-1.57461e-06,-3.27738e-12,0,0,-1.1374e-13,0,0,-3.84075,-0.0204383,0.794113,0,0,0,0,0,0,0,265,-79,265,-79,381,-83,264,39,0,-0.15,2.61315,-1.5,3.94113e+12,0,0,2,0,0,0,0,0,0,0,0,14274,0,0,0,0,0,0,0,0,0,1,0
11483,-3.21174e-12,0,-1.57461e-06,-3.27738e-12,0,0,-1.1374e-13,0,0,-3.95633,-0.0374628,0.788438,0,0,0,0,0,0,0,270,-72,270,-72,382,-69,265,42,0,-0.15,2.6309,-1.5,3.94113e+12,0,0,2,0,0,0,0,0,0,0,0,14040,0,0,0,0,0,0,0,0,0,1,0
11499,-3.21174e-12,0,-1.57461e-06,-3.27738e-12,0,0,-1.13741e-13,0,0,-3.95633,-0.0374628,0.788438,0,0,0,0,0,0,0,270,-72,270,-72,382,-69,265,42,0,-0.15,2.64606,-1.5,3.94113e+12,0,0,2,0,0,0,0,0,0,0,0,14040,0,0,0,0,0,0,0,0,0,1,0
11515,-3.21174e-12,0,-1.57461e-06,-3.27738e-12,0,0,-1.13741e-13,0,0,-3.95633,-0.0374628,0.788438,0,0,0,0,0,0,0,270,-72,270,-72,382,-69,265,42,0,-0.15,2.66174,-1.5,3.94113e+12,0,0,2,0,0,0,0,0,0,0,0,14040,0,0,0,0,0,0,0,0,0,1,0
11535,-3.21174e-12,0,-1.57461e-06,-3.27738e-12,0,0,-1.13742e-13,0,0,-3.89788,-0.0343212,0.667768,0,0,0,0,0,0,0,267,-62,267,-62,386,-59,263,51,0,-0.15,2.68163,-1.5,3.94113e+12,0,0,2,0,0,0,0,0,0,0,0,14391,0,0,0,0,0,0,0,0,0,1,0
11551,-3.21174e-12,0,-1.57461e-06,-3.27738e-12,0,0,-1.13742e-13,0,0,-3.89845,-0.0427684,0.617989,0,0,0,0,0,0,0,269,-55,269,-55,384,-57,264,58,0,-0.15,2.69618,-1.5,3.94113e+12,0,0,2,0,0,0,0,0,0,0,0,14040,0,0,0,0,0,0,0,0,0,1,0
11567,-3.21174e-12,0,-1.57461e-06,-3.27738e-12,0,0,-1.13743e-13,0,0,-3.89845,-0.0427684,0.617989,0,0,0,0,0,0,0,269,-55,269,-55,384,-57,264,58,0,-0.15,2.71027,-1.5,3.94113e+12,0,0,2,0,0,0,0,0,0,0,0,14040,0,0,0,0,0,0,0,0,0,1,0
11583,-3.21174e-12,0,-1.57461e-06,-3.27738e-12,0,0,-1.13743e-13,0,0,-3.80933,-0.0646873,0.571171,0,0,0,0,0,0,0,269,-55,269,-55,389,-59,265,58,0,-0.15,2.72391,-1.5,3.94113e+12,0,0,2,0,0,0,0,0,0,0,0,14756,0,0,0,0,0,0,0,0,0,1,0
11599,-3.21174e-12,0,-1.57461e-06,-3.27738e-12,0,0,-1.13744e-13,0,0,-3.80933,-0.0646873,0.571171,0,0,0,0,0,0,0,269,-55,269,-55,389,-59,265,58,0,-0.15,2.73712,-1.5,3.94113e+12,0,0,2,0,0,0,0,0,0,0,0,14756,0,0,0,0,0,0,0,0,0,1,0
11615,-3.21174e-12,0,-1.57461e-06,-3.27738e-12,0,0,-1.13744e-13,0,0,-3.92213,-0.0563922,0.624782,0,0,0,0,0,0,0,272,-57,272,-57,386,-52,264,57,0,-0.15,2.74993,-1.5,3.94113e+12,0,0,2,0,0,0,0,0,0,0,0,14396,0,0,0,0,0,0,0,0,0,1,0
11631,-3.21174e-12,0,-1.57461e-06,-3.27738e-12,0,0,-1.13745e-13,0,0,-3.92213,-0.0563922,0.624782,0,0,0,0,0,0,0,272,-57,272,-57,386,-52,264,57,0,-0.15,2.76231,-1.5,3.94113e+12,0,0,2,0,0,0,0,0,0,0,0,14396,0,0,0,0,0,0,0,0,0,1,0
11685,-3.21174e-12,0,-1.57461e-06,-3.27738e-12,0,0,-1.13745e-13,0,0,-3.96386,-0.0517738,0.644067,0,0,0,0,0,0,0,270,-55,270,-55,384,-52,266,57,0,-0.15,2.80262,-1.5,3.94113e+12,0,0,2,0,0,0,0,0,0,0,0,13688,0,0,0,0,0,0,0,0,0,1,0
11701,-3.21174e-12,0,-1.57461e-06,-3.27738e-12,0,0,-1.13746e-13,0,0,-3.96386,-0.0517738,0.644067,0,0,0,0,0,0,0,270,-55,270,-55,384,-52,266,57,0,-0.15,2.81334,-1.5,3.94113e+12,0,0,2,0,0,0,0,0,0,0,0,13688,0,0,0,0,0,0,0,0,0,1,0
11719,-3.21174e-12,0,-1.57461e-06,-3.27738e-12,0,0,-1.13747e-13,0,0,-3.96272,-0.0492144,0.645947,0,0,0,0,0,0,0,269,-55,269,-55,384,-52,266,57,0,-0.15,2.82438,-1.5,3.94113e+12,0,0,2,0,0,0,0,0,0,0,0,13570,0,0,0,0,0,0,0,0,0,1,0
11733,-3.21174e-12,0,-1.57461e-06,-3.27738e-12,0,0,-1.13747e-13,0,0,-3.96272,-0.0492144,0.645947,0,0,0,0,0,0,0,269,-55,269,-55,384,-52,266,57,0,-0.15,2.83316,-1.5,3.94113e+12,0,0,2,0,0,0,0,0,0,0,0,13570,0,0,0,0,0,0,0,0,0,1,0
11746,-3.21174e-12,0,-1.57461e-06,-3.27738e-12,0,0,-1.13748e-13,0,0,-3.94017,-0.0519378,0.637296,0,0,0,0,0,0,0,270,-58,270,-58,384,-52,266,57,0,-0.15,2.8411,-1.5,3.94113e+12,0,0,2,0,0,0,0,0,0,0,0,14042,0,0,0,0,0,0,0,0,0,1,0
11761,-3.21174e-12,0,-1.57461e-06,-3.27738e-12,0,0,-1.13748e-13,0,0,-3.94017,-0.0519378,0.637296,0,0,0,0,0,0,0,270,-58,270,-58,384,-52,266,57,0,-0.15,2.85002,-1.5,3.94113e+12,0,0,2,0,0,0,0,0,0,0,0,14042,0,0,0,0,0,0,0,0,0,1,0
11777,-3.21174e-12,0,-1.57461e-06,-3.27738e-12,0,0,-1.13749e-13,0,0,-3.95491,-0.0492411,0.638928,0,0,0,0,0,0,0,269,-55,269,-55,384,-52,266,57,0,-0.15,2.85925,-1.5,3.94113e+12,0,0,2,0,0,0,0,0,0,0,0,13688,0,0,0,0,0,0,0,0,0,1,0
11792,-3.21174e-12,0,-1.57461e-06,-3.27738e-12,0,0,-1.13749e-13,0,0,-3.95491,-0.0492411,0.638928,0,0,0,0,0,0,0,269,-55,269,-55,384,-52,266,57,0,-0.15,2.86763,-1.5,3.94113e+12,0,0,2,0,0,0,0,0,0,0,0,13688,0,0,0,0,0,0,0,0,0,1,0
11808,-3.21174e-12,0,-1.57461e-06,-3.27738e-12,0,0,-1.1375e-13,0,0,-3.96534,-0.0496532,0.650034,0,0,0,0,0,0,0,270,-55,270,-55,384,-52,265,55,0,-0.15,2.8763,-1.5,3.94113e+12,0,0,2,0,0,0,0,0,0,0,0,13804,0,0,0,0,0,0,0,0,0,1,0
11825,-3.21174e-12,0,-1.57461e-06,-3.27738e-12,0,0,-1.1375e-13,0,0,-3.96534,-0.0496532,0.650034,0,0,0,0,0,0,0,270,-55,270,-55,384,-52,265,55,0,-0.15,2.88521,-1.5,3.94113e+12,0,0,2,0,0,0,0,0,0,0,0,13804,0,0,0,0,0,0,0,0,0,1,0
11841,-3.21174e-12,0,-1.57461e-06,-3.27738e-12,0,0,-1.13751e-13,0,0,-3.94239,-0.0513668,0.643422,0,0,0,0,0,0,0,270,-57,270,-57,384,-54,266,57,0,-0.15,2.89332,-1.5,3.94113e+12,0,0,2,0,0,0,0,0,0,0,0,13806,0,0,0,0,0,0,0,0,0,1,0
11856,-3.21174e-12,0,-1.57461e-06,-3.27738e-12,0,0,-1.13751e-13,0,0,-3.94239,-0.0513668,0.643422,0,0,0,0,0,0,0,270,-57,270,-57,384,-54,266,57,0,-0.15,2.90069,-1.5,3.94113e+12,0,0,2,0,0,0,0,0,0,0,0,13806,0,0,0,0,0,0,0,0,0,1,0
11872,-3.21174e-12,0,-1.57461e-06,-3.27738e-12,0,0,-1.13752e-13,0,0,-3.96234,-0.0537016,0.66006,0,0,0,0,0,0,0,272,-55,272,-55,384,-56,265,55,0,-0.15,2.90831,-1.5,3.94113e+12,0,0,2,0,0,0,0,0,0,0,0,13804,0,0,0,0,0,0,0,0,0,1,0
11887,-3.21174e-12,0,-1.57461e-06,-3.27738e-12,0,0,-1.13753e-13,0,0,-3.96234,-0.0537016,0.66006,0,0,0,0,0,0,0,272,-55,272,-55,384,-56,265,55,0,-0.15,2.91523,-1.5,3.94113e+12,0,0,2,0,0,0,0,0,0,0,0,13804,0,0,0,0,0,0,0,0,0,1,0
11903,-3.21174e-12,0,-1.57461e-06,-3.27738e-12,0,0,-1.13753e-13,0,0,-3.96234,-0.0537016,0.66006,0,0,0,0,0,0,0,272,-55,272,-55,384,-56,265,55,0,-0.15,2.92239,-1.5,3.94113e+12,0,0,2,0,0,0,0,0,0,0,0,13804,0,0,0,0,0,0,0,0,0,1,0
11918,-3.21174e-12,0,-1.57461e-06,-3.27738e-12,0,0,-1.13754e-13,0,0,-3.91186,-0.0468758,0.647192,0,0,0,0,0,0,0,269,-60,269,-60,384,-56,265,53,0,-0.15,2.92889,-1.5,3.94113e+12,0,0,2,0,0,0,0,0,0,0,0,14280,0,0,0,0,0,0,0,0,0,1,0
11934,-3.21174e-12,0,-1.57461e-06,-3.27738e-12,0,0,-1.13754e-13,0,0,-3.91186,-0.0468758,0.647192,0,0,0,0,0,0,0,269,-60,269,-60,384,-56,265,53,0,-0.15,2.93521,-1.5,3.94113e+12,0,0,2,0,0,0,0,0,0,0,0,14280,0,0,0,0,0,0,0,0,0,1,0
11950,-3.21174e-12,0,-1.57461e-06,-3.27738e-12,0,0,-1.13755e-13,0,0,-3.93564,-0.0460761,0.649415,0,0,0,0,0,0,0,269,-55,269,-55,384,-57,265,54,0,-0.15,2.94174,-1.5,3.94113e+12,0,0,2,0,0,0,0,0,0,0,0,13923,0,0,0,0,0,0,0,0,0,1,0
11966,-3.21174e-12,0,-1.57461e-06,-3.27738e-12,0,0,-1.13755e-13,0,0,-3.93564,-0.0460761,0.649415,0,0,0,0,0,0,0,269,-55,269,-55,384,-57,265,54,0,-0.15,2.94846,-1.5,3.94113e+12,0,0,2,0,0,0,0,0,0,0,0,13923,0,0,0,0,0,0,0,0,0,1,0
11982,-3.21174e-12,0,-1.57461e-06,-3.27738e-12,0,0,-1.13756e-13,0,0,-3.89463,-0.0563077,0.622493,0,0,0,0,0,0,0,269,-58,269,-58,386,-56,267,53,0,-0.15,2.95457,-1.5,3.94113e+12,0,0,2,0,0,0,0,0,0,0,0,14518,0,0,0,0,0,0,0,0,0,1,0
11997,-3.21174e-12,0,-1.57461e-06,-3.27738e-12,0,0,-1.13756e-13,0,0,-3.89463,-0.0563077,0.622493,0,0,0,0,0,0,0,269,-58,269,-58,386,-56,267,53,0,-0.15,2.96012,-1.5,3.94113e+12,0,0,2,0,0,0,0,0,0,0,0,14518,0,0,0,0,0,0,0,0,0,1,0
12011,-3.21174e-12,0,-1.57461e-06,-3.27738e-12,0,0,-1.13757e-13,0,0,-3.95436,-0.0666111,0.671586,0,0,0,0,0,0,0,270,-60,270,-60,386,-56,270,53,0,-0.15,2.96515,-1.5,3.94113e+12,0,0,2,0,0,0,0,0,0,0,0,13920,0,0,0,0,0,0,0,0,0,1,0
12071,-3.21174e-12,0,-1.57461e-06,-3.27738e-12,0,0,-1.13757e-13,0,0,-3.92051,-0.0659883,0.649641,0,0,0,0,0,0,0,273,-60,273,-60,387,-56,266,54,0,-0.15,2.98598,-1.5,3.94113e+12,0,0,2,0,0,0,0,0,0,0,0,14520,0,0,0,0,0,0,0,0,0,1,0
12086,-3.21174e-12,0,-1.57461e-06,-3.27738e-12,0,0,-1.13758e-13,0,0,-3.92051,-0.0659883,0.649641,0,0,0,0,0,0,0,273,-60,273,-60,387,-56,266,54,0,-0.15,2.99029,-1.5,3.94113e+12,0,0,2,0,0,0,0,0,0,0,0,14520,0,0,0,0,0,0,0,0,0,1,0
12102,-3.21174e-12,0,-1.57461e-06,-3.27738e-12,0,0,-1.13759e-13,0,0,-3.92051,-0.0659883,0.649641,0,0,0,0,0,0,0,273,-60,273,-60,387,-56,266,54,0,-0.15,2.99507,-1.5,3.94113e+12,0,0,2,0,0,0,0,0,0,0,0,14520,0,0,0,0,0,0,0,0,0,1,0
12118,-3.21174e-12,0,-1.57461e-06,-3.27738e-12,0,0,-1.13759e-13,0,0,-3.95436,-0.0666111,0.671586,0,0,0,0,0,0,0,270,-60,270,-60,386,-56,270,53,0,-0.15,2.99971,-1.5,3.94113e+12,0,0,2,0,0,0,0,0,0,0,0,13920,0,0,0,0,0,0,0,0,0,1,0
12134,-3.21174e-12,0,-1.57461e-06,-3.27738e-12,0,0,-1.1376e-13,0,0,-3.95436,-0.0666111,0.671586,0,0,0,0,0,0,0,270,-60,270,-60,386,-56,270,53,0,-0.15,3.0042,-1.5,3.94113e+12,0,0,2,0,0,0,0,0,0,0,0,13920,0,0,0,0,0,0,0,0,0,1,0
12149,-3.21174e-12,0,-1.57461e-06,-3.27738e-12,0,0,-1.1376e-13,0,0,-3.93986,-0.0640103,0.663341,0,0,0,0,0,0,0,272,-60,272,-60,386,-56,267,53,0,-0.15,3.00828,-1.5,3.94113e+12,0,0,2,0,0,0,0,0,0,0,0,14280,0,0,0,0,0,0,0,0,0,1,0
12164,-3.21174e-12,0,-1.57461e-06,-3.27738e-12,0,0,-1.13761e-13,0,0,-3.93986,-0.0640103,0.663341,0,0,0,0,0,0,0,272,-60,272,-60,386,-56,267,53,0,-0.15,3.01223,-1.5,3.94113e+12,0,0,2,0,0,0,0,0,0,0,0,14280,0,0,0,0,0,0,0,0,0,1,0
12180,-3.21174e-12,0,-1.57461e-06,-3.27738e-12,0,0,-1.13761e-13,0,0,-3.93986,-0.0640103,0.663341,0,0,0,0,0,0,0,272,-60,272,-60,386,-56,267,53,0,-0.15,3.01633,-1.5,3.94113e+12,0,0,2,0,0,0,0,0,0,0,0,14280,0,0,0,0,0,0,0,0,0,1,0
12196,-3.21174e-12,0,-1.57461e-06,-3.27738e-12,0,0,-1.13762e-13,0,0,-3.93986,-0.0640103,0.663341,0,0,0,0,0,0,0,272,-60,272,-60,386,-56,267,53,0,-0.15,3.02005,-1.5,3.94113e+12,0,0,2,0,0,0,0,0,0,0,0,14280,0,0,0,0,0,0,0,0,0,1,0
12211,-3.21174e-12,0,-1.57461e-06,-3.27738e-12,0,0,-1.13762e-13,0,0,-3.89723,-0.0657747,0.620974,0,0,0,0,0,0,0,272,-60,272,-60,386,-56,268,56,0,-0.15,3.02389,-1.5,3.94113e+12,0,0,2,0,0,0,0,0,0,0,0,14632,0,0,0,0,0,0,0,0,0,1,0
12226,-3.21174e-12,0,-1.57461e-06,-3.27738e-12,0,0,-1.13763e-13,0,0,-3.89723,-0.0657747,0.620974,0,0,0,0,0,0,0,272,-60,272,-60,386,-56,268,56,0,-0.15,3.02739,-1.5,3.94113e+12,0,0,2,0,0,0,0,0,0,0,0,14632,0,0,0,0,0,0,0,0,0,1,0
12242,-3.21174e-12,0,-1.57461e-06,-3.27738e-12,0,0,-1.13763e-13,0,0,-3.93986,-0.0640103,0.663341,0,0,0,0,0,0,0,272,-60,272,-60,386,-56,267,53,0,-0.15,3.031,-1.5,3.94113e+12,0,0,2,0,0,0,0,0,0,0,0,14280,0,0,0,0,0,0,0,0,0,1,0
12259,-3.21174e-12,0,-1.57461e-06,-3.27738e-12,0,0,-1.13764e-13,0,0,-3.93986,-0.0640103,0.663341,0,0,0,0,0,0,0,272,-60,272,-60,386,-56,267,53,0,-0.15,3.03472,-1.5,3.94113e+12,0,0,2,0,0,0,0,0,0,0,0,14280,0,0,0,0,0,0,0,0,0,1,0
12274,-3.21174e-12,0,-1.57461e-06,-3.27738e-12,0,0,-1.13764e-13,0,0,-3.93986,-0.0640103,0.663341,0,0,0,0,0,0,0,272,-60,272,-60,386,-56,267,53,0,-0.15,3.03789,-1.5,3.94113e+12,0,0,2,0,0,0,0,0,0,0,0,14280,0,0,0,0,0,0,0,0,0,1,0
12289,-3.21174e-12,0,-1.57461e-06,-3.27738e-12,0,0,-1.13765e-13,0,0,-3.93986,-0.0640103,0.663341,0,0,0,0,0,0,0,272,-60,272,-60,386,-56,267,53,0,-0.15,3.04097,-1.5,3.94113e+12,0,0,2,0,0,0,0,0,0,0,0,14280,0,0,0,0,0,0,0,0,0,1,0
12305,-3.21174e-12,0,-1.57461e-06,-3.27738e-12,0,0,-1.13766e-13,0,0,-3.89208,-0.0678917,0.633098,0,0,0,0,0,0,0,272,-60,272,-60,389,-56,266,54,0,-0.15,3.04415,-1.5,3.94113e+12,0,0,2,0,0,0,0,0,0,0,0,14760,0,0,0,0,0,0,0,0,0,1,0
12321,-3.21174e-12,0,-1.57461e-06,-3.27738e-12,0,0,-1.13766e-13,0,0,-3.89208,-0.0678917,0.633098,0,0,0,0,0,0,0,272,-60,272,-60,389,-56,266,54,0,-0.15,3.04723,-1.5,3.94113e+12,0,0,2,0,0,0,0,0,0,0,0,14760,0,0,0,0,0,0,0,0,0,1,0
12334,-3.21174e-12,0,-1.57461e-06,-3.27738e-12,0,0,-1.13767e-13,0,0,-3.89208,-0.0678917,0.633098,0,0,0,0,0,0,0,272,-60,272,-60,389,-56,266,54,0,-0.15,3.04966,-1.5,3.94113e+12,0,0,2,0,0,0,0,0,0,0,0,14760,0,0,0,0,0,0,0,0,0,1,0
12348,-3.21174e-12,0,-1.57461e-06,-3.27738e-12,0,0,-1.13767e-13,0,0,-3.9251,-0.0516762,0.652328,0,0,0,0,0,0,0,270,-60,270,-60,384,-56,266,54,0,-0.15,3.05221,-1.5,3.94113e+12,0,0,2,0,0,0,0,0,0,0,0,14160,0,0,0,0,0,0,0,0,0,1,0
12362,-3.21174e-12,0,-1.57461e-06,-3.27738e-12,0,0,-1.13768e-13,0,0,-3.9251,-0.0516762,0.652328,0,0,0,0,0,0,0,270,-60,270,-60,384,-56,266,54,0,-0.15,3.05469,-1.5,3.94113e+12,0,0,2,0,0,0,0,0,0,0,0,14160,0,0,0,0,0,0,0,0,0,1,0
12378,-3.21174e-12,0,-1.57461e-06,-3.27738e-12,0,0,-1.13768e-13,0,0,-3.93986,-0.0640103,0.663341,0,0,0,0,0,0,0,272,-60,272,-60,386,-56,267,53,0,-0.15,3.05743,-1.5,3.94113e+12,0,0,2,0,0,0,0,0,0,0,0,14280,0,0,0,0,0,0,0,0,0,1,0
12393,-3.21174e-12,0,-1.57461e-06,-3.27738e-12,0,0,-1.13769e-13,0,0,-3.93986,-0.0640103,0.663341,0,0,0,0,0,0,0,272,-60,272,-60,386,-56,267,53,0,-0.15,3.05993,-1.5,3.94113e+12,0,0,2,0,0,0,0,0,0,0,0,14280,0,0,0,0,0,0,0,0,0,1,0
12409,-3.21174e-12,0,-1.57461e-06,-3.27738e-12,0,0,-1.13769e-13,0,0,-3.97264,-0.0717595,0.682224,0,0,0,0,0,0,0,272,-60,272,-60,386,-56,270,53,0,-0.15,3.06251,-1.5,3.94113e+12,0,0,2,0,0,0,0,0,0,0,0,13920,0,0,0,0,0,0,0,0,0,1,0
12424,-3.21174e-12,0,-1.57461e-06,-3.27738e-12,0,0,-1.1377e-13,0,0,-3.97264,-0.0717595,0.682224,0,0,0,0,0,0,0,272,-60,272,-60,386,-56,270,53,0,-0.15,3.06486,-1.5,3.94113e+12,0,0,2,0,0,0,0,0,0,0,0,13920,0,0,0,0,0,0,0,0,0,1,0
12440,-3.21174e-12,0,-1.57461e-06,-3.27738e-12,0,0,-1.1377e-13,0,0,-3.92265,-0.0589444,0.653326,0,0,0,0,0,0,0,270,-60,270,-60,386,-56,267,53,0,-0.15,3.06729,-1.5,3.94113e+12,0,0,2,0,0,0,0,0,0,0,0,14280,0,0,0,0,0,0,0,0,0,1,0
12455,-3.21174e-12,0,-1.57461e-06,-3.27738e-12,0,0,-1.13771e-13,0,0,-3.92265,-0.0589444,0.653326,0,0,0,0,0,0,0,270,-60,270,-60,386,-56,267,53,0,-0.15,3.06949,-1.5,3.94113e+12,0,0,2,0,0,0,0,0,0,0,0,14280,0,0,0,0,0,0,0,0,0,1,0
12471,-3.21174e-12,0,-1.57461e-06,-3.27738e-12,0,0,-1.13772e-13,0,0,-3.9251,-0.0516762,0.652328,0,0,0,0,0,0,0,270,-60,270,-60,384,-56,266,54,0,-0.15,3.07178,-1.5,3.94113e+12,0,0,2,0,0,0,0,0,0,0,0,14160,0,0,0,0,0,0,0,0,0,1,0
12487,-3.21174e-12,0,-1.57461e-06,-3.27738e-12,0,0,-1.13772e-13,0,0,-3.9251,-0.0516762,0.652328,0,0,0,0,0,0,0,270,-60,270,-60,384,-56,266,54,0,-0.15,3.07398,-1.5,3.94113e+12,0,0,2,0,0,0,0,0,0,0,0,14160,0,0,0,0,0,0,0,0,0,1,0
12503,-3.21174e-12,0,-1.57461e-06,-3.27738e-12,0,0,-1.13773e-13,0,0,-3.9251,-0.0516762,0.652328,0,0,0,0,0,0,0,270,-60,270,-60,384,-56,266,54,0,-0.15,3.07612,-1.5,3.94113e+12,0,0,2,0,0,0,0,0,0,0,0,14160,0,0,0,0,0,0,0,0,0,1,0
12518,-3.21174e-12,0,-1.57461e-06,-3.27738e-12,0,0,-1.13773e-13,0,0,-3.91864,-0.0686196,0.636369,0,0,0,0,0,0,0,273,-58,273,-58,387,-56,267,53,0,-0.15,3.07807,-1.5,3.94113e+12,0,0,2,0,0,0,0,0,0,0,0,14640,0,0,0,0,0,0,0,0,0,1,0
12534,-3.21174e-12,0,-1.57461e-06,-3.27738e-12,0,0,-1.13774e-13,0,0,-3.91864,-0.0686196,0.636369,0,0,0,0,0,0,0,273,-58,273,-58,387,-56,267,53,0,-0.15,3.08008,-1.5,3.94113e+12,0,0,2,0,0,0,0,0,0,0,0,14640,0,0,0,0,0,0,0,0,0,1,0
12549,-3.21174e-12,0,-1.57461e-06,-3.27738e-12,0,0,-1.13774e-13,0,0,-3.90316,-0.0704428,0.639469,0,0,0,0,0,0,0,272,-60,272,-60,389,-56,267,54,0,-0.15,3.0819,-1.5,3.94113e+12,0,0,2,0,0,0,0,0,0,0,0,14640,0,0,0,0,0,0,0,0,0,1,0
12564,-3.21174e-12,0,-1.57461e-06,-3.27738e-12,0,0,-1.13775e-13,0,0,-3.90316,-0.0704428,0.639469,0,0,0,0,0,0,0,272,-60,272,-60,389,-56,267,54,0,-0.15,3.08367,-1.5,3.94113e+12,0,0,2,0,0,0,0,0,0,0,0,14640,0,0,0,0,0,0,0,0,0,1,0
12580,-3.21174e-12,0,-1.57461e-06,-3.27738e-12,0,0,-1.13775e-13,0,0,-3.8833,-0.0631047,0.630397,0,0,0,0,0,0,0,269,-60,269,-60,389,-56,267,53,0,-0.15,3.0855,-1.5,3.94113e+12,0,0,2,0,0,0,0,0,0,0,0,14640,0,0,0,0,0,0,0,0,0,1,0
12595,-3.21174e-12,0,-1.57461e-06,-3.27738e-12,0,0,-1.13776e-13,0,0,-3.8833,-0.0631047,0.630397,0,0,0,0,0,0,0,269,-60,269,-60,389,-56,267,53,0,-0.15,3.08717,-1.5,3.94113e+12,0,0,2,0,0,0,0,0,0,0,0,14640,0,0,0,0,0,0,0,0,0,1,0
12609,-3.21174e-12,0,-1.57461e-06,-3.27738e-12,0,0,-1.13776e-13,0,0,-3.8833,-0.0631047,0.630397,0,0,0,0,0,0,0,269,-60,269,-60,389,-56,267,53,0,-0.15,3.08868,-1.5,3.94113e+12,0,0,2,0,0,0,0,0,0,0,0,14640,0,0,0,0,0,0,0,0,0,1,0
12623,-3.21174e-12,0,-1.57461e-06,-3.27738e-12,0,0,-1.13777e-13,0,0,-3.8833,-0.0631047,0.630397,0,0,0,0,0,0,0,269,-60,269,-60,389,-56,267,53,0,-0.15,3.09004,-1.5,3.94113e+12,0,0,2,0,0,0,0,0,0,0,0,14640,0,0,0,0,0,0,0,0,0,1,0
12637,-3.21174e-12,0,-1.57461e-06,-3.27738e-12,0,0,-1.13777e-13,0,0,-3.8833,-0.0631047,0.630397,0,0,0,0,0,0,0,269,-60,269,-60,389,-56,267,53,0,-0.15,3.09157,-1.5,3.94113e+12,0,0,2,0,0,0,0,0,0,0,0,14640,0,0,0,0,0,0,0,0,0,1,0
12653,-3.21174e-12,0,-1.57461e-06,-3.27738e-12,0,0,-1.13778e-13,0,0,-3.92265,-0.0589444,0.653326,0,0,0,0,0,0,0,270,-60,270,-60,386,-56,267,53,0,-0.15,3.09315,-1.5,3.94113e+12,0,0,2,0,0,0,0,0,0,0,0,14280,0,0,0,0,0,0,0,0,0,1,0
12668,-3.21174e-12,0,-1.57461e-06,-3.27738e-12,0,0,-1.13779e-13,0,0,-3.92265,-0.0589444,0.653326,0,0,0,0,0,0,0,270,-60,270,-60,386,-56,267,53,0,-0.15,3.09459,-1.5,3.94113e+12,0,0,2,0,0,0,0,0,0,0,0,14280,0,0,0,0,0,0,0,0,0,1,0
12683,-3.21174e-12,0,-1.57461e-06,-3.27738e-12,0,0,-1.13779e-13,0,0,-3.91643,-0.0587238,0.647208,0,0,0,0,0,0,0,270,-60,270,-60,386,-56,267,54,0,-0.15,3.09598,-1.5,3.94113e+12,0,0,2,0,0,0,0,0,0,0,0,14280,0,0,0,0,0,0,0,0,0,1,0
12699,-3.21174e-12,0,-1.57461e-06,-3.27738e-12,0,0,-1.1378e-13,0,0,-3.91643,-0.0587238,0.647208,0,0,0,0,0,0,0,270,-60,270,-60,386,-56,267,54,0,-0.15,3.09743,-1.5,3.94113e+12,0,0,2,0,0,0,0,0,0,0,0,14280,0,0,0,0,0,0,0,0,0,1,0
12714,-3.21174e-12,0,-1.57461e-06,-3.27738e-12,0,0,-1.1378e-13,0,0,-3.89463,-0.0563077,0.622493,0,0,0,0,0,0,0,269,-58,269,-58,386,-56,267,53,0,-0.15,3.09874,-1.5,3.94113e+12,0,0,2,0,0,0,0,0,0,0,0,14518,0,0,0,0,0,0,0,0,0,1,0
12730,-3.21174e-12,0,-1.57461e-06,-3.27738e-12,0,0,-1.13781e-13,0,0,-3.89463,-0.0563077,0.622493,0,0,0,0,0,0,0,269,-58,269,-58,386,-56,267,53,0,-0.15,3.10009,-1.5,3.94113e+12,0,0,2,0,0,0,0,0,0,0,0,14518,0,0,0,0,0,0,0,0,0,1,0
12746,-3.21174e-12,0,-1.57461e-06,-3.27738e-12,0,0,-1.13781e-13,0,0,-3.92265,-0.0589444,0.653326,0,0,0,0,0,0,0,270,-60,270,-60,386,-56,267,53,0,-0.15,3.10141,-1.5,3.94113e+12,0,0,2,0,0,0,0,0,0,0,0,14280,0,0,0,0,0,0,0,0,0,1,0
12761,-3.21174e-12,0,-1.57461e-06,-3.27738e-12,0,0,-1.13782e-13,0,0,-3.92265,-0.0589444,0.653326,0,0,0,0,0,0,0,270,-60,270,-60,386,-56,267,53,0,-0.15,3.1026,-1.5,3.94113e+12,0,0,2,0,0,0,0,0,0,0,0,14280,0,0,0,0,0,0,0,0,0,1,0
12777,-3.21174e-12,0,-1.57461e-06,-3.27738e-12,0,0,-1.13782e-13,0,0,-3.91381,-0.0564245,0.648178,0,0,0,0,0,0,0,269,-60,269,-60,386,-56,267,53,0,-0.15,3.10376,-1.5,3.94113e+12,0,0,2,0,0,0,0,0,0,0,0,14280,0,0,0,0,0,0,0,0,0,1,0
12792,-3.21174e-12,0,-1.57461e-06,-3.27738e-12,0,0,-1.13783e-13,0,0,-3.91381,-0.0564245,0.648178,0,0,0,0,0,0,0,269,-60,269,-60,386,-56,267,53,0,-0.15,3.10488,-1.5,3.94113e+12,0,0,2,0,0,0,0,0,0,0,0,14280,0,0,0,0,0,0,0,0,0,1,0
12808,-3.21174e-12,0,-1.57461e-06,-3.27738e-12,0,0,-1.13783e-13,0,0,-3.94484,-0.0569069,0.666396,0,0,0,0,0,0,0,273,-60,273,-60,384,-56,265,53,0,-0.15,3.10597,-1.5,3.94113e+12,0,0,2,0,0,0,0,0,0,0,0,14280,0,0,0,0,0,0,0,0,0,1,0
12823,-3.21174e-12,0,-1.57461e-06,-3.27738e-12,0,0,-1.13784e-13,0,0,-3.94484,-0.0569069,0.666396,0,0,0,0,0,0,0,273,-60,273,-60,384,-56,265,53,0,-0.15,3.1071,-1.5,3.94113e+12,0,0,2,0,0,0,0,0,0,0,0,14280,0,0,0,0,0,0,0,0,0,1,0
12837,-3.21174e-12,0,-1.57461e-06,-3.27738e-12,0,0,-1.13785e-13,0,0,-3.94484,-0.0569069,0.666396,0,0,0,0,0,0,0,273,-60,273,-60,384,-56,265,53,0,-0.15,3.10805,-1.5,3.94113e+12,0,0,2,0,0,0,0,0,0,0,0,14280,0,0,0,0,0,0,0,0,0,1,0
12853,-3.21174e-12,0,-1.57461e-06,-3.27738e-12,0,0,-1.13785e-13,0,0,-3.8947,-0.0536848,0.634705,0,0,0,0,0,0,0,270,-60,270,-60,386,-56,265,54,0,-0.15,3.10911,-1.5,3.94113e+12,0,0,2,0,0,0,0,0,0,0,0,14520,0,0,0,0,0,0,0,0,0,1,0
12869,-3.21174e-12,0,-1.57461e-06,-3.27738e-12,0,0,-1.13786e-13,0,0,-3.8947,-0.0536848,0.634705,0,0,0,0,0,0,0,270,-60,270,-60,386,-56,265,54,0,-0.15,3.11014,-1.5,3.94113e+12,0,0,2,0,0,0,0,0,0,0,0,14520,0,0,0,0,0,0,0,0,0,1,0
12887,-3.21174e-12,0,-1.57461e-06,-3.27738e-12,0,0,-1.13786e-13,0,0,-3.89212,-0.0656221,0.635534,0,0,0,0,0,0,0,270,-60,270,-60,389,-56,267,53,0,-0.15,3.11126,-1.5,3.94113e+12,0,0,2,0,0,0,0,0,0,0,0,14640,0,0,0,0,0,0,0,0,0,1,0
12902,-3.21174e-12,0,-1.57461e-06,-3.27738e-12,0,0,-1.13787e-13,0,0,-3.94991,-0.0592356,0.666758,0,0,0,0,0,0,0,273,-60,273,-60,384,-56,266,54,0,-0.15,3.1121,-1.5,3.94113e+12,0,0,2,0,0,0,0,0,0,0,0,14160,0,0,0,0,0,0,0,0,0,1,0
12914,-3.21174e-12,0,-1.57461e-06,-3.27738e-12,0,0,-1.13787e-13,0,0,-3.94991,-0.0592356,0.666758,0,0,0,0,0,0,0,273,-60,273,-60,384,-56,266,54,0,-0.15,3.11286,-1.5,3.94113e+12,0,0,2,0,0,0,0,0,0,0,0,14160,0,0,0,0,0,0,0,0,0,1,0
12930,-3.21174e-12,0,-1.57461e-06,-3.27738e-12,0,0,-1.13788e-13,0,0,-3.94991,-0.0592356,0.666758,0,0,0,0,0,0,0,273,-60,273,-60,384,-56,266,54,0,-0.15,3.11377,-1.5,3.94113e+12,0,0,2,0,0,0,0,0,0,0,0,14160,0,0,0,0,0,0,0,0,0,1,0
12945,-3.21174e-12,0,-1.57461e-06,-3.27738e-12,0,0,-1.13788e-13,0,0,-3.93797,-0.0588536,0.657691,0,0,0,0,0,0,0,270,-58,270,-58,386,-56,267,53,0,-0.15,3.11459,-1.5,3.94113e+12,0,0,2,0,0,0,0,0,0,0,0,14042,0,0,0,0,0,0,0,0,0,1,0
12961,-3.21174e-12,0,-1.57461e-06,-3.27738e-12,0,0,-1.13789e-13,0,0,-3.93797,-0.0588536,0.657691,0,0,0,0,0,0,0,270,-58,270,-58,386,-56,267,53,0,-0.15,3.11545,-1.5,3.94113e+12,0,0,2,0,0,0,0,0,0,0,0,14042,0,0,0,0,0,0,0,0,0,1,0
12977,-3.21174e-12,0,-1.57461e-06,-3.27738e-12,0,0,-1.13789e-13,0,0,-3.92896,-0.0563196,0.652457,0,0,0,0,0,0,0,269,-58,269,-58,386,-56,267,53,0,-0.15,3.11627,-1.5,3.94113e+12,0,0,2,0,0,0,0,0,0,0,0,14042,0,0,0,0,0,0,0,0,0,1,0
12993,-3.21174e-12,0,-1.57461e-06,-3.27738e-12,0,0,-1.1379e-13,0,0,-3.92896,-0.0563196,0.652457,0,0,0,0,0,0,0,269,-58,269,-58,386,-56,267,53,0,-0.15,3.11708,-1.5,3.94113e+12,0,0,2,0,0,0,0,0,0,0,0,14042,0,0,0,0,0,0,0,0,0,1,0
13009,-3.21174e-12,0,-1.57461e-06,-3.27738e-12,0,0,-1.1379e-13,0,0,-3.91381,-0.0564245,0.648178,0,0,0,0,0,0,0,269,-60,269,-60,386,-56,267,53,0,-0.15,3.11785,-1.5,3.94113e+12,0,0,2,0,0,0,0,0,0,0,0,14280,0,0,0,0,0,0,0,0,0,1,0
13024,-3.21174e-12,0,-1.57461e-06,-3.27738e-12,0,0,-1.13791e-13,0,0,-3.91381,-0.0564245,0.648178,0,0,0,0,0,0,0,269,-60,269,-60,386,-56,267,53,0,-0.15,3.11856,-1.5,3.94113e+12,0,0,2,0,0,0,0,0,0,0,0,14280,0,0,0,0,0,0,0,0,0,1,0
13040,-3.21174e-12,0,-1.57461e-06,-3.27738e-12,0,0,-1.13792e-13,0,0,-3.96401,-0.0665086,0.672819,0,0,0,0,0,0,0,273,-58,273,-58,386,-56,267,53,0,-0.15,3.11928,-1.5,3.94113e+12,0,0,2,0,0,0,0,0,0,0,0,14042,0,0,0,0,0,0,0,0,0,1,0
13055,-3.21174e-12,0,-1.57461e-06,-3.27738e-12,0,0,-1.13792e-13,0,0,-3.96401,-0.0665086,0.672819,0,0,0,0,0,0,0,273,-58,273,-58,386,-56,267,53,0,-0.15,3.11995,-1.5,3.94113e+12,0,0,2,0,0,0,0,0,0,0,0,14042,0,0,0,0,0,0,0,0,0,1,0
13071,-3.21174e-12,0,-1.57461e-06,-3.27738e-12,0,0,-1.13793e-13,0,0,-3.9251,-0.0516762,0.652328,0,0,0,0,0,0,0,270,-60,270,-60,384,-56,266,54,0,-0.15,3.12063,-1.5,3.94113e+12,0,0,2,0,0,0,0,0,0,0,0,14160,0,0,0,0,0,0,0,0,0,1,0
13086,-3.21174e-12,0,-1.57461e-06,-3.27738e-12,0,0,-1.13793e-13,0,0,-3.9251,-0.0516762,0.652328,0,0,0,0,0,0,0,270,-60,270,-60,384,-56,266,54,0,-0.15,3.12125,-1.5,3.94113e+12,0,0,2,0,0,0,0,0,0,0,0,14160,0,0,0,0,0,0,0,0,0,1,0
13102,-3.21174e-12,0,-1.57461e-06,-3.27738e-12,0,0,-1.13794e-13,0,0,-3.9251,-0.0516762,0.652328,0,0,0,0,0,0,0,270,-60,270,-60,384,-56,266,54,0,-0.15,3.1219,-1.5,3.94113e+12,0,0,2,0,0,0,0,0,0,0,0,14160,0,0,0,0,0,0,0,0,0,1,0
13117,-3.21174e-12,0,-1.57461e-06,-3.27738e-12,0,0,-1.13794e-13,0,0,-3.89463,-0.0563077,0.622493,0,0,0,0,0,0,0,269,-58,269,-58,386,-56,267,53,0,-0.15,3.12248,-1.5,3.94113e+12,0,0,2,0,0,0,0,0,0,0,0,14518,0,0,0,0,0,0,0,0,0,1,0
13134,-3.21174e-12,0,-1.57461e-06,-3.27738e-12,0,0,-1.13795e-13,0,0,-3.89463,-0.0563077,0.622493,0,0,0,0,0,0,0,269,-58,269,-58,386,-56,267,53,0,-0.15,3.12309,-1.5,3.94113e+12,0,0,2,0,0,0,0,0,0,0,0,14518,0,0,0,0,0,0,0,0,0,1,0
13149,-3.21174e-12,0,-1.57461e-06,-3.27738e-12,0,0,-1.13795e-13,0,0,-3.89212,-0.0656221,0.635534,0,0,0,0,0,0,0,270,-60,270,-60,389,-56,267,53,0,-0.15,3.12367,-1.5,3.94113e+12,0,0,2,0,0,0,0,0,0,0,0,14640,0,0,0,0,0,0,0,0,0,1,0
13164,-3.21174e-12,0,-1.57461e-06,-3.27738e-12,0,0,-1.13796e-13,0,0,-3.89212,-0.0656221,0.635534,0,0,0,0,0,0,0,270,-60,270,-60,389,-56,267,53,0,-0.15,3.1242,-1.5,3.94113e+12,0,0,2,0,0,0,0,0,0,0,0,14640,0,0,0,0,0,0,0,0,0,1,0
13178,-3.21174e-12,0,-1.57461e-06,-3.27738e-12,0,0,-1.13796e-13,0,0,-3.89212,-0.0656221,0.635534,0,0,0,0,0,0,0,270,-60,270,-60,389,-56,267,53,0,-0.15,3.12469,-1.5,3.94113e+12,0,0,2,0,0,0,0,0,0,0,0,14640,0,0,0,0,0,0,0,0,0,1,0
13191,-3.21174e-12,0,-1.57461e-06,-3.27738e-12,0,0,-1.13797e-13,0,0,-3.89212,-0.0656221,0.635534,0,0,0,0,0,0,0,270,-60,270,-60,389,-56,267,53,0,-0.15,3.12512,-1.5,3.94113e+12,0,0,2,0,0,0,0,0,0,0,0,14640,0,0,0,0,0,0,0,0,0,1,0
13206,-3.21174e-12,0,-1.57461e-06,-3.27738e-12,0,0,-1.13798e-13,0,0,-3.90731,-0.0611515,0.644523,0,0,0,0,0,0,0,272,-60,272,-60,387,-56,265,53,0,-0.15,3.12561,-1.5,3.94113e+12,0,0,2,0,0,0,0,0,0,0,0,14640,0,0,0,0,0,0,0,0,0,1,0
13222,-3.21174e-12,0,-1.57461e-06,-3.27738e-12,0,0,-1.13798e-13,0,0,-3.90731,-0.0611515,0.644523,0,0,0,0,0,0,0,272,-60,272,-60,387,-56,265,53,0,-0.15,3.12611,-1.5,3.94113e+12,0,0,2,0,0,0,0,0,0,0,0,14640,0,0,0,0,0,0,0,0,0,1,0
13239,-3.21174e-12,0,-1.57461e-06,-3.27738e-12,0,0,-1.13799e-13,0,0,-3.92896,-0.0563196,0.652457,0,0,0,0,0,0,0,269,-58,269,-58,386,-56,267,53,0,-0.15,3.12663,-1.5,3.94113e+12,0,0,2,0,0,0,0,0,0,0,0,14042,0,0,0,0,0,0,0,0,0,1,0
13254,-3.21174e-12,0,-1.57461e-06,-3.27738e-12,0,0,-1.13799e-13,0,0,-3.92896,-0.0563196,0.652457,0,0,0,0,0,0,0,269,-58,269,-58,386,-56,267,53,0,-0.15,3.12708,-1.5,3.94113e+12,0,0,2,0,0,0,0,0,0,0,0,14042,0,0,0,0,0,0,0,0,0,1,0
13270,-3.21174e-12,0,-1.57461e-06,-3.27738e-12,0,0,-1.138e-13,0,0,-3.92896,-0.0563196,0.652457,0,0,0,0,0,0,0,269,-58,269,-58,386,-56,267,53,0,-0.15,3.12754,-1.5,3.94113e+12,0,0,2,0,0,0,0,0,0,0,0,14042,0,0,0,0,0,0,0,0,0,1,0
13285,-3.21174e-12,0,-1.57461e-06,-3.27738e-12,0,0,-1.138e-13,0,0,-3.93986,-0.0640103,0.663341,0,0,0,0,0,0,0,272,-60,272,-60,386,-56,267,53,0,-0.15,3.12796,-1.5,3.94113e+12,0,0,2,0,0,0,0,0,0,0,0,14280,0,0,0,0,0,0,0,0,0,1,0
13301,-3.21174e-12,0,-1.57461e-06,-3.27738e-12,0,0,-1.13801e-13,0,0,-3.93986,-0.0640103,0.663341,0,0,0,0,0,0,0,272,-60,272,-60,386,-56,267,53,0,-0.15,3.12839,-1.5,3.94113e+12,0,0,2,0,0,0,0,0,0,0,0,14280,0,0,0,0,0,0,0,0,0,1,0
13316,-3.21174e-12,0,-1.57461e-06,-3.27738e-12,0,0,-1.13801e-13,0,0,-3.89463,-0.0563077,0.622493,0,0,0,0,0,0,0,269,-58,269,-58,386,-56,267,53,0,-0.15,3.12878,-1.5,3.94113e+12,0,0,2,0,0,0,0,0,0,0,0,14518,0,0,0,0,0,0,0,0,0,1,0
13331,-3.21174e-12,0,-1.57461e-06,-3.27738e-12,0,0,-1.13802e-13,0,0,-3.89463,-0.0563077,0.622493,0,0,0,0,0,0,0,269,-58,269,-58,386,-56,267,53,0,-0.15,3.12916,-1.5,3.94113e+12,0,0,2,0,0,0,0,0,0,0,0,14518,0,0,0,0,0,0,0,0,0,1,0
13347,-3.21174e-12,0,-1.57461e-06,-3.27738e-12,0,0,-1.13802e-13,0,0,-3.91381,-0.0564245,0.648178,0,0,0,0,0,0,0,269,-60,269,-60,386,-56,267,53,0,-0.15,3.12953,-1.5,3.94113e+12,0,0,2,0,0,0,0,0,0,0,0,14280,0,0,0,0,0,0,0,0,0,1,0
13363,-3.21174e-12,0,-1.57461e-06,-3.27738e-12,0,0,-1.13803e-13,0,0,-3.91381,-0.0564245,0.648178,0,0,0,0,0,0,0,269,-60,269,-60,386,-56,267,53,0,-0.15,3.12991,-1.5,3.94113e+12,0,0,2,0,0,0,0,0,0,0,0,14280,0,0,0,0,0,0,0,0,0,1,0
13380,-3.21174e-12,0,-1.57461e-06,-3.27738e-12,0,0,-1.13803e-13,0,0,-3.89212,-0.0656221,0.635534,0,0,0,0,0,0,0,270,-60,270,-60,389,-56,267,53,0,-0.15,3.13028,-1.5,3.94113e+12,0,0,2,0,0,0,0,0,0,0,0,14640,0,0,0,0,0,0,0,0,0,1,0
13395,-3.21174e-12,0,-1.57461e-06,-3.27738e-12,0,0,-1.13804e-13,0,0,-3.89212,-0.0656221,0.635534,0,0,0,0,0,0,0,270,-60,270,-60,389,-56,267,53,0,-0.15,3.13064,-1.5,3.94113e+12,0,0,2,0,0,0,0,0,0,0,0,14640,0,0,0,0,0,0,0,0,0,1,0
13411,-3.21174e-12,0,-1.57461e-06,-3.27738e-12,0,0,-1.13805e-13,0,0,-3.94991,-0.0592356,0.666758,0,0,0,0,0,0,0,273,-60,273,-60,384,-56,266,54,0,-0.15,3.13098,-1.5,3.94113e+12,0,0,2,0,0,0,0,0,0,0,0,14160,0,0,0,0,0,0,0,0,0,1,0
13426,-3.21174e-12,0,-1.57461e-06,-3.27738e-12,0,0,-1.13805e-13,0,0,-3.94991,-0.0592356,0.666758,0,0,0,0,0,0,0,273,-60,273,-60,384,-56,266,54,0,-0.15,3.1313,-1.5,3.94113e+12,0,0,2,0,0,0,0,0,0,0,0,14160,0,0,0,0,0,0,0,0,0,1,0
13442,-3.21174e-12,0,-1.57461e-06,-3.27738e-12,0,0,-1.13806e-13,0,0,-3.94181,-0.0567076,0.662047,0,0,0,0,0,0,0,272,-60,272,-60,384,-56,266,54,0,-0.15,3.13162,-1.5,3.94113e+12,0,0,2,0,0,0,0,0,0,0,0,14160,0,0,0,0,0,0,0,0,0,1,0
13455,-3.21174e-12,0,-1.57461e-06,-3.27738e-12,0,0,-1.13806e-13,0,0,-3.94181,-0.0567076,0.662047,0,0,0,0,0,0,0,272,-60,272,-60,384,-56,266,54,0,-0.15,3.13188,-1.5,3.94113e+12,0,0,2,0,0,0,0,0,0,0,0,14160,0,0,0,0,0,0,0,0,0,1,0
13469,-3.21174e-12,0,-1.57461e-06,-3.27738e-12,0,0,-1.13807e-13,0,0,-3.9124,-0.063463,0.644925,0,0,0,0,0,0,0,272,-60,272,-60,387,-56,266,54,0,-0.15,3.13215,-1.5,3.94113e+12,0,0,2,0,0,0,0,0,0,0,0,14520,0,0,0,0,0,0,0,0,0,1,0
13484,-3.21174e-12,0,-1.57461e-06,-3.27738e-12,0,0,-1.13807e-13,0,0,-3.9124,-0.063463,0.644925,0,0,0,0,0,0,0,272,-60,272,-60,387,-56,266,54,0,-0.15,3.13243,-1.5,3.94113e+12,0,0,2,0,0,0,0,0,0,0,0,14520,0,0,0,0,0,0,0,0,0,1,0
13500,-3.21174e-12,0,-1.57461e-06,-3.27738e-12,0,0,-1.13808e-13,0,0,-3.9124,-0.063463,0.644925,0,0,0,0,0,0,0,272,-60,272,-60,387,-56,266,54,0,-0.15,3.13272,-1.5,3.94113e+12,0,0,2,0,0,0,0,0,0,0,0,14520,0,0,0,0,0,0,0,0,0,1,0
13517,-3.21174e-12,0,-1.57461e-06,-3.27738e-12,0,0,-1.13808e-13,0,0,-3.89491,-0.0681016,0.637292,0,0,0,0,0,0,0,273,-60,273,-60,389,-56,265,53,0,-0.15,3.133,-1.5,3.94113e+12,0,0,2,0,0,0,0,0,0,0,0,14880,0,0,0,0,0,0,0,0,0,1,0
13532,-3.21174e-12,0,-1.57461e-06,-3.27738e-12,0,0,-1.13809e-13,0,0,-3.89491,-0.0681016,0.637292,0,0,0,0,0,0,0,273,-60,273,-60,389,-56,265,53,0,-0.15,3.13327,-1.5,3.94113e+12,0,0,2,0,0,0,0,0,0,0,0,14880,0,0,0,0,0,0,0,0,0,1,0
13548,-3.21174e-12,0,-1.57461e-06,-3.27738e-12,0,0,-1.13809e-13,0,0,-3.94824,-0.0569295,0.668305,0,0,0,0,0,0,0,272,-60,272,-60,384,-56,266,53,0,-0.15,3.13353,-1.5,3.94113e+12,0,0,2,0,0,0,0,0,0,0,0,14160,0,0,0,0,0,0,0,0,0,1,0
13563,-3.21174e-12,0,-1.57461e-06,-3.27738e-12,0,0,-1.1381e-13,0,0,-3.94824,-0.0569295,0.668305,0,0,0,0,0,0,0,272,-60,272,-60,384,-56,266,53,0,-0.15,3.13377,-1.5,3.94113e+12,0,0,2,0,0,0,0,0,0,0,0,14160,0,0,0,0,0,0,0,0,0,1,0
13579,-3.21174e-12,0,-1.57461e-06,-3.27738e-12,0,0,-1.13811e-13,0,0,-3.94991,-0.0592356,0.666758,0,0,0,0,0,0,0,273,-60,273,-60,384,-56,266,54,0,-0.15,3.13401,-1.5,3.94113e+12,0,0,2,0,0,0,0,0,0,0,0,14160,0,0,0,0,0,0,0,0,0,1,0
13594,-3.21174e-12,0,-1.57461e-06,-3.27738e-12,0,0,-1.13811e-13,0,0,-3.94991,-0.0592356,0.666758,0,0,0,0,0,0,0,273,-60,273,-60,384,-56,266,54,0,-0.15,3.13423,-1.5,3.94113e+12,0,0,2,0,0,0,0,0,0,0,0,14160,0,0,0,0,0,0,0,0,0,1,0
13610,-3.21174e-12,0,-1.57461e-06,-3.27738e-12,0,0,-1.13812e-13,0,0,-3.90019,-0.0704147,0.637813,0,0,0,0,0,0,0,273,-60,273,-60,389,-56,266,54,0,-0.15,3.13446,-1.5,3.94113e+12,0,0,2,0,0,0,0,0,0,0,0,14760,0,0,0,0,0,0,0,0,0,1,0
13627,-3.21174e-12,0,-1.57461e-06,-3.27738e-12,0,0,-1.13812e-13,0,0,-3.90019,-0.0704147,0.637813,0,0,0,0,0,0,0,273,-60,273,-60,389,-56,266,54,0,-0.15,3.13469,-1.5,3.94113e+12,0,0,2,0,0,0,0,0,0,0,0,14760,0,0,0,0,0,0,0,0,0,1,0
13642,-3.21174e-12,0,-1.57461e-06,-3.27738e-12,0,0,-1.13813e-13,0,0,-3.93986,-0.0640103,0.663341,0,0,0,0,0,0,0,272,-60,272,-60,386,-56,267,53,0,-0.15,3.13491,-1.5,3.94113e+12,0,0,2,0,0,0,0,0,0,0,0,14280,0,0,0,0,0,0,0,0,0,1,0
13658,-3.21174e-12,0,-1.57461e-06,-3.27738e-12,0,0,-1.13813e-13,0,0,-3.93986,-0.0640103,0.663341,0,0,0,0,0,0,0,272,-60,272,-60,386,-56,267,53,0,-0.15,3.13512,-1.5,3.94113e+12,0,0,2,0,0,0,0,0,0,0,0,14280,0,0,0,0,0,0,0,0,0,1,0
13673,-3.21174e-12,0,-1.57461e-06,-3.27738e-12,0,0,-1.13814e-13,0,0,-3.92265,-0.0589444,0.653326,0,0,0,0,0,0,0,270,-60,270,-60,386,-56,267,53,0,-0.15,3.13531,-1.5,3.94113e+12,0,0,2,0,0,0,0,0,0,0,0,14280,0,0,0,0,0,0,0,0,0,1,0
13689,-3.21174e-12,0,-1.57461e-06,-3.27738e-12,0,0,-1.13814e-13,0,0,-3.92265,-0.0589444,0.653326,0,0,0,0,0,0,0,270,-60,270,-60,386,-56,267,53,0,-0.15,3.13551,-1.5,3.94113e+12,0,0,2,0,0,0,0,0,0,0,0,14280,0,0,0,0,0,0,0,0,0,1,0
13705,-3.21174e-12,0,-1.57461e-06,-3.27738e-12,0,0,-1.13815e-13,0,0,-3.92265,-0.0589444,0.653326,0,0,0,0,0,0,0,270,-60,270,-60,386,-56,267,53,0,-0.15,3.13569,-1.5,3.94113e+12,0,0,2,0,0,0,0,0,0,0,0,14280,0,0,0,0,0,0,0,0,0,1,0
13720,-3.21174e-12,0,-1.57461e-06,-3.27738e-12,0,0,-1.13815e-13,0,0,-3.88691,-0.0655867,0.632635,0,0,0,0,0,0,0,272,-60,272,-60,389,-56,265,53,0,-0.15,3.13588,-1.5,3.94113e+12,0,0,2,0,0,0,0,0,0,0,0,14880,0,0,0,0,0,0,0,0,0,1,0
13733,-3.21174e-12,0,-1.57461e-06,-3.27738e-12,0,0,-1.13816e-13,0,0,-3.88691,-0.0655867,0.632635,0,0,0,0,0,0,0,272,-60,272,-60,389,-56,265,53,0,-0.15,3.13602,-1.5,3.94113e+12,0,0,2,0,0,0,0,0,0,0,0,14880,0,0,0,0,0,0,0,0,0,1,0
13747,-3.21174e-12,0,-1.57461e-06,-3.27738e-12,0,0,-1.13817e-13,0,0,-3.93015,-0.0662598,0.657762,0,0,0,0,0,0,0,272,-60,272,-60,386,-56,267,53,0,-0.15,3.13618,-1.5,3.94113e+12,0,0,2,0,0,0,0,0,0,0,0,14280,0,0,0,0,0,0,0,0,0,1,0
13761,-3.21174e-12,0,-1.57461e-06,-3.27738e-12,0,0,-1.13817e-13,0,0,-3.93015,-0.0662598,0.657762,0,0,0,0,0,0,0,272,-60,272,-60,386,-56,267,53,0,-0.15,3.13633,-1.5,3.94113e+12,0,0,2,0,0,0,0,0,0,0,0,14280,0,0,0,0,0,0,0,0,0,1,0
13776,-3.21174e-12,0,-1.57461e-06,-3.27738e-12,0,0,-1.13818e-13,0,0,-3.91879,-0.0585674,0.646544,0,0,0,0,0,0,0,269,-58,269,-58,387,-56,267,53,0,-0.15,3.13648,-1.5,3.94113e+12,0,0,2,0,0,0,0,0,0,0,0,14160,0,0,0,0,0,0,0,0,0,1,0
13792,-3.21174e-12,0,-1.57461e-06,-3.27738e-12,0,0,-1.13818e-13,0,0,-3.91879,-0.0585674,0.646544,0,0,0,0,0,0,0,269,-58,269,-58,387,-56,267,53,0,-0.15,3.13665,-1.5,3.94113e+12,0,0,2,0,0,0,0,0,0,0,0,14160,0,0,0,0,0,0,0,0,0,1,0
13808,-3.21174e-12,0,-1.57461e-06,-3.27738e-12,0,0,-1.13819e-13,0,0,-3.90377,-0.0586662,0.64233,0,0,0,0,0,0,0,269,-60,269,-60,387,-56,267,53,0,-0.15,3.13679,-1.5,3.94113e+12,0,0,2,0,0,0,0,0,0,0,0,14400,0,0,0,0,0,0,0,0,0,1,0
13823,-3.21174e-12,0,-1.57461e-06,-3.27738e-12,0,0,-1.13819e-13,0,0,-3.90377,-0.0586662,0.64233,0,0,0,0,0,0,0,269,-60,269,-60,387,-56,267,53,0,-0.15,3.13693,-1.5,3.94113e+12,0,0,2,0,0,0,0,0,0,0,0,14400,0,0,0,0,0,0,0,0,0,1,0
13839,-3.21174e-12,0,-1.57461e-06,-3.27738e-12,0,0,-1.1382e-13,0,0,-3.92235,-0.061226,0.650717,0,0,0,0,0,0,0,272,-60,272,-60,386,-56,266,54,0,-0.15,3.13708,-1.5,3.94113e+12,0,0,2,0,0,0,0,0,0,0,0,14400,0,0,0,0,0,0,0,0,0,1,0
13855,-3.21174e-12,0,-1.57461e-06,-3.27738e-12,0,0,-1.1382e-13,0,0,-3.92235,-0.061226,0.650717,0,0,0,0,0,0,0,272,-60,272,-60,386,-56,266,54,0,-0.15,3.13722,-1.5,3.94113e+12,0,0,2,0,0,0,0,0,0,0,0,14400,0,0,0,0,0,0,0,0,0,1,0
13872,-3.21174e-12,0,-1.57461e-06,-3.27738e-12,0,0,-1.13821e-13,0,0,-3.92235,-0.061226,0.650717,0,0,0,0,0,0,0,272,-60,272,-60,386,-56,266,54,0,-0.15,3.13736,-1.5,3.94113e+12,0,0,2,0,0,0,0,0,0,0,0,14400,0,0,0,0,0,0,0,0,0,1,0
13887,-3.21174e-12,0,-1.57461e-06,-3.27738e-12,0,0,-1.13821e-13,0,0,-3.92023,-0.0638585,0.637298,0,0,0,0,0,0,0,272,-58,272,-58,386,-56,267,53,0,-0.15,3.1375,-1.5,3.94113e+12,0,0,2,0,0,0,0,0,0,0,0,14518,0,0,0,0,0,0,0,0,0,1,0
13903,-3.21174e-12,0,-1.57461e-06,-3.27738e-12,0,0,-1.13822e-13,0,0,-3.87538,-0.0628692,0.623386,0,0,0,0,0,0,0,270,-60,270,-60,389,-56,266,54,0,-0.15,3.13763,-1.5,3.94113e+12,0,0,2,0,0,0,0,0,0,0,0,14760,0,0,0,0,0,0,0,0,0,1,0
13918,-3.21174e-12,0,-1.57461e-06,-3.27738e-12,0,0,-1.13822e-13,0,0,-3.87538,-0.0628692,0.623386,0,0,0,0,0,0,0,270,-60,270,-60,389,-56,266,54,0,-0.15,3.13774,-1.5,3.94113e+12,0,0,2,0,0,0,0,0,0,0,0,14760,0,0,0,0,0,0,0,0,0,1,0
13934,-3.21174e-12,0,-1.57461e-06,-3.27738e-12,0,0,-1.13823e-13,0,0,-3.87538,-0.0628692,0.623386,0,0,0,0,0,0,0,270,-60,270,-60,389,-56,266,54,0,-0.15,3.13786,-1.5,3.94113e+12,0,0,2,0,0,0,0,0,0,0,0,14760,0,0,0,0,0,0,0,0,0,1,0
13949,-3.21174e-12,0,-1.57461e-06,-3.27738e-12,0,0,-1.13824e-13,0,0,-3.92453,-0.0706381,0.649865,0,0,0,0,0,0,0,272,-58,272,-58,389,-56,267,53,0,-0.15,3.13798,-1.5,3.94113e+12,0,0,2,0,0,0,0,0,0,0,0,14396,0,0,0,0,0,0,0,0,0,1,0
13963,-3.21174e-12,0,-1.57461e-06,-3.27738e-12,0,0,-1.13824e-13,0,0,-3.92453,-0.0706381,0.649865,0,0,0,0,0,0,0,272,-58,272,-58,389,-56,267,53,0,-0.15,3.13808,-1.5,3.94113e+12,0,0,2,0,0,0,0,0,0,0,0,14396,0,0,0,0,0,0,0,0,0,1,0
13980,-3.21174e-12,0,-1.57461e-06,-3.27738e-12,0,0,-1.13825e-13,0,0,-3.94821,-0.0665556,0.668202,0,0,0,0,0,0,0,273,-60,273,-60,386,-56,267,53,0,-0.15,3.13819,-1.5,3.94113e+12,0,0,2,0,0,0,0,0,0,0,0,14280,0,0,0,0,0,0,0,0,0,1,0
13995,-3.21174e-12,0,-1.57461e-06,-3.27738e-12,0,0,-1.13825e-13,0,0,-3.94821,-0.0665556,0.668202,0,0,0,0,0,0,0,273,-60,273,-60,386,-56,267,53,0,-0.15,3.13829,-1.5,3.94113e+12,0,0,2,0,0,0,0,0,0,0,0,14280,0,0,0,0,0,0,0,0,0,1,0
14014,-3.21174e-12,0,-1.57461e-06,-3.27738e-12,0,0,-1.13826e-13,0,0,-3.93986,-0.0640103,0.663341,0,0,0,0,0,0,0,272,-60,272,-60,386,-56,267,53,0,-0.15,3.13842,-1.5,3.94113e+12,0,0,2,0,0,0,0,0,0,0,0,14280,0,0,0,0,0,0,0,0,0,1,0
14028,-3.21174e-12,0,-1.57461e-06,-3.27738e-12,0,0,-1.13826e-13,0,0,-3.93986,-0.0640103,0.663341,0,0,0,0,0,0,0,272,-60,272,-60,386,-56,267,53,0,-0.15,3.13851,-1.5,3.94113e+12,0,0,2,0,0,0,0,0,0,0,0,14280,0,0,0,0,0,0,0,0,0,1,0
14041,-3.21174e-12,0,-1.57461e-06,-3.27738e-12,0,0,-1.13827e-13,0,0,-3.93986,-0.0640103,0.663341,0,0,0,0,0,0,0,272,-60,272,-60,386,-56,267,53,0,-0.15,3.13859,-1.5,3.94113e+12,0,0,2,0,0,0,0,0,0,0,0,14280,0,0,0,0,0,0,0,0,0,1,0
14056,-3.21174e-12,0,-1.57461e-06,-3.27738e-12,0,0,-1.13827e-13,0,0,-3.93986,-0.0640103,0.663341,0,0,0,0,0,0,0,272,-60,272,-60,386,-56,267,53,0,-0.15,3.13867,-1.5,3.94113e+12,0,0,2,0,0,0,0,0,0,0,0,14280,0,0,0,0,0,0,0,0,0,1,0
14072,-3.21174e-12,0,-1.57461e-06,-3.27738e-12,0,0,-1.13828e-13,0,0,-3.92036,-0.0493708,0.652139,0,0,0,0,0,0,0,270,-60,270,-60,384,-56,265,53,0,-0.15,3.13877,-1.5,3.94113e+12,0,0,2,0,0,0,0,0,0,0,0,14280,0,0,0,0,0,0,0,0,0,1,0
14087,-3.21174e-12,0,-1.57461e-06,-3.27738e-12,0,0,-1.13828e-13,0,0,-3.92036,-0.0493708,0.652139,0,0,0,0,0,0,0,270,-60,270,-60,384,-56,265,53,0,-0.15,3.13885,-1.5,3.94113e+12,0,0,2,0,0,0,0,0,0,0,0,14280,0,0,0,0,0,0,0,0,0,1,0
14104,-3.21174e-12,0,-1.57461e-06,-3.27738e-12,0,0,-1.13829e-13,0,0,-3.92036,-0.0493708,0.652139,0,0,0,0,0,0,0,270,-60,270,-60,384,-56,265,53,0,-0.15,3.13894,-1.5,3.94113e+12,0,0,2,0,0,0,0,0,0,0,0,14280,0,0,0,0,0,0,0,0,0,1,0
14120,-3.21174e-12,0,-1.57461e-06,-3.27738e-12,0,0,-1.1383e-13,0,0,-3.93986,-0.0640103,0.663341,0,0,0,0,0,0,0,272,-60,272,-60,386,-56,267,53,0,-0.15,3.13903,-1.5,3.94113e+12,0,0,2,0,0,0,0,0,0,0,0,14280,0,0,0,0,0,0,0,0,0,1,0
14135,-3.21174e-12,0,-1.57461e-06,-3.27738e-12,0,0,-1.1383e-13,0,0,-3.93986,-0.0640103,0.663341,0,0,0,0,0,0,0,272,-60,272,-60,386,-56,267,53,0,-0.15,3.1391,-1.5,3.94113e+12,0,0,2,0,0,0,0,0,0,0,0,14280,0,0,0,0,0,0,0,0,0,1,0
14151,-3.21174e-12,0,-1.57461e-06,-3.27738e-12,0,0,-1.13831e-13,0,0,-3.89212,-0.0656221,0.635534,0,0,0,0,0,0,0,270,-60,270,-60,389,-56,267,53,0,-0.15,3.13918,-1.5,3.94113e+12,0,0,2,0,0,0,0,0,0,0,0,14640,0,0,0,0,0,0,0,0,0,1,0
14166,-3.21174e-12,0,-1.57461e-06,-3.27738e-12,0,0,-1.13831e-13,0,0,-3.89212,-0.0656221,0.635534,0,0,0,0,0,0,0,270,-60,270,-60,389,-56,267,53,0,-0.15,3.13925,-1.5,3.94113e+12,0,0,2,0,0,0,0,0,0,0,0,14640,0,0,0,0,0,0,0,0,0,1,0
14182,-3.21174e-12,0,-1.57461e-06,-3.27738e-12,0,0,-1.13832e-13,0,0,-3.91381,-0.0564245,0.648178,0,0,0,0,0,0,0,269,-60,269,-60,386,-56,267,53,0,-0.15,3.13933,-1.5,3.94113e+12,0,0,2,0,0,0,0,0,0,0,0,14280,0,0,0,0,0,0,0,0,0,1,0
14197,-3.21174e-12,0,-1.57461e-06,-3.27738e-12,0,0,-1.13832e-13,0,0,-3.91381,-0.0564245,0.648178,0,0,0,0,0,0,0,269,-60,269,-60,386,-56,267,53,0,-0.15,3.13939,-1.5,3.94113e+12,0,0,2,0,0,0,0,0,0,0,0,14280,0,0,0,0,0,0,0,0,0,1,0
14213,-3.21174e-12,0,-1.57461e-06,-3.27738e-12,0,0,-1.13833e-13,0,0,-3.93986,-0.0640103,0.663341,0,0,0,0,0,0,0,272,-60,272,-60,386,-56,267,53,0,-0.15,3.13946,-1.5,3.94113e+12,0,0,2,0,0,0,0,0,0,0,0,14280,0,0,0,0,0,0,0,0,0,1,0
14228,-3.21174e-12,0,-1.57461e-06,-3.27738e-12,0,0,-1.13833e-13,0,0,-3.93986,-0.0640103,0.663341,0,0,0,0,0,0,0,272,-60,272,-60,386,-56,267,53,0,-0.15,3.13953,-1.5,3.94113e+12,0,0,2,0,0,0,0,0,0,0,0,14280,0,0,0,0,0,0,0,0,0,1,0
14244,-3.21174e-12,0,-1.57461e-06,-3.27738e-12,0,0,-1.13834e-13,0,0,-3.92265,-0.0589444,0.653326,0,0,0,0,0,0,0,270,-60,270,-60,386,-56,267,53,0,-0.15,3.13959,-1.5,3.94113e+12,0,0,2,0,0,0,0,0,0,0,0,14280,0,0,0,0,0,0,0,0,0,1,0
14261,-3.21174e-12,0,-1.57461e-06,-3.27738e-12,0,0,-1.13834e-13,0,0,-3.92265,-0.0589444,0.653326,0,0,0,0,0,0,0,270,-60,270,-60,386,-56,267,53,0,-0.15,3.13966,-1.5,3.94113e+12,0,0,2,0,0,0,0,0,0,0,0,14280,0,0,0,0,0,0,0,0,0,1,0
14276,-3.21174e-12,0,-1.57461e-06,-3.27738e-12,0,0,-1.13835e-13,0,0,-3.92235,-0.061226,0.650717,0,0,0,0,0,0,0,272,-60,272,-60,386,-56,266,54,0,-0.15,3.13972,-1.5,3.94113e+12,0,0,2,0,0,0,0,0,0,0,0,14400,0,0,0,0,0,0,0,0,0,1,0
14292,-3.21174e-12,0,-1.57461e-06,-3.27738e-12,0,0,-1.13835e-13,0,0,-3.92235,-0.061226,0.650717,0,0,0,0,0,0,0,272,-60,272,-60,386,-56,266,54,0,-0.15,3.13977,-1.5,3.94113e+12,0,0,2,0,0,0,0,0,0,0,0,14400,0,0,0,0,0,0,0,0,0,1,0
14305,-3.21174e-12,0,-1.57461e-06,-3.27738e-12,0,0,-1.13836e-13,0,0,-3.91649,-0.0491736,0.647325,0,0,0,0,0,0,0,269,-60,269,-60,384,-56,266,54,0,-0.15,3.13982,-1.5,3.94113e+12,0,0,2,0,0,0,0,0,0,0,0,14160,0,0,0,0,0,0,0,0,0,1,0
14318,-3.21174e-12,0,-1.57461e-06,-3.27738e-12,0,0,-1.13837e-13,0,0,-3.91649,-0.0491736,0.647325,0,0,0,0,0,0,0,269,-60,269,-60,384,-56,266,54,0,-0.15,3.13987,-1.5,3.94113e+12,0,0,2,0,0,0,0,0,0,0,0,14160,0,0,0,0,0,0,0,0,0,1,0
14333,-3.21174e-12,0,-1.57461e-06,-3.27738e-12,0,0,-1.13837e-13,0,0,-3.91649,-0.0491736,0.647325,0,0,0,0,0,0,0,269,-60,269,-60,384,-56,266,54,0,-0.15,3.13992,-1.5,3.94113e+12,0,0,2,0,0,0,0,0,0,0,0,14160,0,0,0,0,0,0,0,0,0,1,0
14349,-3.21174e-12,0,-1.57461e-06,-3.27738e-12,0,0,-1.13838e-13,0,0,-3.9251,-0.0516762,0.652328,0,0,0,0,0,0,0,270,-60,270,-60,384,-56,266,54,0,-0.15,3.13997,-1.5,3.94113e+12,0,0,2,0,0,0,0,0,0,0,0,14160,0,0,0,0,0,0,0,0,0,1,0
14364,-3.21174e-12,0,-1.57461e-06,-3.27738e-12,0,0,-1.13838e-13,0,0,-3.9251,-0.0516762,0.652328,0,0,0,0,0,0,0,270,-60,270,-60,384,-56,266,54,0,-0.15,3.14002,-1.5,3.94113e+12,0,0,2,0,0,0,0,0,0,0,0,14160,0,0,0,0,0,0,0,0,0,1,0
14380,-3.21174e-12,0,-1.57461e-06,-3.27738e-12,0,0,-1.13839e-13,0,0,-3.92023,-0.0638585,0.637298,0,0,0,0,0,0,0,272,-58,272,-58,386,-56,267,53,0,-0.15,3.14007,-1.5,3.94113e+12,0,0,2,0,0,0,0,0,0,0,0,14518,0,0,0,0,0,0,0,0,0,1,0
14396,-3.21174e-12,0,-1.57461e-06,-3.27738e-12,0,0,-1.13839e-13,0,0,-3.92023,-0.0638585,0.637298,0,0,0,0,0,0,0,272,-58,272,-58,386,-56,267,53,0,-0.15,3.14012,-1.5,3.94113e+12,0,0,2,0,0,0,0,0,0,0,0,14518,0,0,0,0,0,0,0,0,0,1,0
14411,-3.21174e-12,0,-1.57461e-06,-3.27738e-12,0,0,-1.1384e-13,0,0,-3.9339,-0.0533985,0.646041,0,0,0,0,0,0,0,269,-55,269,-55,386,-56,266,54,0,-0.15,3.14016,-1.5,3.94113e+12,0,0,2,0,0,0,0,0,0,0,0,13920,0,0,0,0,0,0,0,0,0,1,0
14427,-3.21174e-12,0,-1.57461e-06,-3.27738e-12,0,0,-1.1384e-13,0,0,-3.9339,-0.0533985,0.646041,0,0,0,0,0,0,0,269,-55,269,-55,386,-56,266,54,0,-0.15,3.14021,-1.5,3.94113e+12,0,0,2,0,0,0,0,0,0,0,0,13920,0,0,0,0,0,0,0,0,0,1,0
14442,-3.21174e-12,0,-1.57461e-06,-3.27738e-12,0,0,-1.13841e-13,0,0,-3.87538,-0.0628692,0.623386,0,0,0,0,0,0,0,270,-60,270,-60,389,-56,266,54,0,-0.15,3.14025,-1.5,3.94113e+12,0,0,2,0,0,0,0,0,0,0,0,14760,0,0,0,0,0,0,0,0,0,1,0
14457,-3.21174e-12,0,-1.57461e-06,-3.27738e-12,0,0,-1.13841e-13,0,0,-3.87538,-0.0628692,0.623386,0,0,0,0,0,0,0,270,-60,270,-60,389,-56,266,54,0,-0.15,3.14029,-1.5,3.94113e+12,0,0,2,0,0,0,0,0,0,0,0,14760,0,0,0,0,0,0,0,0,0,1,0
14473,-3.21174e-12,0,-1.57461e-06,-3.27738e-12,0,0,-1.13842e-13,0,0,-3.89703,-0.0536961,0.635994,0,0,0,0,0,0,0,269,-60,269,-60,386,-56,266,54,0,-0.15,3.14033,-1.5,3.94113e+12,0,0,2,0,0,0,0,0,0,0,0,14400,0,0,0,0,0,0,0,0,0,1,0
14489,-3.21174e-12,0,-1.57461e-06,-3.27738e-12,0,0,-1.13843e-13,0,0,-3.89703,-0.0536961,0.635994,0,0,0,0,0,0,0,269,-60,269,-60,386,-56,266,54,0,-0.15,3.14037,-1.5,3.94113e+12,0,0,2,0,0,0,0,0,0,0,0,14400,0,0,0,0,0,0,0,0,0,1,0
14506,-3.21174e-12,0,-1.57461e-06,-3.27738e-12,0,0,-1.13843e-13,0,0,-3.89703,-0.0536961,0.635994,0,0,0,0,0,0,0,269,-60,269,-60,386,-56,266,54,0,-0.15,3.14041,-1.5,3.94113e+12,0,0,2,0,0,0,0,0,0,0,0,14400,0,0,0,0,0,0,0,0,0,1,0
14521,-3.21174e-12,0,-1.57461e-06,-3.27738e-12,0,0,-1.13844e-13,0,0,-3.92896,-0.0563196,0.652457,0,0,0,0,0,0,0,269,-58,269,-58,386,-56,267,53,0,-0.15,3.14044,-1.5,3.94113e+12,0,0,2,0,0,0,0,0,0,0,0,14042,0,0,0,0,0,0,0,0,0,1,0
14537,-3.21174e-12,0,-1.57461e-06,-3.27738e-12,0,0,-1.13844e-13,0,0,-3.92896,-0.0563196,0.652457,0,0,0,0,0,0,0,269,-58,269,-58,386,-56,267,53,0,-0.15,3.14048,-1.5,3.94113e+12,0,0,2,0,0,0,0,0,0,0,0,14042,0,0,0,0,0,0,0,0,0,1,0
14552,-3.21174e-12,0,-1.57461e-06,-3.27738e-12,0,0,-1.13845e-13,0,0,-3.93986,-0.0640103,0.663341,0,0,0,0,0,0,0,272,-60,272,-60,386,-56,267,53,0,-0.15,3.14051,-1.5,3.94113e+12,0,0,2,0,0,0,0,0,0,0,0,14280,0,0,0,0,0,0,0,0,0,1,0
14568,-3.21174e-12,0,-1.57461e-06,-3.27738e-12,0,0,-1.13845e-13,0,0,-3.93986,-0.0640103,0.663341,0,0,0,0,0,0,0,272,-60,272,-60,386,-56,267,53,0,-0.15,3.14055,-1.5,3.94113e+12,0,0,2,0,0,0,0,0,0,0,0,14280,0,0,0,0,0,0,0,0,0,1,0
14581,-3.21174e-12,0,-1.57461e-06,-3.27738e-12,0,0,-1.13846e-13,0,0,-3.9093,-0.0706824,0.645535,0,0,0,0,0,0,0,272,-60,272,-60,389,-56,267,53,0,-0.15,3.14057,-1.5,3.94113e+12,0,0,2,0,0,0,0,0,0,0,0,14640,0,0,0,0,0,0,0,0,0,1,0
14594,-3.21174e-12,0,-1.57461e-06,-3.27738e-12,0,0,-1.13846e-13,0,0,-3.9093,-0.0706824,0.645535,0,0,0,0,0,0,0,272,-60,272,-60,389,-56,267,53,0,-0.15,3.1406,-1.5,3.94113e+12,0,0,2,0,0,0,0,0,0,0,0,14640,0,0,0,0,0,0,0,0,0,1,0
14610,-3.21174e-12,0,-1.57461e-06,-3.27738e-12,0,0,-1.13847e-13,0,0,-3.92353,-0.0660154,0.651326,0,0,0,0,0,0,0,272,-60,272,-60,387,-56,267,54,0,-0.15,3.14063,-1.5,3.94113e+12,0,0,2,0,0,0,0,0,0,0,0,14400,0,0,0,0,0,0,0,0,0,1,0
14626,-3.21174e-12,0,-1.57461e-06,-3.27738e-12,0,0,-1.13847e-13,0,0,-3.92353,-0.0660154,0.651326,0,0,0,0,0,0,0,272,-60,272,-60,387,-56,267,54,0,-0.15,3.14066,-1.5,3.94113e+12,0,0,2,0,0,0,0,0,0,0,0,14400,0,0,0,0,0,0,0,0,0,1,0
14643,-3.21174e-12,0,-1.57461e-06,-3.27738e-12,0,0,-1.13848e-13,0,0,-3.89491,-0.0681016,0.637292,0,0,0,0,0,0,0,273,-60,273,-60,389,-56,265,53,0,-0.15,3.14069,-1.5,3.94113e+12,0,0,2,0,0,0,0,0,0,0,0,14880,0,0,0,0,0,0,0,0,0,1,0
14658,-3.21174e-12,0,-1.57461e-06,-3.27738e-12,0,0,-1.13848e-13,0,0,-3.89491,-0.0681016,0.637292,0,0,0,0,0,0,0,273,-60,273,-60,389,-56,265,53,0,-0.15,3.14072,-1.5,3.94113e+12,0,0,2,0,0,0,0,0,0,0,0,14880,0,0,0,0,0,0,0,0,0,1,0
14674,-3.21174e-12,0,-1.57461e-06,-3.27738e-12,0,0,-1.13849e-13,0,0,-3.91649,-0.0491736,0.647325,0,0,0,0,0,0,0,269,-60,269,-60,384,-56,266,54,0,-0.15,3.14075,-1.5,3.94113e+12,0,0,2,0,0,0,0,0,0,0,0,14160,0,0,0,0,0,0,0,0,0,1,0
14689,-3.21174e-12,0,-1.57461e-06,-3.27738e-12,0,0,-1.1385e-13,0,0,-3.91649,-0.0491736,0.647325,0,0,0,0,0,0,0,269,-60,269,-60,384,-56,266,54,0,-0.15,3.14077,-1.5,3.94113e+12,0,0,2,0,0,0,0,0,0,0,0,14160,0,0,0,0,0,0,0,0,0,1,0
14705,-3.21174e-12,0,-1.57461e-06,-3.27738e-12,0,0,-1.1385e-13,0,0,-3.91649,-0.0491736,0.647325,0,0,0,0,0,0,0,269,-60,269,-60,384,-56,266,54,0,-0.15,3.1408,-1.5,3.94113e+12,0,0,2,0,0,0,0,0,0,0,0,14160,0,0,0,0,0,0,0,0,0,1,0
14720,-3.21174e-12,0,-1.57461e-06,-3.27738e-12,0,0,-1.13851e-13,0,0,-3.92453,-0.0706381,0.649865,0,0,0,0,0,0,0,272,-58,272,-58,389,-56,267,53,0,-0.15,3.14082,-1.5,3.94113e+12,0,0,2,0,0,0,0,0,0,0,0,14396,0,0,0,0,0,0,0,0,0,1,0
